     2.10           OBSERVATION DATA    G (GPS)             RINEX VERSION / TYPE
teqc  2002Mar14     CORS/NGS/NOAA       20030411 19:42:17UTCPGM / RUN BY / DATE
Solaris 2.7|Ultra 2|cc SC5.0|=+-|*Sparc                     COMMENT
BIT 2 OF LLI FLAGS DATA COLLECTED UNDER A/S CONDITION       COMMENT
mthn                                                        MARKER NAME
xxx                                                         MARKER NUMBER
CORS/NGS/NOAA       FL-DOT                                  OBSERVER / AGENCY
LP019992605         ASHTECH   Z-XII3    CD00                REC # / TYPE / VERS
620002308           ASH701945C_M                            ANT # / TYPE
   901910.2905 -5726184.9678  2651532.5840                  APPROX POSITION XYZ
        0.0000        0.0000        0.0000                  ANTENNA: DELTA H/E/N
     1     1                                                WAVELENGTH FACT L1/2
     7    C1    L1    L2    P1    P2    D1    D2            # / TYPES OF OBSERV
     1.0000                                                 INTERVAL
 SNR is mapped to RINEX snr flag value [1-9]                COMMENT
  L1: 1 -> 1;  90 -> 5; 210 -> 9                            COMMENT
  L2: 1 -> 1; 150 -> 5; 250 -> 9                            COMMENT
teqc windowed: delta = 3900.000 sec                         COMMENT
  2003     4    11    18     0    0.0000000     GPS         TIME OF FIRST OBS
                                                            END OF HEADER
 03  4 11 18  0  0.0000000  0  8G24G10G 5G29G 4G 7G30G13
  21592120.2804  -16766126.85849 -13053617.56047  21592120.7414   21592128.3664
      -689.9834       -537.6474
  20357833.4344  -18643096.13549 -14255033.38147  20357832.3574   20357840.7754
      1228.4514        957.2344
  21945118.3364  -15890528.87449 -11906569.79946  21945117.7594   21945126.4824
        52.6844         41.0494
  24180762.8934   -1335814.95149  -1021155.23345  24180762.6914   24180782.2064
      3034.6324       2364.6414
  22807365.7614  -10067420.45149  -7566669.68446  22807365.7524   22807374.2534
     -1779.4424      -1386.5824
  22583046.5174  -11082334.06449  -8627606.84246  22583045.7814   22583057.6154
     -2232.6114      -1739.7054
  23341920.4224   -8852884.69149  -6878242.71745  23341920.7324   23341928.7894
      1903.7444       1483.4344
  24263850.7294   -3552056.95249  -2664610.22345  24263851.1584   24263860.6744
      -981.7124       -764.9754
 03  4 11 18  0  1.0000000  0  8G24G10G 5G29G 4G 7G30G13
  21592251.5884  -16765437.16149 -13053080.13047  21592251.6074   21592259.5274
      -690.3964       -537.9734
  20357599.6594  -18644324.55649 -14255990.58747  20357598.7854   20357606.9244
      1227.4234        956.4314
  21945108.2644  -15890581.54949 -11906610.84746  21945107.9954   21945116.4854
        51.6924         40.2734
  24180185.4174   -1338849.97849  -1023520.17745  24180185.3034   24180204.2824
      3034.3714       2364.4274
  22807704.2974  -10065641.32149  -7565283.35346  22807704.8194   22807712.7264
     -1779.8224      -1386.8574
  22583471.3334  -11080101.58249  -8625867.24746  22583470.4644   22583480.7444
     -2233.3674      -1740.2734
  23341558.0804   -8854788.48049  -6879726.19045  23341558.2104   23341567.0644
      1902.8094       1482.7114
  24264037.4914   -3551075.28049  -2663845.28445  24264038.2644   24264047.5694
      -982.6644       -765.7084
 03  4 11 18  0  2.0000000  0  8G24G10G 5G29G 4G 7G30G13
  21592382.8404  -16764747.27049 -13052542.55747  21592383.0574   21592390.4394
      -689.9114       -537.5964
  20357366.0334  -18645552.21949 -14256947.20847  20357365.0404   20357373.4884
      1227.3204        956.3504
  21945098.3314  -15890633.49449 -11906651.31946  21945097.6884   21945106.8764
        51.6104         40.2064
  24179607.8104   -1341884.92649  -1025885.06445  24179607.8144   24179626.8004
      3034.9694       2364.8994
  22808042.8514  -10063862.06549  -7563896.92046  22808043.3704   22808051.9004
     -1779.2704      -1386.4544
  22583896.2354  -11077868.57749  -8624127.25746  22583894.8554   22583906.1314
     -2233.2354      -1740.1844
  23341195.8554   -8856691.61149  -6881209.15445  23341196.4364   23341205.0884
      1902.8374       1482.7314
  24264224.5014   -3550092.89949  -2663079.79045  24264225.3194   24264234.4034
      -982.6814       -765.7254
 03  4 11 18  0  3.0000000  0  8G24G10G 5G29G 4G 7G30G13
  21592514.1024  -16764057.40749 -13052004.99947  21592513.7194   21592522.0124
      -690.0454       -537.7044
  20357132.4924  -18646779.33449 -14257903.40247  20357131.4744   20357139.8854
      1226.6634        955.8434
  21945088.5174  -15890684.91949 -11906691.39446  21945088.0594   21945097.0314
        50.9984         39.7494
  24179030.1874   -1344920.09949  -1028250.12645  24179030.1384   24179049.1054
      3035.1224       2365.0224
  22808381.4244  -10062082.90549  -7562510.56446  22808381.1654   22808389.9784
     -1779.2964      -1386.4614
  22584321.1734  -11075635.28149  -8622387.03746  22584320.4884   22584331.0284
     -2233.6994      -1740.5234
  23340833.7104   -8858594.28649  -6882691.75645  23340834.3114   23340842.7134
      1902.3064       1482.3094
  24264411.5164   -3549110.01949  -2662313.91045  24264412.0274   24264421.5254
      -983.3154       -766.2204
 03  4 11 18  0  4.0000000  0  8G24G10G 5G29G 4G 7G30G13
  21592645.4304  -16763367.49449 -13051467.40447  21592645.5444   21592653.5434
      -689.9534       -537.6334
  20356899.0864  -18648005.83049 -14258859.11147  20356898.2144   20356906.2094
      1226.1654        955.4494
  21945078.8874  -15890735.73149 -11906730.99346  21945078.0544   21945087.2564
        50.4884         39.3354
  24178452.5834   -1347955.30049  -1030615.21045  24178452.4374   24178471.2564
      3035.2294       2365.1114
  22808719.9414  -10060303.75949  -7561124.21146  22808720.0684   22808728.6084
     -1779.1224      -1386.3444
  22584746.1994  -11073401.59749  -8620646.51446  22584745.5124   22584756.7304
     -2233.9284      -1740.7264
  23340471.7394   -8860496.41349  -6884173.93345  23340472.7424   23340480.7994
      1901.8524       1481.9644
  24264598.7544   -3548126.58549  -2661547.59745  24264598.7844   24264609.2154
      -983.7004       -766.5234
 03  4 11 18  0  5.0000000  0  8G24G10G 5G29G 4G 7G30G13
  21592776.7384  -16762677.58249 -13050929.80947  21592776.9454   21592784.6504
      -690.0204       -537.6764
  20356665.7834  -18649231.75149 -14259814.37247  20356664.6694   20356673.2244
      1225.5144        954.9484
  21945069.3524  -15890786.00149 -11906770.16446  21945068.5104   21945077.6154
        49.8874         38.8784
  24177875.0164   -1350990.67049  -1032980.42345  24177875.2084   24177893.8294
      3035.3054       2365.1644
  22809058.4764  -10058524.67749  -7559737.92046  22809058.7234   22809067.9114
     -1779.1414      -1386.3354
  22585171.2614  -11071167.59749  -8618905.73046  22585170.8764   22585181.3414
     -2234.3174      -1741.0354
  23340109.8564   -8862398.04049  -6885655.71845  23340110.9784   23340120.0074
      1901.2964       1481.5294
  24264786.0914   -3547142.62849  -2660780.87445  24264785.7744   24264796.4834
      -984.3374       -767.0184
 03  4 11 18  0  6.0000000  0  8G24G10G 5G29G 4G 7G30G13
  21592908.0174  -16761987.67549 -13050392.22147  21592908.3044   21592915.9624
      -690.3514       -537.9344
  20356432.5984  -18650457.11249 -14260769.19847  20356431.5714   20356440.0384
      1224.6224        954.2454
  21945059.9154  -15890835.72649 -11906808.91646  21945059.2954   21945068.1584
        48.9984         38.1894
  24177297.4824   -1354026.19249  -1035345.75345  24177297.5654   24177316.2094
      3035.1424       2365.0334
  22809396.9864  -10056745.65149  -7558351.67546  22809397.4774   22809406.1214
     -1779.4684      -1386.5724
  22585596.3764  -11068933.26749  -8617164.69946  22585595.2474   22585606.7754
     -2234.9724      -1741.5224
  23339747.9414   -8864299.22149  -6887137.15245  23339749.3324   23339758.2304
      1900.5114       1480.9064
  24264973.4644   -3546158.17249  -2660013.76645  24264972.6814   24264983.7474
      -985.1414       -767.6454
 03  4 11 18  0  7.0000000  0  8G24G10G 5G29G 4G 7G30G13
  21593039.3474  -16761297.60349 -13049854.50547  21593039.6574   21593047.4074
      -690.0214       -537.6794
  20356199.5694  -18651681.74149 -14261723.45347  20356198.8154   20356206.9274
      1224.3984        954.0694
  21945050.5954  -15890884.74649 -11906847.11446  21945049.9094   21945059.3014
        48.7714         38.0014
  24176719.8824   -1357061.67749  -1037711.05645  24176720.0854   24176738.6734
      3035.6344       2365.4214
  22809735.5824  -10054966.53749  -7556965.36346  22809736.3264   22809744.8364
     -1779.0474      -1386.2524
  22586021.6264  -11066698.44349  -8615423.28446  22586020.4834   22586032.0314
     -2235.0204      -1741.5874
  23339386.2904   -8866199.74749  -6888618.08345  23339387.6824   23339396.9894
      1900.3624       1480.8004
  24265160.9774   -3545173.03249  -2659246.12145  24265160.0274   24265171.8914
      -985.3274       -767.7864
 03  4 11 18  0  8.0000000  0  8G24G10G 5G29G 4G 7G30G13
  21593170.6854  -16760607.53549 -13049316.78747  21593170.8314   21593178.4044
      -689.9624       -537.6374
  20355966.6174  -18652905.79449 -14262677.26247  20355965.7844   20355974.0544
      1223.8864        953.6824
  21945041.3834  -15890933.21549 -11906884.88146  21945040.6534   21945049.6364
        48.3404         37.6754
  24176142.2364   -1360097.33449  -1040076.49345  24176142.4054   24176160.8144
      3035.9074       2365.6314
  22810074.2324  -10053187.45749  -7555579.06646  22810074.8224   22810082.5654
     -1778.8534      -1386.1214
  22586446.9524  -11064463.29149  -8613681.61746  22586446.5064   22586458.0104
     -2235.2094      -1741.6934
  23339024.7244   -8868099.77949  -6890098.62545  23339026.4994   23339034.9414
      1899.9584       1480.4814
  24265348.6194   -3544187.37249  -2658478.07245  24265348.1084   24265359.1744
      -985.8344       -768.1854
 03  4 11 18  0  9.0000000  0  8G24G10G 5G29G 4G 7G30G13
  21593302.0224  -16759917.49649 -13048779.09447  21593301.6774   21593309.8034
      -690.2104       -537.8304
  20355733.7824  -18654129.31549 -14263630.65347  20355732.8364   20355741.0894
      1223.0584        953.0314
  21945032.2544  -15890981.15449 -11906922.23046  21945031.2844   21945041.2194
        47.5004         37.0094
  24175564.6274   -1363133.13049  -1042442.03945  24175564.6664   24175583.2024
      3035.5464       2365.3504
  22810412.7544  -10051408.49349  -7554192.85346  22810414.5684   22810420.8484
     -1779.1034      -1386.3164
  22586872.3184  -11062227.86249  -8611939.72346  22586872.3204   22586882.6744
     -2235.8194      -1742.1844
  23338663.1264   -8869999.37749  -6891578.82945  23338665.0104   23338673.8554
      1899.1844       1479.8784
  24265536.3774   -3543201.23749  -2657709.65445  24265536.5224   24265546.6064
      -986.6214       -768.7954
 03  4 11 18  0 10.0000000  0  8G24G10G 5G29G 4G 7G30G13
  21593433.3594  -16759227.38749 -13048241.35147  21593433.4334   21593440.7504
      -690.3464       -537.9244
  20355501.0504  -18655352.19549 -14264583.54747  20355500.1144   20355508.3724
      1222.3714        952.4974
  21945023.2084  -15891028.49349 -11906959.12446  21945022.4274   21945031.8754
        46.8334         36.4974
  24174986.9464   -1366169.03149  -1044807.66645  24174987.0454   24175005.2914
      3035.7394       2365.5004
  22810751.3674  -10049629.52049  -7552806.64846  22810752.0034   22810759.8184
     -1779.2584      -1386.4274
  22587297.8124  -11059992.05049  -8610197.54746  22587297.7164   22587309.5114
     -2236.2834      -1742.5424
  23338301.7444   -8871898.44049  -6893058.62045  23338303.3554   23338312.3844
      1898.5794       1479.4164
  24265724.2064   -3542214.53149  -2656940.79345  24265724.2194   24265734.7104
      -987.2124       -769.2544
 03  4 11 18  0 11.0000000  0  8G24G10G 5G29G 4G 7G30G13
  21593564.7214  -16758537.19549 -13047703.54147  21593564.7524   21593572.3824
      -690.1264       -537.7624
  20355268.4444  -18656574.41149 -14265535.92547  20355267.7174   20355275.8324
      1221.9984        952.2124
  21945014.3514  -15891075.18549 -11906995.51146  21945013.3014   21945022.0464
        46.4924         36.2344
  24174409.2894   -1369204.97849  -1047173.32945  24174409.2454   24174427.7814
      3036.0394       2365.7344
  22811089.9714  -10047850.53849  -7551420.43046  22811090.4254   22811098.3154
     -1778.9094      -1386.1524
  22587723.3534  -11057755.80049  -8608455.01846  22587722.4344   22587734.4854
     -2236.3714      -1742.6354
  23337940.4694   -8873796.92449  -6894537.95745  23337941.4074   23337951.2424
      1898.3164       1479.2044
  24265912.1524   -3541227.19149  -2656171.44145  24265912.2154   24265922.5874
      -987.5864       -769.5494
 03  4 11 18  0 12.0000000  0  8G24G10G 5G29G 4G 7G30G13
  21593696.1064  -16757846.96449 -13047165.70047  21593696.4134   21593704.3054
      -690.1414       -537.7694
  20355035.9324  -18657796.02349 -14266487.82747  20355035.0494   20355043.2544
      1221.4214        951.7544
  21945005.5294  -15891121.28349 -11907031.43346  21945004.8884   21945013.7054
        45.8934         35.7674
  24173831.5274   -1372241.03349  -1049539.07545  24173831.3234   24173849.9734
      3036.1884       2365.8454
  22811428.6514  -10046071.54249  -7550034.20046  22811429.7364   22811437.4054
     -1778.8854      -1386.1304
  22588149.0414  -11055519.17649  -8606712.19946  22588148.8144   22588158.8254
     -2236.7184      -1742.8684
  23337579.3734   -8875694.87549  -6896016.87945  23337580.2814   23337589.3674
      1897.7944       1478.7964
  24266100.2314   -3540239.30649  -2655401.66145  24266100.2814   24266110.7274
      -988.0944       -769.9424
 03  4 11 18  0 13.0000000  0  8G24G10G 5G29G 4G 7G30G13
  21593827.4854  -16757156.78049 -13046627.88947  21593827.3484   21593835.1334
      -690.3394       -537.9354
  20354803.5244  -18659017.09549 -14267439.30947  20354802.8114   20354810.8464
      1220.6624        951.1674
  21944996.8034  -15891166.87449 -11907066.95946  21944996.1244   21945004.8914
        45.1564         35.1884
  24173253.8434   -1375277.26149  -1051904.95645  24173253.6374   24173272.0474
      3036.1794       2365.8434
  22811767.2384  -10044292.69049  -7548648.08046  22811767.3704   22811776.2354
     -1778.9734      -1386.2054
  22588574.6684  -11053282.26349  -8604969.15546  22588573.0634   22588584.5944
     -2237.2204      -1743.2844
  23337218.2804   -8877592.39449  -6897495.46345  23337219.6124   23337227.7864
      1897.1734       1478.3134
  24266288.3744   -3539250.98349  -2654631.53845  24266288.6914   24266298.6154
      -988.8154       -770.5024
 03  4 11 18  0 14.0000000  0  8G24G10G 5G29G 4G 7G30G13
  21593958.8774  -16756466.45549 -13046089.97047  21593958.9034   21593966.7044
      -689.9864       -537.6474
  20354571.2554  -18660237.45349 -14268390.23647  20354570.8684   20354578.8164
      1220.4294        950.9854
  21944988.2424  -15891211.78449 -11907101.95046  21944987.4654   21944996.6404
        44.9594         35.0214
  24172676.0494   -1378313.48849  -1054270.83845  24172675.8644   24172694.5014
      3036.6844       2366.2394
  22812105.8164  -10042513.76649  -7547261.90246  22812105.6984   22812113.7194
     -1778.5654      -1385.8974
  22589000.4664  -11051044.89249  -8603225.74546  22588999.3794   22589009.7944
     -2237.2204      -1743.3004
  23336857.3184   -8879489.30849  -6898973.57745  23336857.8354   23336866.9004
      1897.0134       1478.1964
  24266476.8014   -3538261.98949  -2653860.89545  24266477.1014   24266486.5954
      -988.9314       -770.5904
 03  4 11 18  0 15.0000000  0  8G24G10G 5G29G 4G 7G30G13
  21594090.2734  -16755776.22849 -13045552.13447  21594090.2084   21594097.8254
      -690.5454       -538.0774
  20354339.0974  -18661457.34649 -14269340.79747  20354338.5744   20354346.6094
      1219.2634        950.0714
  21944979.7254  -15891256.23949 -11907136.59046  21944979.6484   21944987.6824
        43.8224         34.1554
  24172098.2724   -1381349.93249  -1056636.88945  24172097.8874   24172116.8524
      3036.1614       2365.8324
  22812444.3664  -10040734.98149  -7545875.83846  22812443.9174   22812452.8764
     -1779.0744      -1386.2754
  22589426.2694  -11048807.29549  -8601482.17446  22589425.4784   22589436.0294
     -2238.1464      -1744.0154
  23336496.4834   -8881385.84349  -6900451.39445  23336496.9434   23336506.1384
      1895.9674       1477.3814
  24266665.1534   -3537272.56449  -2653089.91345  24266665.2054   24266674.7184
      -990.0264       -771.4484
 03  4 11 18  0 16.0000000  0  8G24G10G 5G29G 4G 7G30G13
  21594221.6824  -16755085.87449 -13045014.19747  21594221.1724   21594228.7154
      -690.5184       -538.0664
  20354107.1014  -18662676.54249 -14270290.82247  20354106.6864   20354114.4584
      1218.7704        949.6874
  21944971.3424  -15891300.00849 -11907170.70246  21944970.7494   21944979.4144
        43.3414         33.7854
  24171520.4724   -1384386.42749  -1059002.97845  24171519.9814   24171539.1814
      3036.3664       2365.9854
  22812782.9554  -10038956.15949  -7544489.75346  22812782.7244   22812791.4284
     -1778.9454      -1386.1664
  22589852.1734  -11046569.25149  -8599738.25246  22589852.3034   22589862.9014
     -2238.3984      -1744.1984
  23336135.8154   -8883281.75249  -6901928.72545  23336135.7454   23336145.6094
      1895.4624       1476.9714
  24266853.6084   -3536282.50949  -2652318.44545  24266853.8354   24266863.2854
      -990.4834       -771.8034
 03  4 11 18  0 17.0000000  0  8G24G10G 5G29G 4G 7G30G13
  21594353.1234  -16754395.44449 -13044476.20547  21594352.9174   21594360.6634
      -690.2824       -537.8774
  20353875.2054  -18663895.06449 -14271240.31947  20353874.5474   20353882.5744
      1218.4094        949.4164
  21944963.0934  -15891343.15649 -11907204.32846  21944962.5654   21944971.3874
        43.0344         33.5264
  24170942.5974   -1387422.98549  -1061369.11845  24170942.1494   24170960.9954
      3036.7644       2366.3024
  22813121.4974  -10037177.33849  -7543103.66246  22813121.7904   22813129.8334
     -1778.5934      -1385.9334
  22590278.1474  -11044330.79749  -8597994.00546  22590277.9284   22590288.8994
     -2238.4844      -1744.2784
  23335775.1524   -8885177.10549  -6903405.61645  23335775.3354   23335785.0884
      1895.2924       1476.8424
  24267042.1434   -3535291.84649  -2651546.50045  24267042.1534   24267051.9904
      -990.7574       -772.0214
 03  4 11 18  0 18.0000000  0  8G24G10G 5G29G 4G 7G30G13
  21594484.5364  -16753705.07549 -13043938.25547  21594484.2454   21594492.0984
      -690.5634       -538.1064
  20353643.4154  -18665113.09649 -14272189.43647  20353642.7834   20353651.0204
      1217.5854        948.7604
  21944954.9654  -15891385.81949 -11907237.57246  21944954.3274   21944963.4274
        42.2294         32.8874
  24170364.7074   -1390459.69549  -1063735.37645  24170364.2464   24170383.1104
      3036.6134       2366.1804
  22813460.0394  -10035398.59049  -7541717.62146  22813459.9324   22813467.5304
     -1778.8964      -1386.1514
  22590704.1794  -11042092.06649  -8596249.54246  22590704.2904   22590714.7194
     -2239.0634      -1744.7004
  23335414.5684   -8887072.05549  -6904882.20445  23335415.0054   23335424.6014
      1894.5294       1476.2614
  24267230.7454   -3534300.74849  -2650774.21745  24267231.0624   24267240.5494
      -991.5624       -772.6414
 03  4 11 18  0 19.0000000  0  8G24G10G 5G29G 4G 7G30G13
  21594616.0024  -16753014.60849 -13043400.22547  21594615.5844   21594623.3284
      -690.3464       -537.9424
  20353411.7804  -18666330.43549 -14273138.00947  20353411.3484   20353419.2514
      1217.1724        948.4474
  21944946.9694  -15891427.81149 -11907270.29546  21944946.7594   21944955.7314
        41.8524         32.6034
  24169786.8524   -1393496.47249  -1066101.68345  24169786.6694   24169805.1254
      3036.9844       2366.4664
  22813798.5424  -10033619.83349  -7540331.57646  22813798.0274   22813805.5194
     -1778.6394      -1385.9444
  22591130.2954  -11039852.88849  -8594504.73146  22591130.2974   22591140.5384
     -2239.2564      -1744.8814
  23335054.1924   -8888966.42049  -6906358.33245  23335054.7264   23335063.5854
      1894.2364       1476.0214
  24267419.4604   -3533309.03849  -2650001.45545  24267419.7104   24267429.2284
      -991.8394       -772.8604
 03  4 11 18  0 20.0000000  0  8G24G10G 5G29G 4G 7G30G13
  21594747.4094  -16752324.17449 -13042862.22847  21594746.7024   21594754.6774
      -690.6844       -538.1904
  20353180.2414  -18667547.25149 -14274086.17547  20353179.5324   20353187.7824
      1216.2624        947.7364
  21944939.1004  -15891469.30849 -11907302.62746  21944939.8104   21944946.9424
        40.9384         31.8984
  24169208.9304   -1396533.45349  -1068468.15145  24169208.7204   24169227.2334
      3036.8534       2366.3724
  22814137.0104  -10031841.16049  -7538945.60046  22814136.3904   22814144.5654
     -1778.9264      -1386.1704
  22591556.4144  -11037613.44349  -8592759.71146  22591555.7054   22591567.1994
     -2239.9454      -1745.4014
  23334693.9824   -8890860.31549  -6907834.09545  23334695.4544   23334702.9834
      1893.4664       1475.4304
  24267608.2604   -3532316.81449  -2649228.29445  24267608.1924   24267617.6774
      -992.7564       -773.5744
 03  4 11 18  0 21.0000000  0  8G24G10G 5G29G 4G 7G30G13
  21594878.8204  -16751633.64349 -13042324.15347  21594878.3754   21594885.9584
      -690.7524       -538.2444
  20352948.8234  -18668763.39549 -14275033.82147  20352948.3834   20352956.4244
      1215.6164        947.2214
  21944931.3644  -15891510.15549 -11907334.45946  21944930.8344   21944939.5194
        40.3244         31.4274
  24168630.9844   -1399570.44349  -1070834.62545  24168630.4814   24168648.8904
      3036.7884       2366.3204
  22814475.5724  -10030062.46449  -7537559.60546  22814475.5454   22814482.8014
     -1778.9234      -1386.1914
  22591982.6504  -11035373.55549  -8591014.34746  22591981.7794   22591992.3894
     -2240.3074      -1745.6884
  23334333.7884   -8892753.65049  -6909309.42145  23334334.8694   23334343.1234
      1892.8514       1474.9424
  24267797.1494   -3531324.02949  -2648454.69845  24267797.5514   24267806.0924
      -993.3024       -773.9974
 03  4 11 18  0 22.0000000  0  8G24G10G 5G29G 4G 7G30G13
  21595010.2954  -16750943.02549 -13041786.00947  21595010.1344   21595017.6154
      -690.4274       -537.9944
  20352717.5564  -18669978.87949 -14275980.95147  20352717.1094   20352725.2394
      1215.3664        947.0334
  21944923.7014  -15891550.36449 -11907365.79246  21944923.0174   21944931.7374
        40.1054         31.2534
  24168053.0554   -1402607.45649  -1073201.11745  24168052.6184   24168071.4414
      3037.2724       2366.6994
  22814814.1134  -10028283.72749  -7536173.57946  22814813.6444   22814822.5074
     -1778.4344      -1385.7774
  22592408.9384  -11033133.26149  -8589268.67746  22592407.9214   22592419.8004
     -2240.2654      -1745.6534
  23333973.7434   -8894646.42249  -6910784.30745  23333974.5284   23333982.8194
      1892.7404       1474.8564
  24267986.2644   -3530330.62149  -2647680.61445  24267986.7154   24267995.0844
      -993.4594       -774.1284
 03  4 11 18  0 23.0000000  0  8G24G10G 5G29G 4G 7G30G13
  21595141.7544  -16750252.44649 -13041247.89547  21595141.3144   21595149.0764
      -690.5744       -538.1144
  20352486.3984  -18671193.82649 -14276927.66347  20352485.8344   20352494.0164
      1214.6584        946.4874
  21944916.1394  -15891590.06849 -11907396.73646  21944915.0934   21944924.5114
        39.4444         30.7464
  24167475.0494   -1405644.66549  -1075567.76645  24167474.1264   24167493.3504
      3037.2474       2366.6774
  22815152.6004  -10026505.11449  -7534787.64146  22815152.9494   22815160.8794
     -1778.5744      -1385.8994
  22592835.3514  -11030892.68049  -8587522.77846  22592833.9844   22592846.4794
     -2240.7744      -1746.0494
  23333613.7104   -8896538.73849  -6912258.83745  23333614.6674   23333622.7504
      1892.0924       1474.3554
  24268175.4444   -3529336.72849  -2646906.15545  24268175.9344   24268184.2254
      -994.0514       -774.5824
 03  4 11 18  0 24.0000000  0  8G24G10G 5G29G 4G 7G30G13
  21595273.1574  -16749561.85849 -13040709.76847  21595272.9744   21595280.4854
      -690.8774       -538.3474
  20352255.3474  -18672408.20449 -14277873.92647  20352254.9474   20352262.6714
      1213.8184        945.8254
  21944908.7164  -15891629.20949 -11907427.23246  21944908.6474   21944917.1264
        38.5844         30.0644
  24166897.1054   -1408682.04249  -1077934.54045  24166896.2724   24166914.8684
      3037.1144       2366.5694
  22815491.0794  -10024726.54149  -7533401.73946  22815490.5854   22815497.7654
     -1778.8474      -1386.0944
  22593261.7744  -11028651.77249  -8585776.62246  22593261.1124   22593272.0334
     -2241.3704      -1746.5244
  23333253.7344   -8898430.57949  -6913733.00045  23333254.4264   23333262.9384
      1891.3714       1473.8044
  24268364.7444   -3528342.31449  -2646131.28845  24268365.0524   24268373.4324
      -994.9764       -775.3024
 03  4 11 18  0 25.0000000  0  8G24G10G 5G29G 4G 7G30G13
  21595404.6274  -16748871.21549 -13040171.60747  21595404.2444   21595412.2184
      -691.0284       -538.4584
  20352024.3824  -18673621.94949 -14278819.70147  20352023.7884   20352031.8254
      1213.1104        945.2854
  21944901.3524  -15891667.75749 -11907457.26746  21944900.8194   21944909.4644
        37.9114         29.5384
  24166319.0844   -1411719.52149  -1080301.39745  24166318.3524   24166337.1244
      3037.1664       2366.6134
  22815829.5914  -10022947.99549  -7532015.86146  22815828.6564   22815836.6734
     -1778.9044      -1386.1614
  22593688.2514  -11026410.48249  -8584030.16646  22593687.0484   22593698.3324
     -2241.8264      -1746.8834
  23332893.9304   -8900321.85749  -6915206.72245  23332894.4714   23332902.9494
      1890.6824       1473.2504
  24268554.0974   -3527347.35849  -2645355.99845  24268554.7354   24268563.0534
      -995.5424       -775.7484
 03  4 11 18  0 26.0000000  0  8G24G10G 5G29G 4G 7G30G13
  21595536.0944  -16748180.45249 -13039633.35347  21595536.0854   21595543.2194
      -690.7344       -538.2364
  20351793.5924  -18674834.98549 -14279764.92647  20351793.0454   20351801.0384
      1212.7784        945.0224
  21944894.1874  -15891705.60749 -11907486.76346  21944893.7454   21944902.1574
        37.6244         29.3154
  24165741.1764   -1414756.96049  -1082668.22045  24165740.3614   24165759.3034
      3037.4674       2366.8434
  22816168.1384  -10021169.38549  -7530629.93746  22816168.0904   22816175.4624
     -1778.5034      -1385.8434
  22594114.7924  -11024168.72449  -8582283.34446  22594114.3734   22594125.6694
     -2241.9284      -1746.9494
  23332534.2524   -8902212.56749  -6916680.00445  23332534.4674   23332543.0184
      1890.4994       1473.1164
  24268743.7084   -3526351.72349  -2644580.17845  24268743.8024   24268752.3324
      -995.8844       -776.0134
 03  4 11 18  0 27.0000000  0  8G24G10G 5G29G 4G 7G30G13
  21595667.5794  -16747489.70849 -13039095.11047  21595667.3004   21595674.8254
      -690.8724       -538.3494
  20351562.8814  -18676047.48649 -14280709.73347  20351562.4584   20351570.1434
      1212.0864        944.4844
  21944887.1614  -15891742.94449 -11907515.86346  21944887.1784   21944895.0594
        36.9304         28.7704
  24165163.0284   -1417794.58349  -1085035.18945  24165162.5054   24165181.1624
      3037.5874       2366.9374
  22816506.5624  -10019390.86349  -7529244.07346  22816506.3124   22816513.7264
     -1778.6174      -1385.9364
  22594541.4054  -11021926.68749  -8580536.30546  22594540.8764   22594552.8804
     -2242.4104      -1747.3254
  23332174.6764   -8904102.78949  -6918152.90345  23332174.9464   23332183.3444
      1889.9304       1472.6854
  24268933.4054   -3525355.61049  -2643803.98945  24268933.1914   24268941.8854
      -996.5194       -776.5054
 03  4 11 18  0 28.0000000  0  8G24G10G 5G29G 4G 7G30G13
  21595799.0684  -16746798.90549 -13038556.82747  21595798.6024   21595806.4714
      -690.7344       -538.2284
  20351332.3104  -18677259.35249 -14281654.04647  20351331.9104   20351339.8014
      1211.6724        944.1654
  21944880.1804  -15891779.67149 -11907544.48746  21944879.5364   21944888.4224
        36.5484         28.4794
  24164584.9454   -1420832.26949  -1087402.20545  24164584.6854   24164603.1564
      3037.8314       2367.1354
  22816844.9844  -10017612.31949  -7527858.19646  22816844.3864   22816853.2414
     -1778.4994      -1385.8384
  22594968.1344  -11019684.25249  -8578788.96446  22594967.9974   22594978.8764
     -2242.5984      -1747.4894
  23331815.0804   -8905992.49249  -6919625.39845  23331815.3014   23331823.9644
      1889.5524       1472.3804
  24269123.1164   -3524358.92749  -2643027.35545  24269122.9584   24269131.8644
      -996.9804       -776.8714
 03  4 11 18  0 29.0000000  0  8G24G10G 5G29G 4G 7G30G13
  21595930.5174  -16746108.10449 -13038018.53947  21595929.9904   21595937.9924
      -690.9834       -538.4264
  20351101.8414  -18678470.65849 -14282597.91547  20351101.2064   20351109.1624
      1210.8354        943.5074
  21944873.2784  -15891815.86449 -11907572.68446  21944872.9954   21944881.3334
        35.7494         27.8604
  24164006.8094   -1423870.09849  -1089769.33045  24164006.4974   24164025.0084
      3037.6934       2367.0214
  22817183.3964  -10015833.86949  -7526472.39046  22817182.6444   22817191.0404
     -1778.5454      -1385.8974
  22595394.8514  -11017441.49649  -8577041.37046  22595394.4624   22595405.9274
     -2243.1754      -1747.9154
  23331455.6174   -8907881.71049  -6921097.51545  23331455.8334   23331464.4324
      1888.7834       1471.7734
  24269312.8904   -3523361.77149  -2642250.35145  24269312.9774   24269321.6254
      -997.5734       -777.3284
 03  4 11 18  0 30.0000000  0  8G24G10G 5G29G 4G 7G30G13
  21596061.9854  -16745417.26349 -13037480.22147  21596061.7584   21596069.0524
      -691.0284       -538.4614
  20350871.4684  -18679681.33649 -14283541.29947  20350870.8744   20350878.5914
      1210.2124        943.0294
  21944866.4914  -15891851.44749 -11907600.41246  21944866.1904   21944874.5744
        35.1014         27.3574
  24163428.6554   -1426908.03649  -1092136.54545  24163428.6884   24163447.2174
      3037.8914       2367.1804
  22817521.8514  -10014055.42449  -7525086.58746  22817521.6224   22817528.5874
     -1778.5794      -1385.9214
  22595821.6934  -11015198.38449  -8575293.49146  22595820.9774   22595832.7084
     -2243.5004      -1748.1784
  23331096.2974   -8909770.41049  -6922569.22745  23331096.4334   23331105.2714
      1888.3144       1471.4034
  24269502.8594   -3522364.01949  -2641472.88345  24269502.4794   24269512.1334
      -998.2434       -777.8474
 03  4 11 18  0 31.0000000  0  8G24G10G 5G29G 4G 7G30G13
  21596193.4704  -16744726.34849 -13036941.84447  21596193.1404   21596200.4634
      -690.9994       -538.4404
  20350641.2234  -18680891.37649 -14284484.18647  20350640.5714   20350648.4004
      1209.6744        942.6044
  21944859.8664  -15891886.41149 -11907627.65046  21944859.4154   21944867.6724
        34.5684         26.9414
  24162850.5694   -1429946.03249  -1094503.80545  24162850.3644   24162869.0954
      3037.9464       2367.2244
  22817860.2534  -10012276.96349  -7523700.78246  22817860.6134   22817867.1054
     -1778.4884      -1385.8204
  22596248.5894  -11012954.84549  -8573545.28746  22596248.2734   22596259.0014
     -2243.8584      -1748.4544
  23330737.0424   -8911658.56649  -6924040.51545  23330737.2984   23330746.0284
      1887.8334       1471.0334
  24269692.9184   -3521365.70149  -2640694.97345  24269692.9844   24269702.0844
      -998.6804       -778.1894
 03  4 11 18  0 32.0000000  0  8G24G10G 5G29G 4G 7G30G13
  21596324.9594  -16744035.45849 -13036403.48947  21596324.5214   21596332.1984
      -691.1794       -538.5764
  20350411.1234  -18682100.84949 -14285426.63347  20350410.5994   20350418.4574
      1208.8744        941.9824
  21944853.3524  -15891920.84449 -11907654.48746  21944852.5154   21944861.3454
        33.8644         26.3954
  24162272.4534   -1432984.20049  -1096871.19945  24162272.1214   24162291.2064
      3037.9374       2367.2124
  22818198.6364  -10010498.58349  -7522315.03046  22818199.3684   22818205.6714
     -1778.6204      -1385.9334
  22596675.5784  -11010710.99849  -8571796.83646  22596674.3404   22596685.9764
     -2244.3244      -1748.8124
  23330377.9164   -8913546.21949  -6925511.41345  23330377.6764   23330386.8144
      1887.0894       1470.4694
  24269883.0424   -3520366.88949  -2639916.68045  24269882.9034   24269892.1444
      -999.3234       -778.6894
 03  4 11 18  0 33.0000000  0  8G24G10G 5G29G 4G 7G30G13
  21596456.4514  -16743344.46849 -13035865.05647  21596455.9964   21596463.7704
      -691.1134       -538.5284
  20350181.1354  -18683309.66749 -14286368.57047  20350180.5534   20350188.2684
      1208.3954        941.6054
  21944846.9484  -15891954.62649 -11907680.81746  21944846.5994   21944854.8514
        33.3814         26.0264
  24161694.2854   -1436022.42249  -1099238.63445  24161694.0864   24161713.0664
      3038.1584       2367.3834
  22818537.0394  -10008720.16049  -7520929.23946  22818537.2234   22818544.4004
     -1778.5334      -1385.8784
  22597102.6914  -11008466.72649  -8570048.06146  22597101.5204   22597113.4814
     -2244.5954      -1749.0314
  23330018.7334   -8915433.30549  -6926981.86945  23330018.4834   23330027.6804
      1886.7234       1470.1794
  24270073.3034   -3519367.47449  -2639137.91445  24270073.3284   24270082.1044
      -999.6134       -778.9234
 03  4 11 18  0 34.0000000  0  8G24G10G 5G29G 4G 7G30G13
  21596587.9634  -16742653.44549 -13035326.59647  21596587.3204   21596595.1784
      -691.0944       -538.5164
  20349951.2644  -18684517.88549 -14287310.03847  20349950.6604   20349958.2824
      1207.8834        941.2084
  21944840.6314  -15891987.83449 -11907706.69446  21944839.8254   21944848.7984
        32.8514         25.6084
  24161116.1344   -1439060.74449  -1101606.14945  24161115.9074   24161135.0804
      3038.3924       2367.5644
  22818875.4574  -10006941.78249  -7519543.49746  22818874.6124   22818883.2164
     -1778.3904      -1385.7644
  22597529.8654  -11006222.10049  -8568299.02046  22597529.2804   22597540.3184
     -2244.8624      -1749.2184
  23329659.7374   -8917319.90149  -6928451.94445  23329659.3934   23329669.0404
      1886.2584       1469.8094
  24270263.5884   -3518367.46649  -2638358.68945  24270263.7394   24270272.4724
     -1000.2624       -779.4244
 03  4 11 18  0 35.0000000  0  8G24G10G 5G29G 4G 7G30G13
  21596719.4684  -16741962.41149 -13034788.13147  21596718.9844   21596726.6634
      -691.0744       -538.4934
  20349721.4964  -18685725.49449 -14288251.02847  20349720.7344   20349728.6434
      1207.2674        940.7304
  21944834.4484  -15892020.46749 -11907732.11746  21944833.8144   21944842.7914
        32.3054         25.1794
  24160537.9404   -1442099.17649  -1103973.74645  24160537.8334   24160557.1154
      3038.4404       2367.6024
  22819213.8894  -10005163.45649  -7518157.79446  22819212.6504   22819221.5664
     -1778.3434      -1385.7204
  22597957.0584  -11003977.13049  -8566549.69246  22597956.4474   22597967.1234
     -2245.2344      -1749.5354
  23329300.7784   -8919205.98449  -6929921.61545  23329300.8634   23329310.5264
      1885.7884       1469.4374
  24270454.1594   -3517366.93649  -2637579.05645  24270453.7254   24270462.6404
     -1000.7724       -779.8174
 03  4 11 18  0 36.0000000  0  8G24G10G 5G29G 4G 7G30G13
  21596850.9874  -16741271.31449 -13034249.61147  21596850.2814   21596858.1944
      -691.0764       -538.4994
  20349491.8554  -18686932.48549 -14289191.54247  20349491.0484   20349498.9094
      1206.7394        940.3174
  21944828.3374  -15892052.49449 -11907757.07446  21944827.8824   21944836.7194
        31.7354         24.7344
  24159959.6584   -1445137.68249  -1106341.40045  24159959.7074   24159978.6534
      3038.6074       2367.7324
  22819552.2764  -10003385.11649  -7516772.08046  22819552.3864   22819560.2574
     -1778.2684      -1385.6594
  22598384.3444  -11001731.75749  -8564800.04946  22598383.6824   22598394.5804
     -2245.5174      -1749.7484
  23328941.9844   -8921091.52949  -6931390.86745  23328941.7284   23328951.6464
      1885.3114       1469.0794
  24270644.7834   -3516365.85149  -2636798.99245  24270644.0694   24270653.3584
     -1001.3354       -780.2594
 03  4 11 18  0 37.0000000  0  8G24G10G 5G29G 4G 7G30G13
  21596982.5054  -16740580.21349 -13033711.09147  21596981.9034   21596990.0954
      -691.0394       -538.4654
  20349262.3164  -18688138.88949 -14290131.59947  20349261.4814   20349269.4094
      1206.1884        939.8914
  21944822.3414  -15892083.96849 -11907781.60446  21944821.4224   21944830.5174
        31.2854         24.3854
  24159381.3684   -1448176.30849  -1108709.15045  24159381.6184   24159400.3374
      3038.7244       2367.8314
  22819890.6394  -10001606.85349  -7515386.42146  22819890.4274   22819898.3874
     -1778.1834      -1385.5824
  22598811.6614  -10999486.05949  -8563050.15846  22598811.3214   22598822.7604
     -2245.8384      -1749.9994
  23328583.4044   -8922976.56949  -6932859.72945  23328583.3284   23328593.0804
      1884.9004       1468.7514
  24270835.4224   -3515364.22449  -2636018.50445  24270834.7484   24270844.2124
     -1001.7884       -780.6104
 03  4 11 18  0 38.0000000  0  8G24G10G 5G29G 4G 7G30G13
  21597113.9954  -16739889.11049 -13033172.56947  21597113.6824   21597121.1134
      -691.3534       -538.7154
  20349032.8704  -18689344.72249 -14291071.20747  20349031.8924   20349039.7734
      1205.2974        939.1854
  21944816.3974  -15892114.87949 -11907805.69246  21944816.0854   21944824.2584
        30.3834         23.6694
  24158803.0294   -1451215.09449  -1111077.02345  24158803.7104   24158822.0524
      3038.5754       2367.7084
  22820228.9864   -9999828.62749  -7514000.79246  22820228.8904   22820237.0004
     -1778.4574      -1385.8084
  22599239.0954  -10997240.03949  -8561300.01846  22599239.1384   22599250.0834
     -2246.4584      -1750.4824
  23328224.8114   -8924861.14649  -6934328.22745  23328225.2124   23328234.3384
      1884.1204       1468.1344
  24271026.2454   -3514362.10749  -2635237.63545  24271025.8864   24271034.6294
     -1002.5374       -781.2024
 03  4 11 18  0 39.0000000  0  8G24G10G 5G29G 4G 7G30G13
  21597245.5084  -16739197.97349 -13032634.02347  21597245.0834   21597252.6584
      -691.4774       -538.8064
  20348803.5134  -18690549.94749 -14292010.33947  20348802.4394   20348810.4834
      1204.6074        938.6494
  21944810.6334  -15892145.20949 -11907829.33046  21944810.4584   21944818.5524
        29.7064         23.1564
  24158224.6964   -1454253.94549  -1113444.94845  24158225.3744   24158243.6124
      3038.5894       2367.7244
  22820567.2734   -9998050.47949  -7512615.22146  22820567.5694   22820574.7474
     -1778.4534      -1385.8054
  22599666.5914  -10994993.63549  -8559549.57846  22599666.9304   22599676.9824
     -2246.9474      -1750.8574
  23327866.2964   -8926745.16849  -6935796.29645  23327866.5854   23327875.0694
      1883.4514       1467.6184
  24271217.1434   -3513359.44449  -2634456.34045  24271216.8794   24271225.8924
     -1003.2204       -781.7264
 03  4 11 18  0 40.0000000  0  8G24G10G 5G29G 4G 7G30G13
  21597377.0444  -16738506.76549 -13032095.41747  21597376.6334   21597384.2144
      -691.6414       -538.9544
  20348574.3094  -18691754.52849 -14292948.97247  20348573.3684   20348581.1154
      1203.8764        938.0784
  21944804.9454  -15892174.93249 -11907852.49146  21944804.4804   21944813.2354
        29.0534         22.6364
  24157646.3644   -1457292.90649  -1115812.96045  24157646.9564   24157665.1054
      3038.6024       2367.7334
  22820905.5274   -9996272.29549  -7511229.62246  22820905.2504   22820913.6254
     -1778.6164      -1385.9434
  22600094.1674  -10992746.84749  -8557798.83746  22600093.0154   22600104.6134
     -2247.4234      -1751.2444
  23327507.9124   -8928628.67149  -6937263.96345  23327507.5824   23327516.7264
      1882.8134       1467.1254
  24271408.0254   -3512356.15049  -2633674.55545  24271408.0614   24271417.2444
     -1003.9834       -782.3254
 03  4 11 18  0 41.0000000  0  8G24G10G 5G29G 4G 7G30G13
  21597508.5514  -16737815.53149 -13031556.79447  21597507.8264   21597515.9044
      -691.6774       -538.9684
  20348345.1934  -18692958.50449 -14293887.13447  20348344.3284   20348352.2644
      1203.2524        937.6014
  21944799.4444  -15892204.06249 -11907875.18746  21944799.1544   21944807.6614
        28.4364         22.1584
  24157068.0984   -1460331.96649  -1118181.04645  24157068.9024   24157086.9794
      3038.7674       2367.8544
  22821243.8874   -9994494.14749  -7509844.06046  22821243.5094   22821251.9234
     -1778.4994      -1385.8254
  22600521.8014  -10990499.71549  -8556047.84146  22600521.0404   22600532.4254
     -2247.7784      -1751.5084
  23327149.6374   -8930511.67549  -6938731.24145  23327149.4804   23327158.3394
      1882.3394       1466.7654
  24271599.0674   -3511352.36849  -2632892.38945  24271599.0144   24271608.2864
     -1004.4834       -782.7124
 03  4 11 18  0 42.0000000  0  8G24G10G 5G29G 4G 7G30G13
  21597640.1004  -16737124.31149 -13031018.18047  21597639.3844   21597647.6324
      -691.9734       -539.2014
  20348116.1594  -18694161.91849 -14294824.85547  20348115.3434   20348122.9734
      1202.3714        936.9114
  21944794.0084  -15892232.65849 -11907897.47146  21944793.4364   21944802.0584
        27.5624         21.4864
  24156489.7794   -1463371.15149  -1120549.23145  24156490.5704   24156508.5654
      3038.3954       2367.5674
  22821582.2314   -9992716.07949  -7508458.55746  22821582.6774   22821589.7944
     -1778.8214      -1386.0934
  22600949.4994  -10988252.24649  -8554296.56646  22600948.9844   22600960.6074
     -2248.4514      -1752.0444
  23326791.4304   -8932394.19249  -6940198.13645  23326790.8414   23326799.5634
      1881.5494       1466.1454
  24271790.2154   -3510348.05149  -2632109.80545  24271789.7274   24271799.1764
     -1005.3174       -783.3634
 03  4 11 18  0 43.0000000  0  8G24G10G 5G29G 4G 7G30G13
  21597771.6384  -16736432.88549 -13030479.40447  21597771.0444   21597779.1254
      -691.5854       -538.8924
  20347887.2994  -18695364.56049 -14295761.97947  20347886.2944   20347894.2074
      1202.1914        936.7764
  21944788.7564  -15892260.50949 -11907919.18046  21944788.4804   21944797.0674
        27.4394         21.3954
  24155911.3974   -1466410.30349  -1122917.39045  24155912.0914   24155930.1344
      3038.9994       2368.0394
  22821920.6024   -9990937.88649  -7507072.95746  22821920.6444   22821927.8984
     -1778.2944      -1385.6804
  22601377.2934  -10986004.26949  -8552544.90246  22601377.2724   22601388.1884
     -2248.3074      -1751.9174
  23326433.3104   -8934276.01549  -6941664.49945  23326432.7394   23326441.8154
      1881.4974       1466.1074
  24271981.5334   -3509343.02949  -2631326.67045  24271980.9514   24271990.2064
     -1005.3834       -783.4234
 03  4 11 18  0 44.0000000  0  8G24G10G 5G29G 4G 7G30G13
  21597903.1874  -16735741.55149 -13029940.70447  21597902.4134   21597910.5254
      -691.7654       -539.0404
  20347658.5124  -18696566.71449 -14296698.72147  20347657.4884   20347665.6324
      1201.4334        936.1804
  21944783.5824  -15892287.89449 -11907940.52046  21944783.2414   21944791.6454
        26.6954         20.7954
  24155333.0724   -1469449.67849  -1125285.72345  24155333.6424   24155351.4634
      3039.0224       2368.0604
  22822258.9934   -9989159.83349  -7505687.46346  22822258.8574   22822266.3884
     -1778.4524      -1385.8044
  22601805.1564  -10983756.01749  -8550793.02246  22601804.3144   22601816.0174
     -2248.8704      -1752.3734
  23326075.1344   -8936157.43849  -6943130.54345  23326074.1974   23326083.8784
      1880.7994       1465.5624
  24272173.0214   -3508337.59549  -2630543.21645  24272172.1214   24272181.3574
     -1006.1874       -784.0424
 03  4 11 18  0 45.0000000  0  8G24G10G 5G29G 4G 7G30G13
  21598034.7294  -16735050.12049 -13029401.93047  21598034.1184   21598041.9234
      -691.6494       -538.9504
  20347429.8544  -18697768.21049 -14297634.95147  20347429.0554   20347437.1474
      1201.0134        935.8554
  21944778.4794  -15892314.64049 -11907961.36246  21944777.8644   21944786.0884
        26.2444         20.4674
  24154754.7274   -1472489.08249  -1127654.07945  24154754.8704   24154772.9204
      3039.3154       2368.2884
  22822597.3894   -9987381.74249  -7504301.93446  22822596.5824   22822606.0884
     -1778.2614      -1385.6674
  22602233.1354  -10981507.37349  -8549040.83646  22602232.5094   22602243.5464
     -2249.0304      -1752.5074
  23325717.1724   -8938038.31449  -6944596.16145  23325716.7474   23325725.2014
      1880.4294       1465.2714
  24272364.4724   -3507331.54649  -2629759.28245  24272363.3794   24272372.4834
     -1006.5084       -784.2934
 03  4 11 18  0 46.0000000  0  8G24G10G 5G29G 4G 7G30G13
  21598166.2734  -16734358.63549 -13028863.10947  21598165.7644   21598173.7134
      -691.3624       -538.7344
  20347201.3194  -18698969.06549 -14298570.68147  20347200.4464   20347208.4604
      1200.6834        935.5964
  21944773.5394  -15892340.76049 -11907981.71446  21944773.1134   21944781.5754
        25.9164         20.2104
  24154176.3794   -1475528.54049  -1130022.47545  24154176.2614   24154194.6574
      3039.6114       2368.5124
  22822935.7214   -9985603.64849  -7502916.40146  22822935.7224   22822944.0414
     -1777.9044      -1385.4004
  22602661.2124  -10979258.33849  -8547288.34646  22602660.3064   22602671.6714
     -2249.1114      -1752.5534
  23325359.3234   -8939918.62449  -6946061.33845  23325359.2164   23325367.5454
      1880.2394       1465.1204
  24272556.0194   -3506324.90649  -2628974.88945  24272554.9504   24272564.4494
     -1006.8354       -784.5464
 03  4 11 18  0 47.0000000  0  8G24G10G 5G29G 4G 7G30G13
  21598297.8324  -16733667.18949 -13028324.31847  21598297.3294   21598305.4554
      -691.6174       -538.9214
  20346972.9064  -18700169.39049 -14299505.99647  20346971.9754   20346980.0044
      1199.8724        934.9644
  21944768.6974  -15892366.39449 -11908001.68646  21944767.8594   21944777.2084
        25.1754         19.6064
  24153597.9574   -1478568.24549  -1132391.06345  24153597.6844   24153615.9344
      3039.5594       2368.4764
  22823274.0414   -9983825.66749  -7501530.96846  22823274.2344   22823282.6364
     -1778.1574      -1385.5684
  22603089.2954  -10977009.01949  -8545535.63246  22603088.6944   22603100.2364
     -2249.7014      -1753.0064
  23325001.5634   -8941798.48649  -6947526.16745  23325001.5324   23325009.3754
      1879.4274       1464.4874
  24272747.7604   -3505317.80649  -2628190.13745  24272746.4774   24272756.2484
     -1007.5654       -785.1174
 03  4 11 18  0 48.0000000  0  8G24G10G 5G29G 4G 7G30G13
  21598429.3744  -16732975.71049 -13027785.50047  21598428.7564   21598436.6294
      -691.7894       -539.0664
  20346744.5994  -18701369.10549 -14300440.84047  20346743.5774   20346751.6524
      1199.1344        934.4004
  21944763.9504  -15892391.42449 -11908021.19246  21944763.5054   21944772.1684
        24.4454         19.0514
  24153019.4644   -1481608.01349  -1134759.70345  24153019.2344   24153037.5274
      3039.5834       2368.4934
  22823612.4234   -9982047.72549  -7500145.56346  22823612.1354   22823620.0084
     -1778.2384      -1385.6334
  22603517.5064  -10974759.32449  -8543782.62546  22603517.0084   22603528.3804
     -2250.2414      -1753.4244
  23324643.9614   -8943677.81949  -6948990.58045  23324643.8434   23324651.1344
      1878.7604       1463.9704
  24272939.5244   -3504310.15749  -2627404.95745  24272938.5814   24272947.7224
     -1008.2334       -785.6374
 03  4 11 18  0 49.0000000  0  8G24G10G 5G29G 4G 7G30G13
  21598560.9404  -16732284.11749 -13027246.60347  21598560.2184   21598568.2544
      -691.5024       -538.8234
  20346516.4124  -18702568.14249 -14301375.15947  20346515.4684   20346523.3534
      1198.8264        934.1534
  21944759.3074  -15892415.81749 -11908040.20846  21944758.7714   21944767.4594
        24.1994         18.8634
  24152441.0564   -1484647.82349  -1137128.37645  24152440.7264   24152459.2274
      3039.9364       2368.7714
  22823950.7104   -9980269.73049  -7498760.11446  22823950.3204   22823958.5244
     -1777.9194      -1385.3964
  22603945.7934  -10972509.20149  -8542029.29646  22603945.1584   22603956.3974
     -2250.2704      -1753.4434
  23324286.4254   -8945556.59849  -6950454.55845  23324286.6904   23324294.2304
      1878.6224       1463.8584
  24273131.4674   -3503301.90949  -2626619.31045  24273130.7294   24273139.5024
     -1008.3374       -785.7184
 03  4 11 18  0 50.0000000  0  8G24G10G 5G29G 4G 7G30G13
  21598692.5014  -16731592.56249 -13026707.73047  21598692.0044   21598699.6964
      -691.7014       -538.9914
  20346288.2944  -18703766.64449 -14302309.05247  20346287.4714   20346295.3534
      1198.0524        933.5454
  21944754.7734  -15892439.67649 -11908058.79646  21944754.7684   21944762.7144
        23.4534         18.2714
  24151862.4874   -1487687.77949  -1139497.16245  24151862.2184   24151880.9954
      3039.8244       2368.6794
  22824288.8884   -9978491.84149  -7497374.74546  22824288.5334   22824296.5394
     -1778.0414      -1385.4714
  22604374.0524  -10970258.78349  -8540275.72346  22604373.3674   22604385.6184
     -2250.8044      -1753.8724
  23323928.9664   -8947434.89849  -6951918.17045  23323928.6244   23323936.7554
      1877.9374       1463.3264
  24273323.4144   -3502293.15349  -2625833.26845  24273322.5224   24273331.2854
     -1009.1024       -786.3144
 03  4 11 18  0 51.0000000  0  8G24G10G 5G29G 4G 7G30G13
  21598824.0454  -16730900.95549 -13026168.81347  21598823.6184   21598831.6614
      -691.8724       -539.1194
  20346060.3134  -18704964.53249 -14303242.46647  20346059.5844   20346067.5484
      1197.3424        932.9894
  21944750.3434  -15892462.94749 -11908076.92746  21944749.8804   21944758.7674
        22.7374         17.7044
  24151284.0254   -1490727.87749  -1141866.05845  24151284.0104   24151302.8004
      3039.8774       2368.7294
  22824627.1444   -9976713.96349  -7495989.38846  22824627.5224   22824634.7084
     -1778.1244      -1385.5594
  22604802.3304  -10968008.00049  -8538521.87346  22604801.1454   22604812.9784
     -2251.2354      -1754.1994
  23323571.6734   -8949312.69149  -6953381.38445  23323571.5444   23323579.5714
      1877.3144       1462.8414
  24273515.4294   -3501283.84449  -2625046.79445  24273514.1764   24273523.5194
     -1009.8574       -786.8964
 03  4 11 18  0 52.0000000  0  8G24G10G 5G29G 4G 7G30G13
  21598955.6254  -16730209.27649 -13025629.84447  21598955.3234   21598963.3814
      -691.7124       -538.9964
  20345832.4974  -18706161.76449 -14304175.37447  20345831.7354   20345839.7764
      1196.9064        932.6584
  21944746.0374  -15892485.58949 -11908094.57246  21944745.3644   21944754.4934
        22.3334         17.4144
  24150705.5234   -1493767.99349  -1144234.96845  24150705.3634   24150724.2694
      3040.1084       2368.9054
  22824965.4034   -9974936.05749  -7494604.01246  22824965.5584   22824972.6754
     -1777.8884      -1385.3594
  22605230.7184  -10965756.80449  -8536767.69946  22605229.6204   22605241.4634
     -2251.4464      -1754.3534
  23323214.4464   -8951189.92649  -6954844.16245  23323215.1494   23323222.4554
      1876.9834       1462.5864
  24273707.6724   -3500273.93149  -2624259.85245  24273705.5174   24273715.6484
     -1010.1804       -787.1484
 03  4 11 18  0 53.0000000  0  8G24G10G 5G29G 4G 7G30G13
  21599087.2054  -16729517.56149 -13025090.85147  21599086.9984   21599095.3434
      -691.6794       -538.9704
  20345604.7794  -18707358.38749 -14305107.80747  20345604.0644   20345611.9604
      1196.3834        932.2464
  21944741.8924  -15892507.64949 -11908111.77046  21944741.4264   21944750.1704
        21.8374         17.0194
  24150127.0124   -1496808.19249  -1146603.94545  24150126.9984   24150145.8304
      3040.3484       2369.0934
  22825303.6784   -9973158.18649  -7493218.66246  22825303.3284   22825311.7374
     -1777.8154      -1385.3104
  22605659.1674  -10963505.23449  -8535013.23546  22605657.8424   22605670.3424
     -2251.7484      -1754.6004
  23322857.2934   -8953066.63149  -6956306.52445  23322857.9334   23322866.2564
      1876.4784       1462.1834
  24273899.9234   -3499263.46049  -2623472.47145  24273897.8154   24273907.4744
     -1010.6634       -787.5284
 03  4 11 18  0 54.0000000  0  8G24G10G 5G29G 4G 7G30G13
  21599218.8154  -16728825.87649 -13024551.87647  21599218.7674   21599226.3444
      -691.9694       -539.2004
  20345377.1554  -18708554.46649 -14306039.81647  20345376.1914   20345384.3464
      1195.5114        931.5634
  21944737.8104  -15892529.18149 -11908128.54746  21944737.2114   21944746.4434
        20.9864         16.3564
  24149548.4824   -1499848.56649  -1148973.05745  24149548.4284   24149567.0734
      3040.1804       2368.9594
  22825641.9384   -9971380.38449  -7491833.36446  22825642.0194   22825649.7024
     -1778.0034      -1385.4624
  22606087.6814  -10961253.38049  -8533258.54446  22606086.3364   22606098.4214
     -2252.3274      -1755.0454
  23322500.1594   -8954942.91649  -6957768.56345  23322501.2994   23322509.1754
      1875.8274       1461.6754
  24274092.3524   -3498252.56549  -2622684.76045  24274089.9664   24274099.7164
     -1011.4744       -788.1544
 03  4 11 18  0 55.0000000  0  8G24G10G 5G29G 4G 7G30G13
  21599350.3934  -16728134.14349 -13024012.86447  21599350.1244   21599357.8394
      -692.0204       -539.2344
  20345149.6784  -18709749.91849 -14306971.33647  20345148.7384   20345156.7054
      1194.8914        931.0844
  21944733.8404  -15892550.11549 -11908144.85946  21944733.1474   21944742.1654
        20.3634         15.8754
  24148969.9844   -1502889.00749  -1151342.22245  24148970.5484   24148988.3674
      3040.2824       2369.0364
  22825980.1694   -9969602.60449  -7490448.08146  22825980.0434   22825988.0634
     -1778.0204      -1385.4744
  22606516.2914  -10959001.14249  -8531503.56846  22606515.3244   22606526.1704
     -2252.6894      -1755.3324
  23322143.2034   -8956818.61549  -6959230.15245  23322144.0314   23322151.8484
      1875.2484       1461.2364
  24274284.8044   -3497241.03249  -2621896.55345  24274282.1074   24274292.6984
     -1012.0274       -788.5964
 03  4 11 18  0 56.0000000  0  8G24G10G 5G29G 4G 7G30G13
  21599482.0244  -16727442.35149 -13023473.80047  21599482.0474   21599489.4874
      -692.0704       -539.2684
  20344922.3004  -18710944.73349 -14307902.35747  20344921.4504   20344929.5374
      1194.2424        930.5814
  21944729.9974  -15892570.44449 -11908160.69446  21944729.4134   21944738.2034
        19.7424         15.3854
  24148391.4334   -1505929.54849  -1153711.46345  24148392.3194   24148409.9374
      3040.3774       2369.1134
  22826318.4974   -9967824.84849  -7489062.81746  22826318.5454   22826326.6404
     -1778.0284      -1385.4834
  22606944.9934  -10956748.52149  -8529748.28746  22606945.4224   22606955.0964
     -2253.0814      -1755.6464
  23321786.3684   -8958693.80449  -6960691.33845  23321787.4164   23321794.8054
      1874.6404       1460.7624
  24274477.2784   -3496228.95849  -2621107.92845  24274474.2954   24274485.3434
     -1012.6454       -789.0704
 03  4 11 18  0 57.0000000  0  8G24G10G 5G29G 4G 7G30G13
  21599613.6434  -16726750.48849 -13022934.68547  21599613.5144   21599621.5114
      -691.9344       -539.1674
  20344695.0484  -18712138.90349 -14308832.87647  20344694.3134   20344702.3324
      1193.8194        930.2474
  21944726.2644  -15892590.14549 -11908176.04946  21944725.6704   21944733.8014
        19.3434         15.0804
  24147812.8454   -1508970.14049  -1156080.74645  24147813.5474   24147831.4124
      3040.6184       2369.2974
  22826656.7904   -9966047.07949  -7487677.54046  22826656.5584   22826665.1964
     -1777.7834      -1385.2884
  22607373.7684  -10954495.51249  -8527992.70046  22607372.3594   22607384.6814
     -2253.3064      -1755.8234
  23321429.6084   -8960568.41749  -6962152.07545  23321430.4554   23321438.2564
      1874.3074       1460.4934
  24274669.8204   -3495216.28149  -2620318.82845  24274666.9744   24274677.8934
     -1013.0394       -789.3784
 03  4 11 18  0 58.0000000  0  8G24G10G 5G29G 4G 7G30G13
  21599745.2294  -16726058.61749 -13022395.57147  21599745.3734   21599753.4244
      -691.9304       -539.1614
  20344467.9484  -18713332.49249 -14309762.94647  20344467.2754   20344475.3324
      1193.2244        929.7864
  21944722.6564  -15892609.29549 -11908190.97846  21944722.1784   21944730.8884
        18.8014         14.6504
  24147234.2534   -1512010.87449  -1158450.13645  24147234.5674   24147252.8234
      3040.7574       2369.4074
  22826995.0884   -9964269.37349  -7486292.31846  22826995.1144   22827003.4204
     -1777.7544      -1385.2744
  22607802.5414  -10952242.15249  -8526236.84146  22607801.6004   22607812.5724
     -2253.6444      -1756.0614
  23321072.8244   -8962442.56449  -6963612.44945  23321073.3214   23321081.7314
      1873.8244       1460.1204
  24274862.4744   -3494203.11249  -2619529.34645  24274859.6024   24274870.9814
     -1013.5414       -789.7714
 03  4 11 18  0 59.0000000  0  8G24G10G 5G29G 4G 7G30G13
  21599876.8744  -16725366.68149 -13021856.39847  21599876.7954   21599884.8144
      -691.8404       -539.0974
  20344240.9514  -18714525.44249 -14310692.52247  20344240.2144   20344248.2484
      1192.7764        929.4414
  21944719.1184  -15892627.82649 -11908205.42146  21944719.0584   21944727.2144
        18.4044         14.3514
  24146655.6204   -1515051.66949  -1160819.58045  24146656.0844   24146674.0224
      3040.9074       2369.5284
  22827333.4164   -9962491.63349  -7484907.07046  22827333.8854   22827342.6914
     -1777.6144      -1385.1524
  22608231.3844  -10949988.39849  -8524480.68046  22608230.2444   22608241.8014
     -2253.8614      -1756.2444
  23320716.3484   -8964316.12549  -6965072.36845  23320716.9894   23320725.8094
      1873.4234       1459.8134
  24275055.2234   -3493189.33849  -2618739.39345  24275052.7364   24275064.6034
     -1013.9274       -790.0734
 03  4 11 18  1  0.0000000  0  8G24G10G 5G29G 4G 7G30G13
  21600008.5524  -16724674.80449 -13021317.27247  21600008.5974   21600016.5974
      -692.1884       -539.3714
  20344014.0694  -18715717.87949 -14311621.69147  20344013.3004   20344021.3014
      1191.8434        928.7074
  21944715.6674  -15892645.87349 -11908219.48046  21944715.0144   21944723.3744
        17.4684         13.6044
  24146076.9364   -1518092.67449  -1163189.18245  24146077.1034   24146095.6524
      3040.7074       2369.3684
  22827671.6994   -9960714.03949  -7483521.93246  22827671.9344   22827680.4554
     -1777.9304      -1385.4074
  22608660.2944  -10947734.37549  -8522724.29546  22608658.6024   22608670.7954
     -2254.5344      -1756.7854
  23320359.8174   -8966189.27849  -6966531.97145  23320360.6114   23320370.1014
      1872.6424       1459.1954
  24275248.2034   -3492175.10949  -2617949.08545  24275246.0064   24275257.7574
     -1014.8384       -790.7794
 03  4 11 18  1  1.0000000  0  8G24G10G 5G29G 4G 7G30G13
  21600140.2144  -16723982.85049 -13020778.09047  21600140.0854   21600148.3544
      -692.2494       -539.4084
  20343787.3124  -18716909.66049 -14312550.34947  20343786.5704   20343794.5364
      1191.1664        928.1794
  21944712.3534  -15892663.27749 -11908233.04446  21944711.3604   21944720.2704
        16.8194         13.1094
  24145498.2244   -1521133.73049  -1165558.82745  24145498.3104   24145516.9124
      3040.7984       2369.4444
  22828010.0004   -9958936.43949  -7482136.79446  22828009.6834   22828018.3144
     -1777.8894      -1385.3604
  22609089.2404  -10945479.93949  -8520967.59146  22609088.2794   22609099.9104
     -2254.9844      -1757.1234
  23320003.4494   -8968061.87049  -6967991.13345  23320004.4664   23320013.4934
      1872.0524       1458.7474
  24275441.0504   -3491160.31349  -2617158.33845  24275439.2714   24275450.7994
     -1015.3574       -791.1874
 03  4 11 18  1  2.0000000  0  8G24G10G 5G29G 4G 7G30G13
  21600271.8874  -16723290.79349 -13020238.82547  21600271.6264   21600280.2564
      -692.1764       -539.3584
  20343560.6764  -18718100.78049 -14313478.49247  20343559.9184   20343567.7454
      1190.7274        927.8324
  21944709.1594  -15892680.06249 -11908246.12446  21944708.3814   21944717.2414
        16.3954         12.7684
  24144919.4714   -1524174.84449  -1167928.51845  24144919.6314   24144938.4264
      3041.0434       2369.6364
  22828348.3074   -9957158.80649  -7480751.63146  22828348.0334   22828356.8374
     -1777.7814      -1385.2754
  22609518.2934  -10943225.09149  -8519210.57046  22609517.2934   22609529.7934
     -2255.1644      -1757.2714
  23319647.2224   -8969933.89349  -6969449.84645  23319647.9284   23319657.5494
      1871.7024       1458.4514
  24275634.2264   -3490144.90549  -2616367.10945  24275632.4024   24275643.3754
     -1015.7424       -791.4894
 03  4 11 18  1  3.0000000  0  8G24G10G 5G29G 4G 7G30G13
  21600403.5734  -16722598.72749 -13019699.55447  21600403.6494   21600411.4834
      -692.0374       -539.2444
  20343334.1644  -18719291.29649 -14314406.16647  20343333.4974   20343341.3254
      1190.2914        927.5014
  21944706.0034  -15892696.25449 -11908258.74246  21944705.4534   21944714.4904
        15.9804         12.4584
  24144340.6564   -1527216.05849  -1170298.28745  24144340.8914   24144359.5464
      3041.4644       2369.9684
  22828686.5624   -9955381.19849  -7479366.48846  22828686.3004   22828694.9514
     -1777.4404      -1385.0214
  22609947.4314  -10940969.89549  -8517453.28846  22609946.7374   22609958.5244
     -2255.3214      -1757.3684
  23319291.1044   -8971805.40649  -6970908.17145  23319291.7384   23319301.6194
      1871.3494       1458.2044
  24275827.3584   -3489128.94249  -2615575.45045  24275825.9214   24275836.5174
     -1016.1264       -791.7894
 03  4 11 18  1  4.0000000  0  8G24G10G 5G29G 4G 7G30G13
  21600535.2534  -16721906.66849 -13019160.29247  21600534.8654   21600543.1194
      -692.1674       -539.3514
  20343107.7484  -18720481.25249 -14315333.40447  20343106.7974   20343114.8014
      1189.5544        926.9244
  21944702.9574  -15892711.91149 -11908270.94246  21944702.1824   21944711.1574
        15.2634         11.8934
  24143761.8224   -1530257.39349  -1172668.14845  24143762.0984   24143781.2124
      3041.2314       2369.7794
  22829024.8114   -9953603.64949  -7477981.38846  22829024.1014   22829032.9214
     -1777.5704      -1385.1104
  22610376.6434  -10938714.38449  -8515695.76546  22610376.0314   22610387.5794
     -2255.8104      -1757.7504
  23318934.9924   -8973676.44449  -6972366.12645  23318935.7294   23318945.7884
      1870.7604       1457.7404
  24276020.6484   -3488112.50749  -2614783.42345  24276019.5624   24276030.3364
     -1016.8214       -792.3294
 03  4 11 18  1  5.0000000  0  8G24G10G 5G29G 4G 7G30G13
  21600666.9884  -16721214.53249 -13018620.96547  21600666.7574   21600674.7394
      -692.1834       -539.3654
  20342881.4634  -18721670.56149 -14316260.14047  20342880.5154   20342888.5664
      1188.9824        926.4784
  21944700.1214  -15892726.94749 -11908282.66246  21944699.6194   21944708.5934
        14.6904         11.4474
  24143183.0914   -1533298.78349  -1175038.05145  24143183.3464   24143202.7064
      3041.4734       2369.9684
  22829363.0954   -9951826.09049  -7476596.28046  22829361.8394   22829371.4944
     -1777.5864      -1385.1374
  22610805.9494  -10936458.45749  -8513937.90546  22610805.9204   22610816.5724
     -2256.1694      -1758.0494
  23318578.9904   -8975546.90649  -6973823.62845  23318579.2614   23318588.7754
      1870.1364       1457.2524
  24276214.0574   -3487095.41749  -2613990.88645  24276213.4864   24276223.6584
     -1017.4214       -792.7984
 03  4 11 18  1  6.0000000  0  8G24G10G 5G29G 4G 7G30G13
  21600798.6884  -16720522.40949 -13018081.64747  21600798.8164   21600806.5474
      -692.3244       -539.4764
  20342655.2564  -18722859.30349 -14317186.42847  20342654.2054   20342662.3344
      1188.2314        925.8934
  21944697.3844  -15892741.44649 -11908293.95846  21944696.9534   21944705.5114
        14.0004         10.9134
  24142604.2664   -1536340.33549  -1177408.08145  24142604.5264   24142623.9224
      3041.3224       2369.8494
  22829701.3304   -9950048.61749  -7475211.23546  22829701.2154   22829709.1394
     -1777.6314      -1385.1524
  22611235.3204  -10934202.22349  -8512179.80546  22611234.4314   22611245.7454
     -2256.6484      -1758.4194
  23318223.3134   -8977416.91249  -6975280.77645  23318223.3844   23318232.6704
      1869.5584       1456.8074
  24276407.6734   -3486077.87549  -2613197.99545  24276406.8474   24276416.9894
     -1018.0154       -793.2644
 03  4 11 18  1  7.0000000  0  8G24G10G 5G29G 4G 7G30G13
  21600930.4324  -16719830.21849 -13017542.27247  21600929.9954   21600938.4494
      -692.4054       -539.5394
  20342429.1604  -18724047.40649 -14318112.22047  20342428.1674   20342436.0994
      1187.6094        925.4074
  21944694.7954  -15892755.33449 -11908304.78546  21944693.8194   21944702.5414
        13.3914         10.4374
  24142025.4384   -1539381.97049  -1179778.17745  24142025.5724   24142045.1384
      3041.4784       2369.9734
  22830039.5644   -9948271.15049  -7473826.19446  22830039.7564   22830048.9254
     -1777.6764      -1385.2074
  22611664.7654  -10931945.58849  -8510421.39546  22611663.5624   22611674.4874
     -2257.0514      -1758.7504
  23317867.5914   -8979286.34249  -6976737.47845  23317867.4704   23317877.0864
      1869.0064       1456.3714
  24276601.2294   -3485059.73549  -2612404.64045  24276600.4404   24276610.7324
     -1018.5434       -793.6744
 03  4 11 18  1  8.0000000  0  8G24G10G 5G29G 4G 7G30G13
  21601062.1874  -16719137.99249 -13017002.87747  21601061.9984   21601070.2164
      -692.5474       -539.6354
  20342203.1874  -18725234.91149 -14319037.54647  20342202.2524   20342210.0834
      1186.8904        924.8494
  21944692.2894  -15892768.63949 -11908315.14946  21944691.4254   21944700.1964
        12.7384          9.9164
  24141446.5864   -1542423.68649  -1182148.33345  24141447.0354   24141466.5144
      3041.4744       2369.9724
  22830377.7874   -9946493.72149  -7472441.18746  22830378.5154   22830386.4454
     -1777.6904      -1385.1984
  22612094.2424  -10929688.60949  -8508662.70846  22612093.5844   22612103.5614
     -2257.4964      -1759.0924
  23317512.0244   -8981155.27549  -6978193.78845  23317511.4914   23317521.3404
      1868.3804       1455.8794
  24276795.0224   -3484041.05149  -2611610.85945  24276794.1754   24276804.1584
     -1019.2804       -794.2424
 03  4 11 18  1  9.0000000  0  8G24G10G 5G29G 4G 7G30G13
  21601193.9644  -16718445.76549 -13016463.48547  21601193.2994   21601201.6104
      -692.6714       -539.7454
  20341977.3144  -18726421.82849 -14319962.41847  20341976.5174   20341984.4084
      1186.2004        924.3164
  21944689.8774  -15892781.37349 -11908325.07446  21944689.2134   21944697.4204
        12.0554          9.4064
  24140867.8184   -1545465.52749  -1184518.58745  24140868.1624   24140887.0984
      3041.4364       2369.9374
  22830715.9864   -9944716.33249  -7471056.21746  22830716.5294   22830723.7754
     -1777.7184      -1385.2144
  22612523.7924  -10927431.27549  -8506903.74746  22612522.5384   22612533.8954
     -2257.9334      -1759.4304
  23317156.5654   -8983023.68249  -6979649.68945  23317156.7074   23317164.9264
      1867.7664       1455.3994
  24276988.8464   -3483021.84749  -2610816.67545  24276988.0434   24276997.6774
     -1019.8974       -794.7214
 03  4 11 18  1 10.0000000  0  8G24G10G 5G29G 4G 7G30G13
  21601325.7434  -16717753.42449 -13015924.00047  21601325.3574   21601333.5074
      -692.5154       -539.6144
  20341751.5734  -18727608.07549 -14320886.76847  20341750.5354   20341758.6474
      1185.8084        924.0084
  21944687.5804  -15892793.47249 -11908334.50146  21944687.2804   21944695.4174
        11.6454          9.0724
  24140288.9864   -1548507.43549  -1186888.89545  24140289.2024   24140308.1574
      3041.7714       2370.2014
  22831054.2204   -9942938.90649  -7469671.21646  22831054.4004   22831061.8774
     -1777.5674      -1385.1284
  22612953.3934  -10925173.51949  -8505144.47146  22612951.7544   22612964.0154
     -2258.1274      -1759.5614
  23316801.1654   -8984891.51149  -6981105.14045  23316800.7074   23316809.4804
      1867.4414       1455.1494
  24277182.7854   -3482002.01549  -2610022.00145  24277182.0934   24277191.9154
     -1020.2964       -795.0424
 03  4 11 18  1 11.0000000  0  8G24G10G 5G29G 4G 7G30G13
  21601457.5234  -16717061.03649 -13015384.47947  21601457.0804   21601465.3454
      -692.3774       -539.5234
  20341525.9414  -18728793.68849 -14321810.61947  20341525.0304   20341533.0074
      1185.3384        923.6304
  21944685.4134  -15892804.96149 -11908343.45646  21944684.7994   21944693.8104
        11.2224          8.7564
  24139710.0704   -1551549.41349  -1189259.25445  24139710.2894   24139729.1044
      3042.0064       2370.3834
  22831392.5004   -9941161.51149  -7468286.23646  22831392.5424   22831400.1684
     -1777.3434      -1384.9284
  22613383.0654  -10922915.38849  -8503384.89246  22613381.8134   22613393.9124
     -2258.3314      -1759.7554
  23316445.8054   -8986758.81849  -6982560.18245  23316445.4004   23316454.2944
      1867.0204       1454.8174
  24277376.8694   -3480981.63549  -2609226.89945  24277375.9694   24277385.8664
     -1020.6454       -795.3104
 03  4 11 18  1 12.0000000  0  8G24G10G 5G29G 4G 7G30G13
  21601589.2844  -16716368.66849 -13014844.96647  21601589.0944   21601597.4324
      -692.4824       -539.6024
  20341300.4154  -18729978.75049 -14322734.04247  20341299.3894   20341307.5834
      1184.6754        923.1174
  21944683.3604  -15892815.92849 -11908352.00746  21944683.0444   21944691.9584
        10.5814          8.2514
  24139131.1494   -1554591.55149  -1191629.73945  24139131.4434   24139150.4924
      3042.0974       2370.4514
  22831730.8264   -9939384.18049  -7466901.30546  22831730.8694   22831737.9644
     -1777.4264      -1385.0054
  22613812.8294  -10920656.94949  -8501625.07346  22613812.0014   22613823.5154
     -2258.6904      -1760.0114
  23316090.5754   -8988625.67149  -6984014.87245  23316090.1134   23316099.1334
      1866.4694       1454.4024
  24277570.9444   -3479960.75849  -2608431.41345  24277569.9534   24277580.0794
     -1021.1764       -795.7194
 03  4 11 18  1 13.0000000  0  8G24G10G 5G29G 4G 7G30G13
  21601721.0704  -16715676.28649 -13014305.44647  21601720.6764   21601729.3024
      -692.6564       -539.7264
  20341075.0114  -18731163.22049 -14323657.00647  20341074.0794   20341082.2214
      1183.8954        922.5234
  21944681.3984  -15892826.31749 -11908360.09746  21944680.5784   21944689.4644
         9.8274          7.6544
  24138552.2234   -1557633.78749  -1194000.30245  24138552.7874   24138571.6474
      3042.0004       2370.3784
  22832069.0874   -9937606.90149  -7465516.41046  22832069.0114   22832076.2224
     -1777.5754      -1385.1254
  22614242.6514  -10918398.15949  -8499864.98446  22614241.6014   22614252.8434
     -2259.2664      -1760.4724
  23315735.4224   -8990492.00949  -6985469.16045  23315735.2214   23315744.6374
      1865.8244       1453.8944
  24277765.2204   -3478939.36049  -2607635.51845  24277764.3094   24277774.5774
     -1021.7954       -796.2014
 03  4 11 18  1 14.0000000  0  8G24G10G 5G29G 4G 7G30G13
  21601852.8864  -16714983.81349 -13013765.86047  21601852.5514   21601860.8644
      -692.6874       -539.7524
  20340849.7494  -18732347.04649 -14324579.46947  20340848.6834   20340856.9614
      1183.3314        922.0764
  21944679.5024  -15892836.08149 -11908367.71246  21944678.7894   21944687.3654
         9.2954          7.2534
  24137973.3104   -1560676.07349  -1196370.90445  24137973.9474   24137992.6824
      3042.1614       2370.5094
  22832407.3764   -9935829.60449  -7464131.50446  22832407.9724   22832415.5044
     -1777.4164      -1385.0054
  22614672.6094  -10916138.95949  -8498104.57646  22614671.9784   22614683.6134
     -2259.5894      -1760.7214
  23315380.3404   -8992357.78049  -6986923.01245  23315380.1094   23315389.5624
      1865.3474       1453.5234
  24277959.6254   -3477917.34149  -2606839.14045  24277958.9834   24277968.9064
     -1022.5104       -796.7674
 03  4 11 18  1 15.0000000  0  8G24G10G 5G29G 4G 7G30G13
  21601984.7034  -16714291.31049 -13013226.24847  21601984.3734   21601992.5424
      -692.7064       -539.7654
  20340624.5954  -18733530.25749 -14325501.45047  20340623.6604   20340631.6324
      1182.7814        921.6504
  21944677.7274  -15892845.26049 -11908374.86846  21944677.3034   21944685.6174
         8.7464          6.8264
  24137394.3244   -1563718.47049  -1198741.59245  24137394.9844   24137413.5814
      3042.3134       2370.6254
  22832745.6944   -9934052.29549  -7462746.57946  22832745.3304   22832754.1054
     -1777.4284      -1385.0154
  22615102.5704  -10913879.38449  -8496343.88146  22615102.1894   22615113.5694
     -2259.9244      -1760.9514
  23315025.4054   -8994223.03149  -6988376.45345  23315024.9774   23315034.0764
      1864.8804       1453.1444
  24278154.1984   -3476894.78549  -2606042.34445  24278153.5774   24278163.5164
     -1022.9364       -797.0854
 03  4 11 18  1 16.0000000  0  8G24G10G 5G29G 4G 7G30G13
  21602116.5174  -16713598.83949 -13012686.66747  21602116.0864   21602124.3444
      -692.8474       -539.8684
  20340399.5784  -18734712.90649 -14326422.99347  20340398.5994   20340406.4504
      1181.9604        921.0134
  21944676.0684  -15892853.92249 -11908381.61846  21944675.1744   21944683.6514
         7.9984          6.2254
  24136815.3324   -1566761.01549  -1201112.39745  24136815.7444   24136834.6264
      3042.1874       2370.5244
  22833083.8984   -9932275.11249  -7461361.76746  22833083.4454   22833092.4394
     -1777.5384      -1385.0884
  22615532.6434  -10911619.51349  -8494582.94646  22615532.6184   22615542.8134
     -2260.4834      -1761.4184
  23314670.5284   -8996087.84249  -6989829.55245  23314670.1944   23314679.3804
      1864.1484       1452.5864
  24278348.8744   -3475871.73049  -2605245.16145  24278348.1644   24278358.1884
     -1023.6294       -797.6284
 03  4 11 18  1 17.0000000  0  8G24G10G 5G29G 4G 7G30G13
  21602248.3154  -16712906.22849 -13012146.96647  21602247.9704   21602255.9334
      -692.6684       -539.7544
  20340174.6994  -18735894.85649 -14327343.99447  20340173.8434   20340181.5104
      1181.6244        920.7454
  21944674.5644  -15892861.89149 -11908387.82846  21944673.7594   21944682.0784
         7.6794          5.9694
  24136236.2734   -1569803.54649  -1203483.18845  24136236.6894   24136255.5874
      3042.5754       2370.8294
  22833422.1254   -9930497.84649  -7459976.88646  22833421.9234   22833430.7694
     -1777.2874      -1384.8934
  22615962.8214  -10909359.17649  -8492821.64846  22615962.5504   22615973.2324
     -2260.6114      -1761.4984
  23314315.8754   -8997952.01049  -6991282.14845  23314315.5614   23314324.4294
      1863.8574       1452.3584
  24278543.6834   -3474848.01449  -2604447.46045  24278543.0044   24278553.1944
     -1023.9374       -797.8674
 03  4 11 18  1 18.0000000  0  8G24G10G 5G29G 4G 7G30G13
  21602380.0914  -16712213.63549 -13011607.28647  21602379.6774   21602387.8654
      -692.6984       -539.7624
  20339949.8994  -18737076.25049 -14328264.56147  20339948.9364   20339956.7434
      1180.9994        920.2594
  21944673.1984  -15892869.31849 -11908393.61546  21944672.4564   21944681.2064
         7.0304          5.4884
  24135657.3184   -1572846.25949  -1205854.12645  24135657.7534   24135676.3984
      3042.6674       2370.9064
  22833760.3604   -9928720.65949  -7458592.06846  22833760.1274   22833768.6894
     -1777.2284      -1384.8364
  22616393.0404  -10907098.54049  -8491060.11946  22616392.2514   22616403.6324
     -2260.9214      -1761.7534
  23313961.2434   -8999815.70649  -6992734.37645  23313960.7384   23313970.5154
      1863.3114       1451.9304
  24278738.5814   -3473823.83049  -2603649.39845  24278737.8364   24278748.1084
     -1024.4724       -798.2944
 03  4 11 18  1 19.0000000  0  8G24G10G 5G29G 4G 7G30G13
  21602511.9284  -16711520.96649 -13011067.54047  21602512.0394   21602519.4784
      -692.5644       -539.6614
  20339725.2124  -18738256.99249 -14329184.61947  20339724.0824   20339732.3394
      1180.5724        919.9254
  21944671.9824  -15892876.13849 -11908398.93446  21944670.8384   21944679.3114
         6.6694          5.1994
  24135078.3274   -1575889.00849  -1208225.08845  24135078.6834   24135097.1774
      3042.9094       2371.0834
  22834098.6064   -9926943.46849  -7457207.24746  22834098.6844   22834106.7064
     -1777.0614      -1384.7234
  22616823.3054  -10904837.49849  -8489298.26446  22616822.6284   22616834.1634
     -2261.1324      -1761.9394
  23313606.7764   -9001678.85449  -6994186.18045  23313606.1344   23313616.3564
      1862.9934       1451.6764
  24278933.4954   -3472799.04349  -2602850.86545  24278933.1054   24278943.2064
     -1024.8294       -798.5654
 03  4 11 18  1 20.0000000  0  8G24G10G 5G29G 4G 7G30G13
  21602643.7304  -16710828.31849 -13010527.81747  21602643.4504   21602651.4354
      -692.6634       -539.7254
  20339500.6194  -18739437.18449 -14330104.24547  20339499.4754   20339507.7954
      1179.9094        919.4094
  21944670.8214  -15892882.41149 -11908403.82546  21944669.4874   21944678.7134
         6.0224          4.7054
  24134499.3214   -1578931.89549  -1210596.16245  24134499.6304   24134517.8864
      3042.9284       2371.1044
  22834436.8544   -9925166.33949  -7455822.46946  22834437.5364   22834444.4774
     -1777.1214      -1384.7624
  22617253.6474  -10902576.13849  -8487536.16846  22617253.0934   22617263.7654
     -2261.5754      -1762.2684
  23313252.3574   -9003541.53849  -6995637.62145  23313252.4004   23313261.3174
      1862.4214       1451.2364
  24279128.5364   -3471773.73849  -2602051.92845  24279127.9494   24279138.9154
     -1025.5134       -799.0984
 03  4 11 18  1 21.0000000  0  8G24G10G 5G29G 4G 7G30G13
  21602775.5504  -16710135.63249 -13009988.06447  21602775.3124   21602783.0024
      -692.7824       -539.8274
  20339276.1344  -18740616.75149 -14331023.38547  20339275.2144   20339283.1644
      1179.1974        918.8504
  21944669.7324  -15892888.09249 -11908408.25346  21944668.6314   21944677.2294
         5.3564          4.1884
  24133920.2564   -1581974.84649  -1212967.28645  24133920.4304   24133938.8824
      3042.8554       2371.0524
  22834775.1044   -9923389.24549  -7454437.72646  22834775.0644   22834782.0404
     -1777.1494      -1384.7634
  22617684.0614  -10900314.40249  -8485773.78446  22617684.0954   22617694.6874
     -2261.9684      -1762.5864
  23312898.0764   -9005403.66849  -6997088.63445  23312898.1314   23312907.0544
      1861.8014       1450.7514
  24279323.7504   -3470747.91949  -2601252.59245  24279323.5184   24279334.5974
     -1026.1424       -799.5854
 03  4 11 18  1 22.0000000  0  8G24G10G 5G29G 4G 7G30G13
  21602907.4344  -16709442.91049 -13009448.27847  21602907.1414   21602915.2884
      -692.8464       -539.8824
  20339051.7644  -18741795.71749 -14331942.05847  20339050.6234   20339058.8814
      1178.5584        918.3534
  21944668.7614  -15892893.18449 -11908412.21946  21944668.1924   21944676.6274
         4.7034          3.6694
  24133341.1364   -1585017.92549  -1215338.51145  24133341.1014   24133360.0434
      3042.9554       2371.1334
  22835113.3294   -9921612.16349  -7453052.99246  22835112.8344   22835120.5094
     -1777.1834      -1384.8094
  22618114.5464  -10898052.31049  -8484011.12246  22618114.0504   22618124.9664
     -2262.3894      -1762.8884
  23312543.8014   -9007265.29249  -6998539.25145  23312544.0354   23312553.2074
      1861.2364       1450.3214
  24279519.0404   -3469721.50249  -2600452.78845  24279518.2814   24279530.2844
     -1026.8824       -800.1644
 03  4 11 18  1 23.0000000  0  8G24G10G 5G29G 4G 7G30G13
  21603039.3004  -16708750.08849 -13008908.41847  21603039.2304   21603047.1464
      -692.6874       -539.7554
  20338827.5144  -18742974.01649 -14332860.20947  20338826.4514   20338834.5864
      1178.1314        918.0224
  21944667.8924  -15892897.65649 -11908415.70446  21944666.6804   21944675.4854
         4.3024          3.3524
  24132762.0254   -1588061.08949  -1217709.79945  24132762.1364   24132781.1304
      3043.2764       2371.3734
  22835451.5694   -9919835.08149  -7451668.24646  22835451.1584   22835459.1824
     -1776.9134      -1384.6234
  22618545.0674  -10895789.80549  -8482248.13546  22618544.3224   22618555.3954
     -2262.5674      -1763.0434
  23312189.6254   -9009126.35049  -6999989.42745  23312189.5494   23312199.5864
      1860.9504       1450.0894
  24279714.5264   -3468694.49449  -2599652.52045  24279714.0204   24279725.5564
     -1027.1864       -800.3974
 03  4 11 18  1 24.0000000  0  8G24G10G 5G29G 4G 7G30G13
  21603171.1124  -16708057.31349 -13008368.59047  21603170.8734   21603178.5774
      -692.8264       -539.8704
  20338603.3424  -18744151.76349 -14333777.93247  20338602.2304   20338610.3234
      1177.3834        917.4394
  21944667.1304  -15892901.58649 -11908418.77146  21944666.0644   21944674.8694
         3.6034          2.8234
  24132182.8974   -1591104.39149  -1220081.19645  24132183.1844   24132201.7714
      3043.3674       2371.4474
  22835789.7824   -9918058.05249  -7450283.54546  22835789.1814   22835797.2164
     -1777.0244      -1384.6924
  22618975.7034  -10893526.98049  -8480484.91146  22618975.3514   22618985.7594
     -2263.1164      -1763.4604
  23311835.5664   -9010986.93949  -7001439.23145  23311836.3644   23311845.4294
      1860.2644       1449.5474
  24279909.9384   -3467667.00849  -2598851.88245  24279909.5534   24279921.2994
     -1027.8344       -800.9134
 03  4 11 18  1 25.0000000  0  8G24G10G 5G29G 4G 7G30G13
  21603302.9464  -16707364.52349 -13007828.75847  21603302.5214   21603310.6924
      -693.1554       -540.1124
  20338379.3054  -18745328.93549 -14334695.21247  20338378.2184   20338386.4904
      1176.5124        916.7654
  21944666.4474  -15892904.97349 -11908421.41546  21944665.7644   21944674.9084
         2.7234          2.1344
  24131603.6734   -1594147.77849  -1222452.65845  24131603.9824   24131622.5834
      3043.0494       2371.1954
  22836127.9434   -9916281.09549  -7448898.90846  22836126.6934   22836134.3694
     -1777.2924      -1384.8974
  22619406.3934  -10891263.84049  -8478721.43346  22619406.0614   22619415.2784
     -2263.7224      -1763.9364
  23311481.5324   -9012847.04349  -7002888.66045  23311482.0624   23311490.7364
      1859.4754       1448.9364
  24280105.4924   -3466638.98949  -2598050.82745  24280104.8854   24280116.5264
     -1028.6124       -801.5224
 03  4 11 18  1 26.0000000  0  8G24G10G 5G29G 4G 7G30G13
  21603434.8444  -16706671.61449 -13007288.83047  21603434.6134   21603442.4274
      -692.9294       -539.9514
  20338155.3974  -18746505.40749 -14335611.94447  20338154.4694   20338162.4294
      1176.1494        916.4794
  21944665.9114  -15892907.67749 -11908423.52446  21944665.6444   21944673.7824
         2.4104          1.8924
  24131024.4254   -1597191.21649  -1224824.15945  24131024.6254   24131043.5234
      3043.4464       2371.5114
  22836466.0454   -9914504.08049  -7447514.22646  22836465.4994   22836473.9284
     -1776.9474      -1384.6374
  22619837.2074  -10889000.24549  -8476957.59846  22619836.4034   22619846.6804
     -2263.8514      -1764.0294
  23311127.6344   -9014706.55049  -7004337.62545  23311127.6694   23311136.9444
      1859.2574       1448.7734
  24280301.0874   -3465610.34149  -2597249.28645  24280300.3724   24280312.2084
     -1028.9044       -801.7394
 03  4 11 18  1 27.0000000  0  8G24G10G 5G29G 4G 7G30G13
  21603566.7134  -16705978.70249 -13006748.89647  21603566.3324   21603574.5424
      -693.0554       -540.0524
  20337931.6124  -18747681.30849 -14336528.22647  20337930.7274   20337938.8164
      1175.4594        915.9434
  21944665.4984  -15892909.84149 -11908425.20846  21944665.0634   21944673.4684
         1.7384          1.3554
  24130445.3384   -1600234.77049  -1227195.74845  24130445.4844   24130464.1444
      3043.4854       2371.5364
  22836804.1494   -9912727.12749  -7446129.59446  22836803.4194   22836811.6474
     -1777.1184      -1384.7694
  22620268.0524  -10886736.31149  -8475193.49646  22620266.6424   22620277.5304
     -2264.2814      -1764.3634
  23310773.8304   -9016565.55749  -7005786.20045  23310773.6994   23310782.9054
      1858.6864       1448.3214
  24280496.8754   -3464581.16949  -2596447.33545  24280496.1614   24280508.6704
     -1029.5864       -802.2774
 03  4 11 18  1 28.0000000  0  8G24G10G 5G29G 4G 7G30G13
  21603698.5804  -16705285.70549 -13006208.89947  21603697.7824   21603706.2894
      -692.8054       -539.8534
  20337707.9644  -18748856.54249 -14337443.99047  20337707.0854   20337715.2914
      1175.1374        915.6964
  21944665.1914  -15892911.36549 -11908426.39546  21944664.8714   21944673.2864
         1.4694          1.1584
  24129866.2464   -1603278.36049  -1229567.36545  24129866.1244   24129884.8084
      3043.9004       2371.8594
  22837142.1204   -9910950.15549  -7444744.94546  22837141.3794   22837150.0454
     -1776.7504      -1384.4524
  22620698.9684  -10884471.97449  -8473429.07946  22620698.2264   22620708.8164
     -2264.3534      -1764.4274
  23310420.1864   -9018423.99849  -7007234.33545  23310419.8934   23310429.2884
      1858.4054       1448.1104
  24280692.7224   -3463551.39449  -2595644.91645  24280692.1634   24280705.2304
     -1029.9154       -802.5284
 03  4 11 18  1 29.0000000  0  8G24G10G 5G29G 4G 7G30G13
  21603830.4404  -16704592.74749 -13005668.93347  21603829.8564   21603838.1994
      -692.9854       -539.9824
  20337484.4324  -18750031.24149 -14338359.34347  20337483.5394   20337491.5594
      1174.3684        915.0954
  21944665.0444  -15892912.37249 -11908427.18046  21944665.1444   21944672.8624
         0.6774          0.5294
  24129286.9974   -1606322.14549  -1231939.13645  24129286.8404   24129305.5844
      3043.8834       2371.8434
  22837480.1494   -9909173.26749  -7443360.35646  22837480.7704   22837488.1504
     -1776.8824      -1384.5914
  22621129.9884  -10882207.34349  -8471664.42846  22621129.1424   22621139.0334
     -2264.8894      -1764.8424
  23310066.6974   -9020281.98549  -7008682.11745  23310066.3074   23310075.7244
      1857.7274       1447.5704
  24280888.8064   -3462521.13749  -2594842.11745  24280888.1704   24280901.3674
     -1030.5984       -803.0684
 03  4 11 18  1 30.0000000  0  8G24G10G 5G29G 4G 7G30G13
  21603962.3394  -16703899.75249 -13005128.93747  21603961.9424   21603970.3254
      -693.2454       -540.1854
  20337260.9854  -18751205.33349 -14339274.21847  20337260.1344   20337268.0134
      1173.5614        914.4594
  21944664.9704  -15892912.80849 -11908427.52746  21944664.4564   21944673.0534
        -0.1014         -0.0804
  24128707.7624   -1609366.00749  -1234310.96945  24128708.0314   24128726.6194
      3043.6654       2371.6764
  22837818.2024   -9907396.42749  -7441975.80946  22837819.0064   22837825.7774
     -1777.0644      -1384.7304
  22621561.0774  -10879942.34249  -8469899.49946  22621560.8904   22621570.7424
     -2265.3934      -1765.2394
  23309713.1624   -9022139.45349  -7010129.49145  23309712.2534   23309723.3534
      1857.0004       1447.0134
  24281084.8184   -3461490.34449  -2594038.90445  24281084.3114   24281097.7254
     -1031.3394       -803.6404
 03  4 11 18  1 31.0000000  0  8G24G10G 5G29G 4G 7G30G13
  21604094.2164  -16703206.64249 -13004588.85447  21604093.6834   21604101.7374
      -692.8674       -539.8994
  20337037.6764  -18752378.72249 -14340188.54647  20337036.6624   20337045.0584
      1173.3524        914.3044
  21944665.0184  -15892912.57249 -11908427.34346  21944664.2684   21944672.9534
        -0.2584         -0.1964
  24128128.4754   -1612409.91049  -1236682.83145  24128128.5864   24128147.2034
      3044.1434       2372.0484
  22838156.3004   -9905619.50349  -7440591.19546  22838155.7124   22838163.7544
     -1776.6424      -1384.3884
  22621992.2364  -10877676.90449  -8468134.23246  22621991.1184   22622002.2574
     -2265.3574      -1765.2004
  23309359.7404   -9023996.30049  -7011576.38945  23309358.9224   23309370.0864
      1856.8524       1446.9154
  24281281.1084   -3460458.90549  -2593235.18545  24281280.0934   24281293.3254
     -1031.4244       -803.7094
 03  4 11 18  1 32.0000000  0  8G24G10G 5G29G 4G 7G30G13
  21604226.1134  -16702513.59749 -13004048.82047  21604226.1334   21604233.6624
      -693.2604       -540.1934
  20336814.4584  -18753551.61549 -14341102.48547  20336813.5424   20336821.7094
      1172.3964        913.5554
  21944665.1584  -15892911.84749 -11908426.77446  21944665.3554   21944673.2164
        -1.1864         -0.9254
  24127549.2504   -1615453.97249  -1239054.81845  24127549.2854   24127567.8294
      3043.8444       2371.8174
  22838494.3354   -9903842.73249  -7439206.70246  22838493.5174   22838501.6754
     -1776.9364      -1384.6234
  22622423.4594  -10875411.20149  -8466368.75446  22622422.4234   22622433.5844
     -2266.0734      -1765.7724
  23309006.4374   -9025852.74649  -7013022.96945  23309005.7324   23309016.8574
      1856.0064       1446.2344
  24281477.5874   -3459427.04549  -2592431.13445  24281477.1304   24281490.1064
     -1032.3364       -804.4254
 03  4 11 18  1 33.0000000  0  8G24G10G 5G29G 4G 7G30G13
  21604357.9954  -16701820.49849 -13003508.74447  21604357.9864   21604365.5524
      -693.3924       -540.3084
  20336591.3714  -18754723.87149 -14342015.93047  20336590.5704   20336598.7114
      1171.6814        913.0014
  21944665.4514  -15892910.52149 -11908425.74646  21944664.7054   21944673.6494
        -1.8884         -1.4584
  24126969.8704   -1618498.17449  -1241426.91345  24126969.8974   24126988.4644
      3043.9684       2371.9144
  22838832.3534   -9902065.96449  -7437822.20846  22838832.4244   22838840.2054
     -1777.0344      -1384.6974
  22622854.7524  -10873145.12349  -8464602.98146  22622853.3944   22622864.3274
     -2266.5754      -1766.1734
  23308653.2394   -9027708.63649  -7014469.11645  23308652.4794   23308663.3164
      1855.3854       1445.7494
  24281674.0284   -3458394.59249  -2591626.62345  24281673.2864   24281686.5704
     -1032.9454       -804.8884
 03  4 11 18  1 34.0000000  0  8G24G10G 5G29G 4G 7G30G13
  21604489.9054  -16701127.33949 -13002968.61847  21604489.8134   21604497.7394
      -693.4114       -540.3194
  20336368.3884  -18755895.49149 -14342928.87947  20336367.5064   20336375.7424
      1171.0914        912.5384
  21944665.7844  -15892908.58749 -11908424.23646  21944665.1894   21944673.9194
        -2.4554         -1.9144
  24126390.5124   -1621542.38749  -1243799.01545  24126390.5384   24126409.3704
      3043.9844       2371.9224
  22839170.4354   -9900289.17549  -7436437.69446  22839170.6084   22839178.7084
     -1776.9984      -1384.6774
  22623286.0684  -10870878.66049  -8462836.91146  22623285.4674   22623295.3754
     -2266.8844      -1766.3954
  23308300.1054   -9029563.98749  -7015914.84445  23308299.1994   23308309.9354
      1854.8814       1445.3594
  24281870.5754   -3457361.57049  -2590821.67345  24281869.7594   24281882.8914
     -1033.5244       -805.3454
 03  4 11 18  1 35.0000000  0  8G24G10G 5G29G 4G 7G30G13
  21604621.8264  -16700434.13649 -13002428.46047  21604621.3314   21604629.5664
      -693.3794       -540.2974
  20336145.5394  -18757066.48349 -14343841.34147  20336144.5764   20336152.8804
      1170.5294        912.0994
  21944666.2754  -15892906.04349 -11908422.25546  21944665.6454   21944674.1224
        -2.9844         -2.3224
  24125811.2154   -1624586.71149  -1246171.20245  24125810.9504   24125829.9724
      3044.2544       2372.1364
  22839508.5284   -9898512.41149  -7435053.20346  22839508.2084   22839516.4304
     -1776.8374      -1384.5514
  22623717.4584  -10868611.81249  -8461070.53446  22623716.8984   22623726.6254
     -2267.1944      -1766.6314
  23307947.0394   -9031418.81249  -7017360.16545  23307945.7844   23307956.9834
      1854.3794       1444.9754
  24282067.0984   -3456327.99149  -2590016.28845  24282066.3674   24282079.4704
     -1033.9434       -805.6674
 03  4 11 18  1 36.0000000  0  8G24G10G 5G29G 4G 7G30G13
  21604753.7714  -16699740.93349 -13001888.30647  21604753.4764   21604761.3344
      -693.5194       -540.4014
  20335922.8154  -18758236.90649 -14344753.35847  20335921.8504   20335930.1664
      1169.8264        911.5514
  21944666.9174  -15892902.95549 -11908419.85346  21944665.8944   21944674.3674
        -3.6714         -2.8544
  24125231.8704   -1627631.14049  -1248543.47545  24125231.4824   24125250.6344
      3044.2174       2372.1064
  22839846.6304   -9896735.71449  -7433668.77046  22839847.0444   22839854.6474
     -1776.9954      -1384.6874
  22624148.9444  -10866344.62649  -8459303.90846  22624148.1094   22624158.3724
     -2267.6574      -1766.9964
  23307594.0744   -9033273.13549  -7018805.08845  23307592.9764   23307604.1754
      1853.7604       1444.4834
  24282263.8254   -3455293.86649  -2589210.47345  24282263.1644   24282276.0424
     -1034.6304       -806.2104
 03  4 11 18  1 37.0000000  0  8G24G10G 5G29G 4G 7G30G13
  21604885.7264  -16699047.69949 -13001348.12447  21604885.6694   21604893.1814
      -693.7384       -540.5784
  20335700.2374  -18759406.71749 -14345664.89747  20335699.4504   20335707.4944
      1169.0064        910.9084
  21944667.6234  -15892899.29149 -11908416.99946  21944666.5254   21944674.8944
        -4.4624         -3.4834
  24124652.5244   -1630675.67449  -1250915.83145  24124652.1104   24124671.6384
      3044.1044       2372.0214
  22840184.6604   -9894959.03649  -7432284.34446  22840185.2014   22840192.8874
     -1777.1634      -1384.7994
  22624580.4674  -10864077.10049  -8457537.00746  22624579.1254   22624590.1934
     -2268.2594      -1767.4684
  23307241.2794   -9035126.95849  -7020249.62545  23307240.4824   23307250.9554
      1853.1234       1444.0004
  24282460.5584   -3454259.23649  -2588404.27045  24282460.0364   24282472.9974
     -1035.4154       -806.8134
 03  4 11 18  1 38.0000000  0  8G24G10G 5G29G 4G 7G30G13
  21605017.6544  -16698354.39849 -13000807.88847  21605017.2224   21605025.3554
      -693.6844       -540.5324
  20335477.7744  -18760575.89849 -14346575.94547  20335476.8824   20335484.9824
      1168.5254        910.5334
  21944668.4134  -15892895.00249 -11908413.65446  21944667.3834   21944676.0514
        -4.9544         -3.8574
  24124073.1894   -1633720.26549  -1253288.22945  24124072.5004   24124092.0514
      3044.2834       2372.1584
  22840522.6294   -9893182.36049  -7430899.92246  22840522.3474   22840531.0874
     -1777.0234      -1384.6784
  22625012.0924  -10861809.16749  -8455769.78646  22625010.7474   22625021.4344
     -2268.5394      -1767.6914
  23306888.5184   -9036980.21549  -7021693.71945  23306887.8434   23306898.6044
      1852.6624       1443.6314
  24282657.4174   -3453224.00949  -2587597.60045  24282657.0194   24282669.3904
     -1035.8314       -807.1354
 03  4 11 18  1 39.0000000  0  8G24G10G 5G29G 4G 7G30G13
  21605149.5874  -16697661.04449 -13000267.61147  21605149.0184   21605157.0464
      -693.6464       -540.4994
  20335255.4124  -18761744.43249 -14347486.48847  20335254.5744   20335262.7074
      1167.9804        910.1184
  21944669.3984  -15892890.11149 -11908409.84546  21944668.3844   21944676.9204
        -5.4224         -4.2144
  24123493.8734   -1636764.92249  -1255660.67745  24123492.6854   24123512.7314
      3044.3794       2372.2304
  22840860.6374   -9891405.70049  -7429515.51846  22840860.7654   22840869.7304
     -1776.9214      -1384.6104
  22625443.7624  -10859540.85149  -8454002.27146  22625442.6134   22625453.1284
     -2268.8144      -1767.9044
  23306535.8924   -9038832.92149  -7023137.38245  23306535.8014   23306545.9494
      1852.2074       1443.2784
  24282854.3634   -3452188.19849  -2586790.47345  24282854.5984   24282866.7994
     -1036.4054       -807.5884
 03  4 11 18  1 40.0000000  0  8G24G10G 5G29G 4G 7G30G13
  21605281.5634  -16696967.68449 -12999727.33347  21605280.7744   21605289.5494
      -693.7374       -540.5664
  20335033.1774  -18762912.39549 -14348396.59147  20335032.3174   20335040.6344
      1167.3194        909.6024
  21944670.4494  -15892884.66149 -11908405.59946  21944669.6994   21944678.2494
        -6.0934         -4.7534
  24122914.4814   -1639809.72349  -1258033.23845  24122913.6324   24122933.2114
      3044.4964       2372.3274
  22841198.5664   -9889629.10949  -7428131.16846  22841199.0284   22841207.1584
     -1776.9214      -1384.6074
  22625875.4654  -10857272.20149  -8452234.49346  22625874.3904   22625885.1034
     -2269.2294      -1768.2204
  23306183.4494   -9040685.13449  -7024580.66445  23306183.2464   23306193.0534
      1851.6164       1442.8164
  24283051.6494   -3451151.87449  -2585982.94545  24283051.6784   24283064.5684
     -1036.9604       -808.0234
 03  4 11 18  1 41.0000000  0  8G24G10G 5G29G 4G 7G30G13
  21605413.5004  -16696274.26349 -12999187.00347  21605412.5634   21605421.1974
      -693.6524       -540.5124
  20334811.0684  -18764079.71849 -14349306.19447  20334810.3354   20334818.4154
      1166.8254        909.2184
  21944671.6104  -15892878.60649 -11908400.88246  21944670.6574   21944679.7824
        -6.5704         -5.1254
  24122335.1314   -1642854.59249  -1260405.85145  24122334.2774   24122353.6964
      3044.7004       2372.4774
  22841536.6414   -9887852.50449  -7426746.80946  22841538.0404   22841545.3914
     -1776.8214      -1384.5254
  22626307.2204  -10855003.16349  -8450466.41546  22626306.4434   22626317.0744
     -2269.4874      -1768.4414
  23305831.0614   -9042536.79849  -7026023.51845  23305831.1804   23305840.8664
      1851.2014       1442.4914
  24283248.8414   -3450114.96049  -2585174.96045  24283249.1594   24283260.5374
     -1037.4664       -808.4224
 03  4 11 18  1 42.0000000  0  8G24G10G 5G29G 4G 7G30G13
  21605545.4364  -16695580.80449 -12998646.65047  21605544.7664   21605553.0674
      -693.6564       -540.5044
  20334589.0664  -18765246.43249 -14350215.32447  20334588.4024   20334596.2274
      1166.2204        908.7484
  21944672.8394  -15892871.95349 -11908395.70446  21944671.5704   21944679.7524
        -7.1304         -5.5454
  24121755.6654   -1645899.56549  -1262778.54645  24121754.6744   24121774.0504
      3044.8694       2372.6174
  22841874.7304   -9886075.93549  -7425362.47046  22841875.8674   22841882.9184
     -1776.7864      -1384.5214
  22626738.9904  -10852733.77549  -8448698.07546  22626737.8264   22626749.4684
     -2269.7874      -1768.6684
  23305478.7034   -9044387.94249  -7027465.96945  23305479.1214   23305489.2834
      1850.6714       1442.0774
  24283446.2344   -3449077.48549  -2584366.53745  24283446.9424   24283457.8634
     -1037.9844       -808.8254
 03  4 11 18  1 43.0000000  0  8G24G10G 5G29G 4G 7G30G13
  21605677.3594  -16694887.25749 -12998106.22247  21605676.6664   21605684.7844
      -693.3874       -540.3084
  20334367.1994  -18766412.48349 -14351123.92947  20334366.5354   20334374.1704
      1165.9104        908.4964
  21944674.2274  -15892864.66749 -11908390.02846  21944673.0174   21944681.6224
        -7.3904         -5.7554
  24121176.1044   -1648944.55449  -1265151.25345  24121175.1484   24121194.5574
      3045.2134       2372.8834
  22842212.8064   -9884299.34349  -7423978.10846  22842212.6464   22842220.7484
     -1776.3824      -1384.1914
  22627170.8704  -10850463.96249  -8446929.39746  22627169.3714   22627181.1144
     -2269.8314      -1768.6864
  23305126.5384   -9046238.50449  -7028907.96345  23305126.7244   23305137.2774
      1850.4594       1441.9194
  24283643.9324   -3448039.46549  -2583557.69045  24283644.8104   24283655.2384
     -1038.1794       -808.9694
 03  4 11 18  1 44.0000000  0  8G24G10G 5G29G 4G 7G30G13
  21605809.3064  -16694193.74949 -12997565.82347  21605808.4964   21605816.8644
      -693.4994       -540.3914
  20334145.3924  -18767577.99849 -14352032.11947  20334144.6294   20334152.5434
      1165.2334        907.9674
  21944675.6674  -15892856.87049 -11908383.94946  21944675.0594   21944683.5314
        -8.0614         -6.2924
  24120596.6954   -1651989.72049  -1267524.09945  24120595.6214   24120615.1114
      3045.2364       2372.9034
  22842550.8654   -9882522.82349  -7422593.81046  22842551.2144   22842560.5114
     -1776.4874      -1384.2524
  22627602.7974  -10848193.85349  -8445160.48346  22627601.9914   22627612.2714
     -2270.3194      -1769.0764
  23304774.3644   -9048088.61549  -7030349.60945  23304775.1424   23304785.2064
      1849.8814       1441.4654
  24283841.6964   -3447000.91649  -2582748.42945  24283842.9944   24283852.8224
     -1038.7944       -809.4494
 03  4 11 18  1 45.0000000  0  8G24G10G 5G29G 4G 7G30G13
  21605941.2144  -16693500.19949 -12997025.39947  21605940.6584   21605948.7174
      -693.4994       -540.3724
  20333923.7384  -18768742.90349 -14352939.83947  20333922.9634   20333930.9924
      1164.6764        907.5424
  21944677.2884  -15892848.48849 -11908377.42346  21944676.8574   21944685.0894
        -8.6114         -6.6894
  24120017.1574   -1655035.00449  -1269897.03645  24120016.2504   24120035.5374
      3045.4574       2373.0734
  22842888.9334   -9880746.35549  -7421209.55146  22842889.0014   22842897.5754
     -1776.3774      -1384.1954
  22628034.8394  -10845923.38449  -8443391.29346  22628033.0884   22628044.1454
     -2270.6054      -1769.2864
  23304422.3784   -9049938.22649  -7031790.86545  23304423.7864   23304432.5574
      1849.4304       1441.1234
  24284039.4404   -3445961.85549  -2581938.77045  24284040.5624   24284050.8524
     -1039.2174       -809.7864
 03  4 11 18  1 46.0000000  0  8G24G10G 5G29G 4G 7G30G13
  21606073.1984  -16692806.62449 -12996484.95447  21606073.0044   21606080.9454
      -693.6534       -540.5084
  20333702.1734  -18769907.19249 -14353847.08047  20333701.3094   20333709.4074
      1163.9294        906.9584
  21944678.9724  -15892839.51049 -11908370.42446  21944677.3234   21944686.6414
        -9.3474         -7.3014
  24119437.5824   -1658080.35349  -1272270.02345  24119436.7564   24119455.8494
      3045.3384       2372.9734
  22843226.9774   -9878969.88649  -7419825.28946  22843227.2154   22843235.8764
     -1776.5534      -1384.3334
  22628466.9524  -10843652.53449  -8441621.80446  22628465.3794   22628477.0764
     -2271.1214      -1769.7244
  23304070.5724   -9051787.29149  -7033231.70045  23304071.8184   23304080.7744
      1848.7854       1440.6164
  24284237.2314   -3444922.22349  -2581128.66545  24284239.4044   24284248.5884
     -1039.9204       -810.3194
 03  4 11 18  1 47.0000000  0  8G24G10G 5G29G 4G 7G30G13
  21606205.1654  -16692112.96649 -12995944.44347  21606205.2884   21606213.0334
      -693.4244       -540.3414
  20333480.7564  -18771070.83649 -14354753.81547  20333479.7464   20333487.7824
      1163.5854        906.6814
  21944680.7984  -15892829.91449 -11908362.94746  21944679.6084   21944688.2804
        -9.6614         -7.5384
  24118857.9874   -1661125.76049  -1274643.05845  24118857.0894   24118876.2224
      3045.6824       2373.2504
  22843565.0594   -9877193.41049  -7418441.02446  22843565.8894   22843573.9874
     -1776.2084      -1384.0594
  22628899.1104  -10841381.29549  -8439852.01646  22628897.7384   22628909.6904
     -2271.2114      -1769.7614
  23303718.9054   -9053635.79049  -7034672.09045  23303719.5944   23303729.4104
      1848.5034       1440.4004
  24284435.0864   -3443881.98449  -2580318.08145  24284437.2314   24284446.1864
     -1040.3654       -810.6774
 03  4 11 18  1 48.0000000  0  8G24G10G 5G29G 4G 7G30G13
  21606337.1284  -16691419.30849 -12995403.92547  21606336.6674   21606344.9924
      -693.5204       -540.4184
  20333259.4274  -18772233.88949 -14355660.08447  20333258.5854   20333266.3994
      1162.9074        906.1544
  21944682.7204  -15892819.78049 -11908355.05546  21944681.9844   21944690.8974
       -10.2614         -7.9874
  24118278.3494   -1664171.32149  -1277016.21045  24118277.6804   24118296.8244
      3045.7104       2373.2674
  22843903.0724   -9875416.99849  -7417056.80946  22843903.3344   22843911.5584
     -1776.2194      -1384.0594
  22629331.3244  -10839109.73649  -8438081.97446  22629330.9054   22629341.4354
     -2271.6884      -1770.1384
  23303367.2924   -9055483.83149  -7036112.12145  23303367.7414   23303377.8404
      1847.8894       1439.9154
  24284633.1504   -3442841.23849  -2579507.10945  24284634.7814   24284644.2744
     -1040.8864       -811.0814
 03  4 11 18  1 49.0000000  0  8G24G10G 5G29G 4G 7G30G13
  21606469.1044  -16690725.61749 -12994863.38647  21606468.3514   21606476.8124
      -693.5414       -540.4244
  20333038.2214  -18773396.33049 -14356565.88147  20333037.6054   20333045.2084
      1162.3074        905.6934
  21944684.7344  -15892809.04049 -11908346.68646  21944684.1054   21944692.2844
       -10.8364         -8.4404
  24117698.7274   -1667216.93449  -1279389.40245  24117698.3274   24117717.8294
      3045.8584       2373.3824
  22844241.1164   -9873640.60549  -7415672.60346  22844241.2444   22844249.6734
     -1776.2054      -1384.0584
  22629763.5624  -10836837.79149  -8436311.64246  22629762.7314   22629773.4654
     -2272.0644      -1770.4184
  23303015.7014   -9057331.33149  -7037551.73345  23303016.0574   23303026.6984
      1847.4594       1439.5824
  24284831.1844   -3441799.94549  -2578695.71045  24284832.6184   24284842.3774
     -1041.3924       -811.4794
 03  4 11 18  1 50.0000000  0  8G24G10G 5G29G 4G 7G30G13
  21606601.0384  -16690031.90949 -12994322.83547  21606600.8644   21606609.1504
      -693.7454       -540.5714
  20332817.1364  -18774558.18749 -14357471.22347  20332816.4034   20332824.3724
      1161.5524        905.1014
  21944686.8704  -15892797.74249 -11908337.88546  21944686.2904   21944694.8894
       -11.6004         -9.0374
  24117118.9464   -1670262.71349  -1281762.72345  24117118.6674   24117138.4824
      3045.8194       2373.3494
  22844579.1184   -9871864.25949  -7414288.43446  22844580.1804   22844588.1594
     -1776.3604      -1384.1804
  22630195.9384  -10834565.53149  -8434541.05246  22630194.4144   22630205.5364
     -2272.4974      -1770.7634
  23302664.2504   -9059178.32649  -7038990.94745  23302664.3704   23302675.8264
      1846.7674       1439.0244
  24285029.3404   -3440758.15249  -2577883.91945  24285030.5714   24285040.5354
     -1042.0304       -811.9814
 03  4 11 18  1 51.0000000  0  8G24G10G 5G29G 4G 7G30G13
  21606732.9984  -16689338.16749 -12993782.26447  21606732.6354   21606741.0274
      -693.8814       -540.6804
  20332596.1214  -18775719.43849 -14358376.09647  20332595.2944   20332603.3474
      1160.8694        904.5774
  21944689.0764  -15892785.85749 -11908328.62846  21944688.2544   21944696.8484
       -12.2834         -9.5674
  24116539.2454   -1673308.53349  -1284136.07845  24116539.0344   24116558.9854
      3045.7634       2373.3174
  22844917.1004   -9870087.93349  -7412904.29646  22844917.9104   22844926.3474
     -1776.4034      -1384.1984
  22630628.3924  -10832292.90449  -8432770.17846  22630627.7344   22630638.0394
     -2272.9214      -1771.1044
  23302312.9504   -9061024.78249  -7040429.74445  23302312.8534   23302324.0864
      1846.0964       1438.5104
  24285227.6944   -3439715.73349  -2577071.64445  24285229.2364   24285238.3574
     -1042.7544       -812.5354
 03  4 11 18  1 52.0000000  0  8G24G10G 5G29G 4G 7G30G13
  21606864.9784  -16688644.33649 -12993241.61647  21606865.0744   21606872.9104
      -693.6454       -540.5044
  20332375.2614  -18776880.00649 -14359280.43647  20332374.5094   20332382.3494
      1160.4754        904.2664
  21944691.3594  -15892773.33449 -11908318.87146  21944690.5474   21944699.0264
       -12.6254         -9.8314
  24115959.5674   -1676354.40149  -1286509.47445  24115959.3914   24115979.4014
      3046.1344       2373.6054
  22845255.1094   -9868311.58949  -7411520.13346  22845256.0894   22845263.9214
     -1776.2204      -1384.0774
  22631060.9774  -10830019.84349  -8430998.96646  22631060.4284   22631071.2444
     -2273.0824      -1771.2344
  23301961.7434   -9062870.66549  -7041868.09445  23301962.0724   23301972.8854
      1845.8224       1438.3014
  24285426.1824   -3438672.78749  -2576258.95645  24285427.8604   24285436.2734
     -1043.1574       -812.8494
 03  4 11 18  1 53.0000000  0  8G24G10G 5G29G 4G 7G30G13
  21606996.9954  -16687950.46549 -12992700.94047  21606996.9274   21607004.9774
      -693.5434       -540.4164
  20332154.5314  -18778039.97049 -14360184.30347  20332153.6904   20332161.6384
      1160.0154        903.9034
  21944693.7964  -15892760.22049 -11908308.65346  21944692.9794   21944701.8494
       -13.0884        -10.1914
  24115379.8674   -1679400.37249  -1288882.95045  24115379.5834   24115399.8534
      3046.1824       2373.6384
  22845593.1154   -9866535.27149  -7410135.99246  22845593.9524   22845601.7164
     -1775.9424      -1383.8344
  22631493.5404  -10827746.40749  -8429227.46046  22631493.5104   22631503.9364
     -2273.3464      -1771.4394
  23301610.7144   -9064716.00149  -7043306.02045  23301611.2474   23301621.0514
      1845.4254       1437.9914
  24285624.6914   -3437629.26649  -2575445.82045  24285626.4024   24285635.1104
     -1043.4724       -813.1004
 03  4 11 18  1 54.0000000  0  8G24G10G 5G29G 4G 7G30G13
  21607128.9774  -16687256.63949 -12992160.29047  21607128.9484   21607137.1424
      -693.8454       -540.6734
  20331933.9074  -18779199.39749 -14361087.74647  20331933.0884   20331940.8884
      1159.1414        903.2244
  21944696.3404  -15892746.60549 -11908298.04346  21944695.2894   21944703.7694
       -13.9044        -10.8384
  24114800.1384   -1682446.50749  -1291256.55145  24114800.0494   24114819.7954
      3046.1664       2373.6274
  22845931.1804   -9864759.07549  -7408751.94346  22845931.9594   22845939.6124
     -1776.1704      -1384.0414
  22631926.2144  -10825472.69349  -8427455.73846  22631925.8714   22631937.5814
     -2273.9034      -1771.8634
  23301259.7414   -9066560.91349  -7044743.61145  23301259.7664   23301270.2064
      1844.6824       1437.4094
  24285823.2834   -3436585.25949  -2574632.30645  24285825.4484   24285833.7244
     -1044.2694       -813.7184
 03  4 11 18  1 55.0000000  0  8G24G10G 5G29G 4G 7G30G13
  21607260.9764  -16686562.72649 -12991619.58247  21607260.8794   21607269.1114
      -693.8054       -540.6244
  20331713.4024  -18780358.16649 -14361990.68147  20331712.5304   20331720.4024
      1158.5814        902.7924
  21944699.0354  -15892732.34849 -11908286.93746  21944698.2274   21944707.0074
       -14.4594        -11.2524
  24114220.3964   -1685492.67149  -1293630.17345  24114220.5774   24114239.8744
      3046.3394       2373.7594
  22846269.2584   -9862982.83849  -7407367.86346  22846270.1784   22846277.0934
     -1776.1234      -1384.0044
  22632358.9714  -10823198.56449  -8425683.69446  22632358.7854   22632370.0164
     -2274.2324      -1772.1074
  23300908.7664   -9068405.26849  -7046180.77445  23300909.0964   23300918.9684
      1844.2104       1437.0454
  24286022.0564   -3435540.67749  -2573818.34345  24286024.0914   24286032.3364
     -1044.7324       -814.0794
 03  4 11 18  1 56.0000000  0  8G24G10G 5G29G 4G 7G30G13
  21607392.9734  -16685868.78949 -12991078.85347  21607392.9754   21607401.4834
      -693.7344       -540.5654
  20331493.0414  -18781516.32949 -14362893.14647  20331492.1094   20331500.1424
      1158.0274        902.3654
  21944701.8184  -15892717.53249 -11908275.39246  21944700.8874   21944709.7444
       -14.9174        -11.6244
  24113640.7154   -1688538.96049  -1296003.89445  24113640.8644   24113660.2504
      3046.4094       2373.8164
  22846607.3364   -9861206.63549  -7405983.81246  22846607.8814   22846615.7464
     -1776.0164      -1383.9174
  22632791.8104  -10820924.07549  -8423911.37646  22632790.9364   22632801.3834
     -2274.5104      -1772.3334
  23300557.8884   -9070249.09049  -7047617.51845  23300558.7714   23300567.6524
      1843.7924       1436.7234
  24286220.9454   -3434495.50549  -2573003.92545  24286223.1304   24286231.1504
     -1045.2484       -814.4764
 03  4 11 18  1 57.0000000  0  8G24G10G 5G29G 4G 7G30G13
  21607525.0084  -16685174.80449 -12990538.08747  21607524.5964   21607533.2134
      -693.8044       -540.6244
  20331272.7734  -18782673.87649 -14363795.13347  20331271.9624   20331279.9674
      1157.4174        901.8834
  21944704.7214  -15892702.10149 -11908263.37146  21944704.1804   21944712.5404
       -15.5154        -12.0904
  24113060.9644   -1691585.32749  -1298377.67745  24113061.1164   24113080.3904
      3046.5274       2373.9054
  22846945.4304   -9859430.44849  -7404599.76546  22846946.1534   22846953.7114
     -1775.9794      -1383.8884
  22633224.7034  -10818649.22549  -8422138.76346  22633223.5904   22633234.0524
     -2274.8544      -1772.6244
  23300207.1234   -9072092.38249  -7049053.84745  23300207.6464   23300216.7834
      1843.2164       1436.2724
  24286419.9074   -3433449.83349  -2572189.11545  24286421.8874   24286430.1224
     -1045.8364       -814.9384
 03  4 11 18  1 58.0000000  0  8G24G10G 5G29G 4G 7G30G13
  21607657.0564  -16684480.81449 -12989997.31547  21607656.8324   21607665.2354
      -693.9654       -540.7564
  20331052.6204  -18783830.83449 -14364696.66047  20331051.8704   20331059.5504
      1156.6954        901.3244
  21944707.7644  -15892686.11849 -11908250.91746  21944707.8574   21944715.6294
       -16.2504        -12.6814
  24112481.2624   -1694631.78749  -1300751.52945  24112481.2634   24112500.9224
      3046.4754       2373.8684
  22847283.4614   -9857654.30749  -7403215.76646  22847283.5614   22847291.7194
     -1776.1124      -1383.9844
  22633657.6704  -10816374.04449  -8420365.90046  22633656.4934   22633667.2804
     -2275.3464      -1772.9854
  23299856.3704   -9073935.16649  -7050489.78245  23299856.8834   23299866.6804
      1842.6284       1435.8144
  24286619.0014   -3432403.58049  -2571373.85045  24286620.7614   24286630.3474
     -1046.4974       -815.4614
 03  4 11 18  1 59.0000000  0  8G24G10G 5G29G 4G 7G30G13
  21607789.1814  -16683786.78349 -12989456.51347  21607789.1624   21607797.2434
      -694.0064       -540.7754
  20330832.6144  -18784987.16949 -14365597.69647  20330831.7474   20330839.5134
      1156.0634        900.8214
  21944710.8544  -15892669.54349 -11908237.99746  21944710.3384   21944718.7464
       -16.8034        -13.0944
  24111901.4544   -1697678.35549  -1303125.46845  24111901.3304   24111920.9284
      3046.7124       2374.0504
  22847621.4984   -9855878.18749  -7401831.78146  22847621.6394   22847628.8064
     -1776.0984      -1383.9524
  22634090.6834  -10814098.48349  -8418592.74046  22634089.1674   22634100.2644
     -2275.7684      -1773.3214
  23299505.7394   -9075777.41849  -7051925.30345  23299505.9814   23299515.7614
      1842.0214       1435.3474
  24286818.2944   -3431356.78849  -2570558.17045  24286819.7694   24286830.1914
     -1047.0504       -815.8814
 03  4 11 18  2  0.0000000  0  8G24G10G 5G29G 4G 7G30G13
  21607921.3034  -16683092.74049 -12988915.69847  21607921.5944   21607929.5794
      -694.1534       -540.8944
  20330612.6854  -18786142.92849 -14366498.28547  20330611.9734   20330619.7424
      1155.3434        900.2644
  21944714.0654  -15892652.40049 -11908224.64246  21944713.4884   21944722.4024
       -17.5144        -13.6344
  24111321.6404   -1700725.04849  -1305499.50345  24111321.3934   24111341.1324
      3046.6524       2374.0064
  22847959.4864   -9854102.11649  -7400447.82846  22847959.3224   22847967.0544
     -1776.1324      -1383.9874
  22634523.7644  -10811822.58149  -8416819.31946  22634522.6834   22634533.5954
     -2276.2474      -1773.6844
  23299155.2084   -9077619.16849  -7053360.43145  23299155.6774   23299164.7904
      1841.4134       1434.8594
  24287017.7624   -3430309.46549  -2569742.07445  24287019.3004   24287029.2754
     -1047.7394       -816.4214
 03  4 11 18  2  1.0000000  0  8G24G10G 5G29G 4G 7G30G13
  21608053.4214  -16682398.59549 -12988374.80747  21608053.5894   21608061.3674
      -694.1124       -540.8684
  20330392.9134  -18787298.00749 -14367398.34347  20330392.0064   20330399.8764
      1154.8134        899.8514
  21944717.3734  -15892634.61149 -11908210.78546  21944717.0334   21944725.8484
       -18.0294        -14.0474
  24110741.8554   -1703771.76449  -1307873.55545  24110741.8234   24110761.1424
      3046.7864       2374.1104
  22848297.4404   -9852326.01149  -7399063.84546  22848297.5974   22848305.2344
     -1776.0494      -1383.9424
  22634956.9694  -10809546.24549  -8415045.55746  22634955.8614   22634967.2024
     -2276.4694      -1773.8694
  23298804.8974   -9079460.35549  -7054795.12045  23298805.5114   23298814.5454
      1840.9974       1434.5354
  24287217.2564   -3429261.53949  -2568925.50645  24287218.9404   24287228.4994
     -1048.1824       -816.7634
 03  4 11 18  2  2.0000000  0  8G24G10G 5G29G 4G 7G30G13
  21608185.5184  -16681704.50049 -12987833.95647  21608185.6934   21608193.6574
      -694.3624       -541.0634
  20330173.2334  -18788452.55549 -14368297.99347  20330172.4144   20330180.3404
      1153.9874        899.2184
  21944720.7914  -15892616.32249 -11908196.53746  21944719.6204   21944729.1764
       -18.8474        -14.6884
  24110162.0264   -1706818.65549  -1310247.74345  24110161.9884   24110181.5334
      3046.6624       2374.0114
  22848635.3774   -9850550.01349  -7397679.95546  22848635.5784   22848643.4374
     -1776.2784      -1384.1174
  22635390.2164  -10807269.62749  -8413271.57546  22635388.7174   22635399.9714
     -2277.0824      -1774.3414
  23298454.6164   -9081301.09349  -7056229.46045  23298455.1834   23298463.7434
      1840.2734       1433.9864
  24287416.9414   -3428213.15449  -2568108.58245  24287418.2684   24287427.9464
     -1048.9274       -817.3514
 03  4 11 18  2  3.0000000  0  8G24G10G 5G29G 4G 7G30G13
  21608317.6144  -16681010.32849 -12987293.03947  21608317.5424   21608325.6744
      -694.5134       -541.1794
  20329953.6784  -18789606.45549 -14369197.13647  20329952.7124   20329960.8014
      1153.2814        898.6624
  21944724.3204  -15892597.40049 -11908181.79446  21944723.9784   21944732.7284
       -19.5164        -15.2024
  24109582.1214   -1709865.62549  -1312621.99645  24109582.1774   24109601.3814
      3046.7384       2374.0724
  22848973.2804   -9848774.00749  -7396296.06246  22848974.0684   22848981.4114
     -1776.3014      -1384.1224
  22635823.4794  -10804992.63849  -8411497.29646  22635822.5774   22635833.2794
     -2277.5294      -1774.7074
  23298104.4554   -9083141.24149  -7057663.33945  23298104.8794   23298113.3934
      1839.5574       1433.4194
  24287616.6044   -3427164.16049  -2567291.18445  24287617.7904   24287628.0544
     -1049.6094       -817.8784
 03  4 11 18  2  4.0000000  0  8G24G10G 5G29G 4G 7G30G13
  21608449.7394  -16680316.07249 -12986752.05747  21608449.3284   21608457.9674
      -694.3394       -541.0444
  20329734.1954  -18790759.68349 -14370095.75347  20329733.1764   20329741.2454
      1152.8504        898.3184
  21944728.0004  -15892577.84749 -11908166.55446  21944727.5554   21944736.5654
       -19.9284        -15.5224
  24109002.3644   -1712912.58249  -1314996.23845  24109002.3854   24109021.5584
      3046.8734       2374.1714
  22849311.1684   -9846997.95849  -7394912.13046  22849311.3024   22849319.4924
     -1776.0904      -1383.9624
  22636256.9114  -10802715.20749  -8409722.67746  22636256.4374   22636266.5914
     -2277.7414      -1774.8634
  23297754.4604   -9084980.83049  -7059096.78245  23297755.0064   23297763.5094
      1839.2494       1433.1744
  24287816.4754   -3426114.57049  -2566473.32245  24287817.0184   24287827.7634
     -1049.8754       -818.0804
 03  4 11 18  2  5.0000000  0  8G24G10G 5G29G 4G 7G30G13
  21608581.8724  -16679621.74849 -12986211.02747  21608581.4404   21608590.1244
      -693.9574       -540.7394
  20329514.8694  -18791912.26849 -14370993.87147  20329513.9004   20329522.0014
      1152.6704        898.1864
  21944731.8214  -15892557.67149 -11908150.83446  21944731.8594   21944740.2144
       -20.0994        -15.6534
  24108422.4434   -1715959.61149  -1317370.53645  24108422.4544   24108441.3534
      3047.4644       2374.6394
  22849649.1644   -9845221.90749  -7393528.18846  22849650.2354   22849657.2874
     -1775.6284      -1383.6044
  22636690.3724  -10800437.36849  -8407947.74346  22636690.0574   22636700.3124
     -2277.6764      -1774.8034
  23297404.5164   -9086819.87949  -7060529.80545  23297405.4394   23297413.4614
      1839.1784       1433.1284
  24288016.3374   -3425064.38149  -2565654.99245  24288016.6154   24288027.2814
     -1050.0714       -818.2424
 03  4 11 18  2  6.0000000  0  8G24G10G 5G29G 4G 7G30G13
  21608713.9674  -16678927.49349 -12985670.05347  21608713.9924   21608722.0484
      -694.2894       -540.9954
  20329295.6604  -18793064.35249 -14371891.59747  20329294.7934   20329302.7454
      1151.7554        897.4744
  21944735.7344  -15892537.02249 -11908134.75046  21944735.4894   21944743.8044
       -20.9594        -16.3274
  24107842.5224   -1719006.86249  -1319745.00945  24107842.8834   24107861.5044
      3047.2944       2374.5074
  22849987.1484   -9843446.03049  -7392144.39146  22849987.1384   22849995.3874
     -1775.8874      -1383.8124
  22637123.8994  -10798159.28049  -8406172.61346  22637123.1104   22637134.0414
     -2278.3264      -1775.2954
  23297054.6074   -9088658.47149  -7061962.47345  23297055.6394   23297063.9644
      1838.3334       1432.4674
  24288216.3874   -3424013.76049  -2564836.32345  24288217.2894   24288227.3304
     -1050.8774       -818.8714
 03  4 11 18  2  7.0000000  0  8G24G10G 5G29G 4G 7G30G13
  21608846.0684  -16678233.20249 -12985129.05247  21608845.8354   21608854.0994
      -694.5414       -541.1894
  20329076.5424  -18794215.82149 -14372788.84847  20329075.6204   20329083.4904
      1150.9524        896.8464
  21944739.8394  -15892515.78249 -11908118.20346  21944739.9734   21944748.2344
       -21.7654        -16.9564
  24107262.5684   -1722054.19249  -1322119.53745  24107263.3084   24107281.4584
      3047.1554       2374.3904
  22850325.0324   -9841670.13049  -7390760.57446  22850324.9254   22850332.9274
     -1776.0784      -1383.9574
  22637557.4604  -10795880.82649  -8404397.20746  22637556.7104   22637567.7674
     -2278.9184      -1775.7904
  23296704.8554   -9090496.55149  -7063394.74345  23296705.1094   23296714.3054
      1837.6364       1431.9194
  24288416.4424   -3422962.58349  -2564017.22245  24288418.0274   24288427.4904
     -1051.6574       -819.4764
 03  4 11 18  2  8.0000000  0  8G24G10G 5G29G 4G 7G30G13
  21608978.2324  -16677538.81849 -12984587.97047  21608978.2244   21608986.6024
      -694.4194       -541.1174
  20328857.5554  -18795366.61649 -14373685.56547  20328856.5354   20328864.3614
      1150.4484        896.4424
  21944744.0324  -15892493.89949 -11908101.14946  21944743.8894   21944752.0074
       -22.2304        -17.3344
  24106682.6074   -1725101.55249  -1324494.09345  24106683.6004   24106701.4404
      3047.2984       2374.5104
  22850662.9724   -9839894.19949  -7389376.73746  22850663.2174   22850671.5154
     -1775.9314      -1383.8434
  22637991.1174  -10793601.96349  -8402621.47546  22637990.1504   22638001.3084
     -2279.0784      -1775.9174
  23296355.1164   -9092334.05649  -7064826.56345  23296355.2624   23296364.5784
      1837.2824       1431.6444
  24288616.6124   -3421910.80749  -2563197.65745  24288617.5804   24288627.9494
     -1052.0694       -819.7874
 03  4 11 18  2  9.0000000  0  8G24G10G 5G29G 4G 7G30G13
  21609110.3554  -16676844.40349 -12984046.86547  21609109.9884   21609118.5514
      -694.2884       -541.0034
  20328638.6804  -18796516.80849 -14374581.82047  20328637.7414   20328645.5944
      1150.0124        896.1154
  21944748.3474  -15892471.44049 -11908083.64846  21944748.2184   21944756.6434
       -22.6464        -17.6334
  24106102.6104   -1728149.00049  -1326868.71945  24106103.6294   24106121.6674
      3047.6874       2374.8114
  22851000.9094   -9838118.30549  -7387992.92846  22851001.6414   22851008.4664
     -1775.7614      -1383.7144
  22638424.8154  -10791322.74049  -8400845.46046  22638423.6034   22638434.6054
     -2279.2984      -1776.0844
  23296005.5694   -9094171.04349  -7066257.98045  23296005.9404   23296015.0644
      1836.8514       1431.3194
  24288816.9274   -3420858.48549  -2562377.66845  24288817.3804   24288827.9904
     -1052.4674       -820.1014
 03  4 11 18  2 10.0000000  0  8G24G10G 5G29G 4G 7G30G13
  21609242.5234  -16676149.96349 -12983505.74647  21609242.2094   21609250.8764
      -694.3224       -541.0284
  20328419.9394  -18797666.40449 -14375477.60747  20328418.9564   20328426.8204
      1149.4274        895.6544
  21944752.7924  -15892448.40849 -11908065.70946  21944752.5994   21944760.8274
       -23.1784        -18.0564
  24105522.6244   -1731196.56549  -1329243.43545  24105523.6464   24105541.6324
      3047.7334       2374.8444
  22851338.8294   -9836342.46649  -7386609.15246  22851338.9274   22851346.6774
     -1775.6834      -1383.6444
  22638858.6474  -10789043.16149  -8399069.16746  22638857.9624   22638869.3314
     -2279.6134      -1776.3244
  23295656.0754   -9096007.52149  -7067689.00045  23295656.4384   23295665.6494
      1836.3634       1430.9244
  24289017.2744   -3419805.60949  -2561557.24645  24289017.8034   24289028.5954
     -1053.0204       -820.5304
 03  4 11 18  2 11.0000000  0  8G24G10G 5G29G 4G 7G30G13
  21609374.6704  -16675455.51849 -12982964.62447  21609374.5384   21609382.7764
      -694.5134       -541.1744
  20328201.2864  -18798815.40749 -14376372.93447  20328200.2644   20328208.1564
      1148.6274        895.0334
  21944757.3824  -15892424.81649 -11908047.32346  21944756.9934   21944765.0224
       -23.9474        -18.6704
  24104942.6784   -1734244.24349  -1331618.23845  24104943.7544   24104961.6274
      3047.6564       2374.7864
  22851676.7284   -9834566.65949  -7385225.40946  22851677.1204   22851684.3384
     -1775.8244      -1383.7494
  22639292.4864  -10786763.24349  -8397292.61046  22639291.1554   22639303.3954
     -2280.2194      -1776.7834
  23295306.5924   -9097843.49749  -7069119.63145  23295307.2114   23295316.2534
      1835.6454       1430.3774
  24289217.8444   -3418752.22849  -2560736.42745  24289218.2864   24289228.3084
     -1053.7494       -821.1054
 03  4 11 18  2 12.0000000  0  8G24G10G 5G29G 4G 7G30G13
  21609506.8604  -16674761.01349 -12982423.45247  21609506.5004   21609514.4164
      -694.4354       -541.1214
  20327982.7544  -18799963.77849 -14377267.76847  20327981.7834   20327989.4764
      1148.1374        894.6534
  21944762.0724  -15892400.61449 -11908028.46846  21944761.8334   21944769.8934
       -24.4314        -19.0374
  24104362.6644   -1737291.99249  -1333993.09845  24104363.6774   24104381.7644
      3047.8284       2374.9194
  22852014.6104   -9832790.84749  -7383841.66346  22852015.1964   22852021.9674
     -1775.7444      -1383.6884
  22639726.3564  -10784482.92949  -8395515.75546  22639724.7824   22639737.5224
     -2280.4674      -1776.9744
  23294957.3414   -9099678.90449  -7070549.81845  23294957.8184   23294967.5654
      1835.2374       1430.0494
  24289418.5504   -3417698.25649  -2559915.15245  24289418.6694   24289429.5224
     -1054.1194       -821.3964
 03  4 11 18  2 13.0000000  0  8G24G10G 5G29G 4G 7G30G13
  21609639.0424  -16674066.47649 -12981882.25147  21609638.9174   21609646.9814
      -694.5624       -541.2254
  20327764.3384  -18801111.53949 -14378162.12647  20327763.3544   20327771.0824
      1147.4544        894.1154
  21944766.8444  -15892375.83649 -11908009.15546  21944766.6274   21944774.8334
       -25.0844        -19.5534
  24103782.7594   -1740339.83249  -1336368.02845  24103783.6464   24103801.8914
      3047.8084       2374.9034
  22852352.5504   -9831015.09249  -7382457.95646  22852354.0594   22852361.0634
     -1775.7444      -1383.6954
  22640160.3184  -10782202.25949  -8393738.61646  22640158.4524   22640170.5254
     -2280.8784      -1777.2894
  23294608.0784   -9101513.81549  -7071979.62045  23294608.4864   23294618.4624
      1834.6724       1429.6114
  24289619.2934   -3416643.75049  -2559093.46045  24289619.3434   24289629.7144
     -1054.7354       -821.8694
 03  4 11 18  2 14.0000000  0  8G24G10G 5G29G 4G 7G30G13
  21609771.2444  -16673371.85149 -12981340.98447  21609771.0884   21609779.3254
      -694.3324       -541.0404
  20327546.0604  -18802258.65149 -14379055.97647  20327545.0394   20327553.2504
      1147.1104        893.8434
  21944771.7374  -15892350.42149 -11907989.35546  21944771.2444   21944779.9394
       -25.4064        -19.7904
  24103202.7364   -1743387.71449  -1338742.99145  24103203.7324   24103221.4044
      3048.1944       2375.2064
  22852690.5004   -9829239.30049  -7381074.23146  22852690.9764   22852699.0184
     -1775.5034      -1383.5124
  22640594.3354  -10779921.18449  -8391961.16146  22640593.2754   22640604.6964
     -2281.0114      -1777.4104
  23294259.0544   -9103348.13849  -7073408.96345  23294259.4024   23294269.6364
      1834.4024       1429.4064
  24289820.1434   -3415588.63249  -2558271.28945  24289820.0964   24289829.8764
     -1055.0734       -822.1364
 03  4 11 18  2 15.0000000  0  8G24G10G 5G29G 4G 7G30G13
  21609903.3934  -16672677.29549 -12980799.77247  21609903.1704   21609911.5244
      -694.6004       -541.2434
  20327327.8864  -18803405.23049 -14379949.41447  20327326.9424   20327335.1774
      1146.2614        893.1954
  21944776.6944  -15892324.50249 -11907969.16346  21944776.2934   21944784.5204
       -26.2434        -20.4344
  24102622.7914   -1746435.80449  -1341118.11545  24102623.3744   24102641.3114
      3048.0724       2375.1114
  22853028.4654   -9827463.64649  -7379690.61246  22853028.7554   22853037.0904
     -1775.6564      -1383.6194
  22641028.4334  -10777639.83449  -8390183.48846  22641027.8014   22641038.6284
     -2281.6024      -1777.8604
  23293909.9914   -9105182.02949  -7074837.96445  23293910.6394   23293920.3084
      1833.6504       1428.8094
  24290021.0524   -3414533.07049  -2557448.77345  24290020.7734   24290030.7094
     -1055.8664       -822.7564
 03  4 11 18  2 16.0000000  0  8G24G10G 5G29G 4G 7G30G13
  21610035.6034  -16671982.63149 -12980258.47947  21610035.5894   21610043.8404
      -694.4854       -541.1504
  20327109.8414  -18804551.14549 -14380842.33547  20327108.7994   20327116.9264
      1145.7924        892.8294
  21944781.7814  -15892297.95249 -11907948.47746  21944780.9754   21944789.3294
       -26.6634        -20.7774
  24102042.8254   -1749483.91049  -1343493.25145  24102043.4434   24102061.1084
      3048.3464       2375.3214
  22853366.4404   -9825687.93749  -7378306.94546  22853366.9994   22853374.0784
     -1775.5114      -1383.5084
  22641462.6624  -10775358.06549  -8388405.49746  22641461.2104   22641472.9934
     -2281.7914      -1778.0054
  23293561.0134   -9107015.33549  -7076266.51345  23293561.7704   23293571.4854
      1833.1984       1428.4764
  24290222.0794   -3413476.86049  -2556625.75345  24290221.5594   24290231.4234
     -1056.3134       -823.0944
 03  4 11 18  2 17.0000000  0  8G24G10G 5G29G 4G 7G30G13
  21610167.7914  -16671287.98549 -12979717.19947  21610167.5434   21610175.8074
      -694.8724       -541.4584
  20326891.9074  -18805696.49849 -14381734.81647  20326891.0414   20326898.7924
      1144.8294        892.0704
  21944786.9284  -15892270.87649 -11907927.37946  21944786.2844   21944794.2134
       -27.5874        -21.4954
  24101462.7004   -1752532.14549  -1345868.48745  24101463.1824   24101481.1234
      3048.0854       2375.1214
  22853704.4734   -9823912.32649  -7376923.34946  22853704.7744   22853712.9984
     -1775.8064      -1383.7544
  22641896.9014  -10773075.96549  -8386627.23846  22641895.5704   22641907.2294
     -2282.5604      -1778.6204
  23293212.1254   -9108848.16349  -7077694.69145  23293213.0834   23293222.5834
      1832.3744       1427.8204
  24290423.2064   -3412420.18149  -2555802.36745  24290422.1054   24290432.1984
     -1057.2554       -823.8364
 03  4 11 18  2 18.0000000  0  8G24G10G 5G29G 4G 7G30G13
  21610299.9744  -16670593.28449 -12979175.87447  21610299.4924   21610308.2384
      -694.8904       -541.4654
  20326674.0984  -18806841.22149 -14382626.80947  20326673.0674   20326680.8504
      1144.2614        891.6314
  21944792.2164  -15892243.17849 -11907905.79846  21944791.3184   21944799.9984
       -28.1314        -21.9244
  24100882.6584   -1755580.42549  -1348243.76145  24100882.7574   24100901.0344
      3048.1714       2375.1904
  22854042.4654   -9822136.70949  -7375539.75046  22854042.0084   22854050.0144
     -1775.8074      -1383.7414
  22642331.1924  -10770793.49649  -8384848.69846  22642329.7804   22642342.2094
     -2282.8614      -1778.8404
  23292863.4334   -9110680.45049  -7079122.44645  23292864.0324   23292873.3754
      1831.8854       1427.4484
  24290624.4144   -3411362.92449  -2554978.53245  24290622.9034   24290633.6714
     -1057.7044       -824.1864
 03  4 11 18  2 19.0000000  0  8G24G10G 5G29G 4G 7G30G13
  21610432.2214  -16669898.52049 -12978634.50047  21610432.4184   21610440.3444
      -694.7974       -541.3934
  20326456.4054  -18807985.29349 -14383518.28847  20326455.3774   20326463.1204
      1143.7274        891.2074
  21944797.6394  -15892214.85549 -11907883.72946  21944796.7044   21944805.6624
       -28.6524        -22.3384
  24100302.6514   -1758628.80049  -1350619.10845  24100302.4644   24100321.1654
      3048.3784       2375.3464
  22854380.4604   -9820361.07649  -7374156.14446  22854380.4094   22854387.7054
     -1775.6454      -1383.6264
  22642765.5684  -10768510.62949  -8383069.84746  22642764.4894   22642776.8574
     -2283.0764      -1779.0164
  23292514.7394   -9112512.17949  -7080549.76945  23292515.2514   23292524.6474
      1831.4614       1427.1084
  24290825.7764   -3410305.08149  -2554154.24045  24290824.1104   24290835.0344
     -1058.1724       -824.5454
 03  4 11 18  2 20.0000000  0  8G24G10G 5G29G 4G 7G30G13
  21610564.4434  -16669203.75249 -12978093.12047  21610564.4574   21610572.3674
      -694.9394       -541.5144
  20326238.8024  -18809128.79649 -14384409.32847  20326237.9604   20326245.6294
      1143.0364        890.6824
  21944803.1854  -15892186.00649 -11907861.25046  21944802.3884   21944810.7964
       -29.3154        -22.8354
  24099722.5704   -1761677.28249  -1352994.53745  24099722.1534   24099741.2674
      3048.3894       2375.3534
  22854718.4674   -9818585.52349  -7372772.59646  22854718.5254   22854725.9284
     -1775.6844      -1383.6654
  22643200.0374  -10766227.43149  -8381290.73446  22643199.3074   22643211.4834
     -2283.5374      -1779.3924
  23292166.3184   -9114343.41849  -7081976.70945  23292167.2474   23292176.1954
      1830.8614       1426.6514
  24291027.1374   -3409246.74549  -2553329.56345  24291025.9264   24291036.3834
     -1058.7844       -825.0234
 03  4 11 18  2 21.0000000  0  8G24G10G 5G29G 4G 7G30G13
  21610696.6864  -16668508.94249 -12977551.71047  21610696.6744   21610704.7464
      -695.0324       -541.5774
  20326021.3244  -18810271.67649 -14385299.88547  20326020.4564   20326028.1264
      1142.3654        890.1504
  21944808.8664  -15892156.55049 -11907838.30346  21944807.9804   21944816.7694
       -29.9444        -23.3214
  24099142.3734   -1764725.87149  -1355370.04945  24099142.1334   24099161.1834
      3048.4364       2375.3944
  22855056.4024   -9816809.97649  -7371389.05246  22855055.9884   22855063.5434
     -1775.7184      -1383.6704
  22643634.5944  -10763943.85949  -8379511.33646  22643634.3804   22643646.0654
     -2283.9794      -1779.7314
  23291817.9774   -9116174.12149  -7083403.23245  23291819.3174   23291828.2794
      1830.2104       1426.1334
  24291228.6554   -3408187.81949  -2552504.42745  24291227.1604   24291237.8084
     -1059.4524       -825.5464
 03  4 11 18  2 22.0000000  0  8G24G10G 5G29G 4G 7G30G13
  21610828.9554  -16667814.01249 -12977010.21247  21610828.4754   21610836.8664
      -694.5664       -541.2134
  20325803.9604  -18811413.85849 -14386189.90147  20325802.9214   20325810.9804
      1142.2484        890.0654
  21944814.6414  -15892126.43449 -11907814.83246  21944813.7334   21944822.2034
       -30.0374        -23.4044
  24098562.2454   -1767774.45149  -1357745.55445  24098562.2524   24098581.0834
      3048.9964       2375.8284
  22855394.3174   -9815034.37949  -7370005.47746  22855393.8604   22855401.7034
     -1775.1984      -1383.2424
  22644069.2194  -10761659.84549  -8377731.59446  22644068.4084   22644080.3514
     -2283.8544      -1779.6274
  23291469.7424   -9118004.20649  -7084829.27345  23291470.3474   23291480.1174
      1830.2184       1426.1524
  24291430.3374   -3407128.26849  -2551678.80445  24291429.0844   24291439.3974
     -1059.4324       -825.5304
 03  4 11 18  2 23.0000000  0  8G24G10G 5G29G 4G 7G30G13
  21610961.1924  -16667119.18349 -12976468.78747  21610960.9124   21610969.4144
      -695.0764       -541.6184
  20325586.6994  -18812555.56449 -14387079.53747  20325585.5624   20325593.5164
      1141.1664        889.2184
  21944820.4694  -15892095.85949 -11907791.00846  21944819.9104   21944827.3934
       -31.0924        -24.2204
  24097982.0204   -1770823.29749  -1360121.26545  24097982.0654   24098000.7464
      3048.6934       2375.5924
  22855732.1554   -9813258.93649  -7368622.01346  22855732.2124   22855739.6424
     -1775.6394      -1383.6074
  22644503.9484  -10759375.60549  -8375951.67646  22644503.5454   22644514.7764
     -2284.6684      -1780.2584
  23291121.5344   -9119833.91549  -7086255.01845  23291122.6264   23291131.8594
      1829.2474       1425.3824
  24291632.1654   -3406068.28749  -2550852.84345  24291631.2534   24291641.5004
     -1060.5074       -826.3674
 03  4 11 18  2 24.0000000  0  8G24G10G 5G29G 4G 7G30G13
  21611093.4864  -16666424.27349 -12975927.29447  21611092.8844   21611101.4434
      -695.1464       -541.6804
  20325369.5534  -18813696.62049 -14387968.66747  20325368.6844   20325376.3624
      1140.5394        888.7284
  21944826.4504  -15892064.66449 -11907766.69646  21944825.6724   21944834.2694
       -31.6954        -24.7124
  24097401.8444   -1773872.15749  -1362496.98845  24097401.9194   24097420.5274
      3048.6784       2375.5784
  22856070.0054   -9811483.47049  -7367238.53146  22856069.8884   22856077.2654
     -1775.6694      -1383.6664
  22644938.6914  -10757090.96949  -8374171.44346  22644939.5224   22644949.5704
     -2285.0634      -1780.5624
  23290773.4314   -9121663.04149  -7087680.31545  23290774.3574   23290784.0564
      1828.7294       1424.9944
  24291834.0744   -3405007.74149  -2550026.44045  24291833.3094   24291843.7354
     -1061.0954       -826.8314
 03  4 11 18  2 25.0000000  0  8G24G10G 5G29G 4G 7G30G13
  21611225.7494  -16665729.31049 -12975385.76347  21611225.1024   21611233.7854
      -695.0814       -541.6224
  20325152.5224  -18814837.03549 -14388857.30347  20325151.5674   20325159.5684
      1140.0144        888.3294
  21944832.4874  -15892032.84649 -11907741.90346  21944831.6304   21944840.5154
       -32.2094        -25.0834
  24096821.7234   -1776921.07249  -1364872.75445  24096821.8554   24096840.3894
      3048.8624       2375.7244
  22856407.8324   -9809708.02649  -7365855.06946  22856407.5894   22856415.2524
     -1775.5214      -1383.5184
  22645373.5054  -10754805.93149  -8372390.90446  22645373.4104   22645383.8614
     -2285.3484      -1780.7524
  23290425.5214   -9123491.62049  -7089105.18145  23290426.4114   23290436.0624
      1828.2754       1424.6264
  24292036.0904   -3403946.59349  -2549199.57345  24292035.7894   24292046.0964
     -1061.5154       -827.1484
 03  4 11 18  2 26.0000000  0  8G24G10G 5G29G 4G 7G30G13
  21611358.0444  -16665034.30549 -12974844.20447  21611357.7334   21611365.9604
      -695.0514       -541.5934
  20324935.6194  -18815976.83249 -14389745.45647  20324934.7424   20324942.5984
      1139.4564        887.8864
  21944838.6074  -15892000.44149 -11907716.65446  21944837.7014   21944846.1074
       -32.7644        -25.5264
  24096241.5514   -1779970.10649  -1367248.61245  24096241.4454   24096260.2184
      3049.0004       2375.8344
  22856745.7064   -9807932.57949  -7364471.60446  22856745.1224   22856754.3664
     -1775.4374      -1383.4514
  22645808.3894  -10752520.52649  -8370610.07846  22645807.9514   22645818.9714
     -2285.6744      -1781.0334
  23290077.5854   -9125319.66249  -7090529.63245  23290078.5654   23290087.5054
      1827.7554       1424.2324
  24292238.1904   -3402884.91449  -2548372.29145  24292238.0544   24292248.2314
     -1062.0464       -827.5714
 03  4 11 18  2 27.0000000  0  8G24G10G 5G29G 4G 7G30G13
  21611490.3214  -16664339.25949 -12974302.61147  21611489.5944   21611498.0854
      -694.9974       -541.5554
  20324718.8374  -18817116.01049 -14390633.13047  20324717.9304   20324725.5124
      1138.9594        887.5044
  21944844.8024  -15891967.44849 -11907690.94946  21944843.8934   21944852.1864
       -33.1994        -25.8634
  24095661.3414   -1783019.19549  -1369624.51545  24095661.1874   24095680.0764
      3049.1634       2375.9604
  22857083.5844   -9806157.16449  -7363088.17146  22857083.1774   22857091.2264
     -1775.3464      -1383.3824
  22646243.3394  -10750234.74549  -8368828.95446  22646242.4414   22646254.0494
     -2285.9394      -1781.2504
  23289729.8984   -9127147.16049  -7091953.65645  23289730.4664   23289739.3114
      1827.3334       1423.8984
  24292440.3364   -3401822.65449  -2547544.55445  24292439.9614   24292450.5064
     -1062.4784       -827.9074
 03  4 11 18  2 28.0000000  0  8G24G10G 5G29G 4G 7G30G13
  21611622.6094  -16663644.23549 -12973761.03647  21611622.1504   21611630.2774
      -695.2154       -541.7314
  20324502.1564  -18818254.63149 -14391520.36547  20324501.1664   20324508.8474
      1138.1434        886.8604
  21944851.1424  -15891933.91349 -11907664.82146  21944850.2794   21944858.7174
       -34.0044        -26.4814
  24095081.1224   -1786068.42549  -1372000.52545  24095081.0994   24095099.9664
      3049.1424       2375.9414
  22857421.4174   -9804381.82749  -7361704.79246  22857421.4204   22857428.4854
     -1775.5064      -1383.5094
  22646678.3784  -10747948.66149  -8367047.59546  22646677.9864   22646688.7444
     -2286.4804      -1781.6654
  23289382.2294   -9128974.21949  -7093377.33945  23289382.8794   23289391.5714
      1826.6894       1423.3994
  24292642.5854   -3400759.90649  -2546716.43945  24292642.5094   24292652.3474
     -1063.2134       -828.4774
 03  4 11 18  2 29.0000000  0  8G24G10G 5G29G 4G 7G30G13
  21611754.8694  -16662949.15849 -12973219.41947  21611754.2974   21611762.6494
      -695.3124       -541.8054
  20324285.5654  -18819392.62449 -14392407.11247  20324284.4874   20324292.6564
      1137.4784        886.3454
  21944857.6144  -15891899.78549 -11907638.22746  21944856.6404   21944865.6704
       -34.6444        -26.9974
  24094500.9074   -1789117.73449  -1374376.59845  24094500.7414   24094519.5564
      3049.1824       2375.9744
  22857759.1924   -9802606.49249  -7360321.41146  22857758.9164   22857767.4324
     -1775.5414      -1383.5544
  22647113.4184  -10745662.19049  -8365265.93146  22647113.1654   22647123.2254
     -2286.9054      -1782.0094
  23289034.6874   -9130800.72749  -7094800.59545  23289035.4104   23289044.4164
      1826.0784       1422.9224
  24292844.9514   -3399696.59949  -2545887.88945  24292844.9344   24292855.1694
     -1063.7924       -828.9324
 03  4 11 18  2 30.0000000  0  8G24G10G 5G29G 4G 7G30G13
  21611887.1474  -16662253.98149 -12972677.72147  21611886.6684   21611895.0904
      -695.0774       -541.6184
  20324069.1354  -18820529.94449 -14393293.33047  20324068.1964   20324076.1354
      1137.1394        886.0774
  21944864.2224  -15891865.00649 -11907611.13146  21944863.4214   21944872.1834
       -34.9594        -27.2314
  24093920.7754   -1792167.05049  -1376752.67845  24093920.7204   24093939.0384
      3049.4674       2376.1964
  22858097.0064   -9800831.12649  -7358938.01946  22858096.0364   22858105.1184
     -1775.2354      -1383.2874
  22647548.5834  -10743375.28349  -8363483.93146  22647548.3274   22647558.9954
     -2286.9934      -1782.0674
  23288687.2754   -9132626.62549  -7096223.37245  23288688.1984   23288697.3464
      1825.7584       1422.6684
  24293047.5004   -3398632.66649  -2545058.84945  24293047.6594   24293057.4754
     -1064.1034       -829.1754
 03  4 11 18  2 31.0000000  0  8G24G10G 5G29G 4G 7G30G13
  21612019.4244  -16661558.83449 -12972136.05247  21612018.8984   21612027.1604
      -695.1634       -541.6774
  20323852.7864  -18821666.71149 -14394179.12447  20323851.9604   20323859.7004
      1136.4684        885.5674
  21944870.9144  -15891829.71349 -11907583.63246  21944870.1054   21944878.4634
       -35.5924        -27.7384
  24093340.4494   -1795216.56149  -1379128.90845  24093340.4564   24093358.3634
      3049.6114       2376.3074
  22858434.8214   -9799055.85849  -7357554.70146  22858434.1704   22858442.9534
     -1775.2214      -1383.2624
  22647983.8214  -10741088.09849  -8361701.70846  22647983.4564   22647994.5274
     -2287.4144      -1782.3944
  23288339.9724   -9134452.09449  -7097645.81745  23288340.8554   23288350.1394
      1825.2354       1422.2614
  24293250.1384   -3397568.24649  -2544229.43145  24293250.3064   24293260.1094
     -1064.6384       -829.5874
 03  4 11 18  2 32.0000000  0  8G24G10G 5G29G 4G 7G30G13
  21612151.7304  -16660863.63649 -12971594.34147  21612151.2434   21612159.7134
      -695.1024       -541.6404
  20323636.5714  -18822802.84449 -14395064.42347  20323635.6654   20323643.4974
      1135.9354        885.1474
  21944877.7324  -15891793.79649 -11907555.64946  21944877.2094   21944884.9484
       -36.1104        -28.1414
  24092760.2054   -1798266.10049  -1381505.16045  24092760.0894   24092777.9794
      3049.7384       2376.4094
  22858772.5834   -9797280.59549  -7356171.38446  22858771.6134   22858779.4514
     -1775.1734      -1383.2404
  22648419.1414  -10738800.52649  -8359919.20146  22648419.4354   22648430.3684
     -2287.6624      -1782.5724
  23287992.6234   -9136276.99949  -7099067.82545  23287993.5054   23288003.2324
      1824.6844       1421.8334
  24293452.8434   -3396503.26149  -2543399.57345  24293453.0024   24293462.7154
     -1065.2244       -830.0414
 03  4 11 18  2 33.0000000  0  8G24G10G 5G29G 4G 7G30G13
  21612283.9814  -16660168.41949 -12971052.61547  21612283.6134   21612291.7734
      -695.2664       -541.7634
  20323420.4744  -18823938.38849 -14395949.26247  20323419.5764   20323427.3764
      1135.2124        884.5784
  21944884.6354  -15891757.34749 -11907527.24246  21944884.0534   21944892.0544
       -36.7704        -28.6624
  24092180.0484   -1801315.74449  -1383881.49445  24092179.7654   24092197.8514
      3049.6874       2376.3664
  22859110.3084   -9795505.36649  -7354788.09446  22859109.0084   22859117.8134
     -1775.2744      -1383.3064
  22648854.5344  -10736512.62049  -8358136.42246  22648854.3464   22648865.0964
     -2288.1294      -1782.9674
  23287645.4404   -9138101.39549  -7100489.43345  23287645.4904   23287656.3504
      1824.1684       1421.4244
  24293655.5654   -3395437.74749  -2542569.30445  24293655.8284   24293666.0864
     -1065.8134       -830.5014
 03  4 11 18  2 34.0000000  0  8G24G10G 5G29G 4G 7G30G13
  21612416.2604  -16659473.19049 -12970510.87647  21612415.8184   21612424.1474
      -695.4814       -541.9384
  20323204.4934  -18825073.34249 -14396833.63847  20323203.6584   20323211.2524
      1134.4164        883.9564
  21944891.6404  -15891720.30249 -11907498.36746  21944890.9364   21944899.3484
       -37.5624        -29.2904
  24091599.8104   -1804365.49149  -1386257.90645  24091599.5174   24091617.4584
      3049.5274       2376.2424
  22859447.9954   -9793730.19349  -7353404.82946  22859448.0184   22859455.7454
     -1775.3664      -1383.4244
  22649290.0404  -10734224.35449  -8356353.35746  22649289.7424   22649300.5124
     -2288.7094      -1783.4114
  23287298.3314   -9139925.27849  -7101910.64045  23287297.7244   23287308.6624
      1823.3934       1420.8254
  24293858.4234   -3394371.69949  -2541738.61845  24293857.8804   24293868.7364
     -1066.5494       -831.0784
 03  4 11 18  2 35.0000000  0  8G24G10G 5G29G 4G 7G30G13
  21612548.5884  -16658777.85349 -12969969.05647  21612548.3234   21612556.1724
      -695.2614       -541.7614
  20322988.6404  -18826207.60549 -14397717.47747  20322987.8484   20322995.3044
      1134.0504        883.6784
  21944898.7514  -15891682.62449 -11907469.01446  21944898.0514   21944906.5054
       -37.9014        -29.5334
  24091019.5074   -1807415.28249  -1388634.35645  24091019.2824   24091037.3064
      3049.9494       2376.5764
  22859785.6814   -9791954.96049  -7352021.52746  22859786.1744   22859792.9974
     -1775.1334      -1383.2054
  22649725.5864  -10731935.68449  -8354569.98546  22649724.3714   22649737.1154
     -2288.8034      -1783.4714
  23286951.3674   -9141748.58949  -7103331.40345  23286951.1574   23286961.0744
      1823.1284       1420.6204
  24294061.3614   -3393305.03849  -2540907.45145  24294061.1294   24294071.3124
     -1066.8504       -831.3154
 03  4 11 18  2 36.0000000  0  8G24G10G 5G29G 4G 7G30G13
  21612680.9194  -16658082.52649 -12969427.24547  21612680.6034   21612688.8974
      -695.3434       -541.8294
  20322772.9044  -18827341.30149 -14398600.87647  20322771.9654   20322779.8474
      1133.3734        883.1454
  21944905.9624  -15891644.39549 -11907439.23146  21944904.9834   21944913.7674
       -38.5224        -30.0134
  24090439.1214   -1810465.20149  -1391010.90545  24090439.0744   24090457.3174
      3049.9134       2376.5464
  22860123.3534   -9790179.81149  -7350638.30046  22860123.0364   22860131.2604
     -1775.1634      -1383.2364
  22650161.1324  -10729646.67749  -8352786.34846  22650160.8564   22650172.2544
     -2289.1594      -1783.7524
  23286604.4364   -9143571.38149  -7104751.75745  23286604.2294   23286614.0044
      1822.5374       1420.1494
  24294264.4334   -3392237.84649  -2540075.87445  24294264.1814   24294274.0934
     -1067.4674       -831.7934
 03  4 11 18  2 37.0000000  0  8G24G10G 5G29G 4G 7G30G13
  21612813.2484  -16657387.16149 -12968885.39747  21612813.1374   21612820.8474
      -695.3824       -541.8594
  20322557.2694  -18828474.39149 -14399483.80347  20322556.2834   20322564.1234
      1132.7964        882.7034
  21944913.3104  -15891605.57349 -11907408.98246  21944912.6254   21944921.0844
       -39.1244        -30.4814
  24089858.7274   -1813515.21949  -1393387.53145  24089858.9454   24089876.9834
      3050.0424       2376.6424
  22860461.0294   -9788404.67449  -7349255.08046  22860461.0674   22860469.5894
     -1775.1234      -1383.2054
  22650596.7964  -10727357.30149  -8351002.42046  22650596.6574   22650607.4004
     -2289.5784      -1784.0824
  23286257.7144   -9145393.65749  -7106171.71045  23286257.7014   23286267.2474
      1822.0074       1419.7484
  24294467.6494   -3391170.10649  -2539243.86745  24294467.5824   24294477.1724
     -1068.0034       -832.2144
 03  4 11 18  2 38.0000000  0  8G24G10G 5G29G 4G 7G30G13
  21612945.5764  -16656691.81749 -12968343.57447  21612945.2574   21612953.6454
      -695.8054       -542.1864
  20322341.7314  -18829606.92149 -14400366.29447  20322340.7684   20322348.6134
      1131.7784        881.9054
  21944920.7274  -15891566.24049 -11907378.33346  21944920.5374   21944928.2954
       -40.0774        -31.2414
  24089278.3724   -1816565.38849  -1395764.27345  24089278.5204   24089296.6824
      3049.7284       2376.4004
  22860798.6934   -9786629.62749  -7347871.93646  22860798.3044   22860806.8414
     -1775.5184      -1383.5044
  22651032.4754  -10725067.61549  -8349218.25446  22651031.8314   22651043.1234
     -2290.3734      -1784.6964
  23285911.0354   -9147215.48649  -7107591.31345  23285911.2764   23285920.8194
      1821.1134       1419.0424
  24294670.8744   -3390101.87849  -2538411.48645  24294670.6644   24294681.0224
     -1068.9334       -832.9324
 03  4 11 18  2 39.0000000  0  8G24G10G 5G29G 4G 7G30G13
  21613077.8974  -16655996.37649 -12967801.67247  21613077.8664   21613086.1384
      -695.5724       -542.0014
  20322126.3394  -18830738.77349 -14401248.25447  20322125.4444   20322133.3534
      1131.4264        881.6264
  21944928.2654  -15891526.25049 -11907347.16946  21944927.5934   21944935.7114
       -40.3894        -31.4714
  24088697.9634   -1819615.53849  -1398141.00345  24088698.0074   24088716.5554
      3050.0564       2376.6534
  22861136.3944   -9784854.54849  -7346488.76146  22861134.9894   22861144.4184
     -1775.1674      -1383.2454
  22651468.3004  -10722777.51849  -8347433.76946  22651468.6814   22651478.5864
     -2290.4094      -1784.7214
  23285564.4174   -9149036.69949  -7109010.43845  23285564.8954   23285574.3074
      1820.8684       1418.8544
  24294874.2554   -3389033.04549  -2537578.63045  24294873.7804   24294884.2544
     -1069.1984       -833.1434
 03  4 11 18  2 40.0000000  0  8G24G10G 5G29G 4G 7G30G13
  21613210.2284  -16655300.94549 -12967259.77747  21613209.8864   21613217.9804
      -695.9374       -542.2914
  20321911.0494  -18831870.07149 -14402129.77947  20321910.2174   20321918.1764
      1130.5034        880.9114
  21944935.9594  -15891485.73449 -11907315.60446  21944935.6534   21944943.8984
       -41.2664        -32.1634
  24088117.4734   -1822665.86649  -1400517.87145  24088117.6104   24088136.0734
      3049.9024       2376.5324
  22861474.0804   -9783079.53949  -7345105.64046  22861473.2344   22861482.4754
     -1775.4604      -1383.4684
  22651904.1624  -10720487.11949  -8345649.04746  22651902.9584   22651914.7454
     -2291.0854      -1785.2514
  23285217.9794   -9150857.44849  -7110429.20345  23285218.2184   23285227.9434
      1820.0214       1418.1934
  24295077.7704   -3387963.69449  -2536745.36945  24295077.1184   24295086.5934
     -1070.0814       -833.8314
 03  4 11 18  2 41.0000000  0  8G24G10G 5G29G 4G 7G30G13
  21613342.6004  -16654605.42049 -12966717.81347  21613342.3714   21613350.3054
      -695.7484       -542.1404
  20321695.8644  -18833000.67349 -14403010.76947  20321695.3074   20321703.0984
      1130.0884        880.5934
  21944943.8134  -15891444.54049 -11907283.50746  21944943.3614   21944952.0444
       -41.6814        -32.4724
  24087537.0984   -1825716.18049  -1402894.72745  24087537.3034   24087555.6084
      3050.1534       2376.7304
  22861811.7774   -9781304.50049  -7343722.49146  22861811.9614   22861820.2754
     -1775.2374      -1383.3134
  22652340.1354  -10718196.25549  -8343863.97046  22652339.5604   22652350.2844
     -2291.2864      -1785.4034
  23284871.5854   -9152677.59749  -7111847.49845  23284872.1844   23284882.1334
      1819.7694       1418.0034
  24295281.3484   -3386893.73149  -2535911.63345  24295281.2274   24295290.3254
     -1070.4434       -834.1084
 03  4 11 18  2 42.0000000  0  8G24G10G 5G29G 4G 7G30G13
  21613474.9694  -16653909.88849 -12966175.83947  21613474.4524   21613482.3464
      -695.7304       -542.1224
  20321480.8124  -18834130.69349 -14403891.30547  20321479.8624   20321487.7904
      1129.5344        880.1574
  21944951.7374  -15891402.80749 -11907250.99446  21944951.0944   21944959.7804
       -42.1954        -32.8734
  24086956.7194   -1828766.61649  -1405271.68045  24086956.8884   24086975.1874
      3050.1964       2376.7654
  22862149.5604   -9779529.49949  -7342339.36846  22862149.9064   22862157.1614
     -1775.1804      -1383.2704
  22652776.1184  -10715905.06349  -8342078.63246  22652776.3374   22652786.1804
     -2291.5794      -1785.6314
  23284525.3304   -9154497.23949  -7113265.40045  23284525.7644   23284535.7604
      1819.2314       1417.5754
  24295485.0614   -3385823.23049  -2535077.47745  24295484.9364   24295493.8994
     -1070.9834       -834.5374
 03  4 11 18  2 43.0000000  0  8G24G10G 5G29G 4G 7G30G13
  21613607.3694  -16653214.26149 -12965633.79547  21613606.5244   21613615.1714
      -695.5314       -541.9714
  20321265.8984  -18835260.05349 -14404771.32847  20321264.8574   20321272.9594
      1129.1554        879.8624
  21944959.8174  -15891360.43149 -11907217.98046  21944959.3124   21944967.8144
       -42.5174        -33.1294
  24086376.2174   -1831817.09349  -1407648.66345  24086376.3734   24086394.4754
      3050.5784       2377.0654
  22862487.3364   -9777754.47549  -7340956.23346  22862487.8264   22862495.0224
     -1774.8674      -1382.9944
  22653212.2244  -10713613.45449  -8340292.97546  22653211.7264   22653221.5574
     -2291.7084      -1785.7364
  23284179.2144   -9156316.31749  -7114682.85945  23284180.0524   23284189.2594
      1818.9304       1417.3494
  24295688.8794   -3384752.16949  -2534242.88445  24295688.5074   24295697.3234
     -1071.1624       -834.6704
 03  4 11 18  2 44.0000000  0  8G24G10G 5G29G 4G 7G30G13
  21613739.7564  -16652518.68649 -12965091.78447  21613739.2434   21613747.1254
      -695.7434       -542.1514
  20321051.0554  -18836388.87049 -14405650.92047  20321049.9964   20321058.2134
      1128.3624        879.2354
  21944967.9694  -15891317.54049 -11907184.55746  21944967.3134   21944975.8854
       -43.3154        -33.7514
  24085795.8364   -1834867.74349  -1410025.78345  24085795.9194   24085813.9994
      3050.5794       2377.0614
  22862825.0984   -9775979.57149  -7339573.20146  22862825.2544   22862832.4664
     -1775.0474      -1383.1504
  22653648.3714  -10711321.56749  -8338507.08746  22653648.0124   22653657.6774
     -2292.2294      -1786.1574
  23283833.0934   -9158134.92749  -7116099.96045  23283833.8564   23283842.6654
      1818.2054       1416.7864
  24295892.6924   -3383680.58749  -2533407.88645  24295892.7534   24295901.5594
     -1071.9834       -835.3094
 03  4 11 18  2 45.0000000  0  8G24G10G 5G29G 4G 7G30G13
  21613872.1304  -16651823.07149 -12964549.74647  21613871.4884   21613879.4894
      -695.8144       -542.1814
  20320836.3434  -18837517.09049 -14406530.05047  20320835.4514   20320843.4994
      1127.6944        878.7214
  21944976.2274  -15891274.07649 -11907150.68046  21944975.6624   21944983.6624
       -43.9654        -34.2724
  24085215.3594   -1837918.46349  -1412402.95745  24085215.7504   24085233.5514
      3050.5124       2377.0194
  22863162.8154   -9774204.70249  -7338190.19046  22863163.4564   22863170.7964
     -1775.0984      -1383.2094
  22654084.5494  -10709029.31949  -8336720.92846  22654085.1014   22654094.1194
     -2292.6454      -1786.4784
  23283487.1584   -9159953.01449  -7117516.65045  23283487.3534   23283496.8284
      1817.6904       1416.3834
  24296096.5964   -3382608.48849  -2532572.48445  24296097.1634   24296105.7064
     -1072.5654       -835.7614
 03  4 11 18  2 46.0000000  0  8G24G10G 5G29G 4G 7G30G13
  21614004.4714  -16651127.36649 -12964007.63547  21614003.8254   21614012.4964
      -695.7044       -542.1064
  20320621.7794  -18838644.63949 -14407408.66147  20320621.0034   20320628.8634
      1127.2734        878.3934
  21944984.6424  -15891229.96749 -11907116.31846  21944985.1284   21944992.9484
       -44.3334        -34.5404
  24084634.8874   -1840969.24349  -1414780.18045  24084635.2094   24084653.1274
      3050.8574       2377.2824
  22863500.4814   -9772429.79049  -7336807.14546  22863500.9834   22863509.3204
     -1774.8754      -1383.0064
  22654520.8904  -10706736.64749  -8334934.42946  22654521.2534   22654530.3294
     -2292.8644      -1786.6504
  23283141.3994   -9161770.52049  -7118932.88945  23283141.3424   23283151.1624
      1817.2814       1416.0554
  24296300.6144   -3381535.77249  -2531736.60445  24296301.2244   24296309.7644
     -1072.9264       -836.0464
 03  4 11 18  2 47.0000000  0  8G24G10G 5G29G 4G 7G30G13
  21614136.8394  -16650431.65949 -12963465.53047  21614136.2244   21614144.5874
      -695.6854       -542.0954
  20320407.3014  -18839771.61149 -14408286.82047  20320406.5014   20320414.3334
      1126.6794        877.9374
  21944993.1744  -15891185.30549 -11907081.52146  21944992.9124   21945001.3914
       -44.9334        -34.9984
  24084054.4464   -1844020.13649  -1417157.48945  24084054.5664   24084072.4944
      3050.9144       2377.3274
  22863838.1904   -9770654.91449  -7335424.12646  22863838.8154   22863846.5144
     -1774.8004      -1382.9594
  22654957.2254  -10704443.65749  -8333147.69246  22654955.9594   22654967.7004
     -2293.1954      -1786.8974
  23282795.6114   -9163587.53949  -7120348.74345  23282795.4634   23282805.4764
      1816.7914       1415.6774
  24296504.8424   -3380462.53449  -2530900.31345  24296504.8184   24296514.5374
     -1073.5344       -836.5274
 03  4 11 18  2 48.0000000  0  8G24G10G 5G29G 4G 7G30G13
  21614269.2184  -16649735.93349 -12962923.40747  21614268.5714   21614276.9324
      -695.7904       -542.1734
  20320192.9384  -18840897.98449 -14409164.51347  20320192.1174   20320199.8744
      1126.0344        877.4264
  21945001.7764  -15891140.08349 -11907046.28146  21945001.6874   21945009.5804
       -45.5484        -35.5014
  24083473.9184   -1847071.15949  -1419534.90245  24083474.1434   24083492.0944
      3051.0374       2377.4194
  22864175.8224   -9768880.06449  -7334041.13446  22864176.0724   22864184.6984
     -1774.9014      -1383.0234
  22655393.6694  -10702150.31249  -8331360.68246  22655392.9864   22655403.6214
     -2293.5964      -1787.1834
  23282449.9994   -9165404.04749  -7121764.20445  23282450.2784   23282459.8704
      1816.1504       1415.1764
  24296709.0754   -3379388.75949  -2530063.60645  24296709.2774   24296718.3494
     -1074.1584       -837.0044
 03  4 11 18  2 49.0000000  0  8G24G10G 5G29G 4G 7G30G13
  21614401.5594  -16649040.17249 -12962381.25747  21614401.3494   21614409.1384
      -695.9294       -542.2884
  20319978.6974  -18842023.75049 -14410041.72947  20319977.8544   20319985.8934
      1125.2964        876.8444
  21945010.5204  -15891094.27249 -11907010.58246  21945009.6404   21945018.6304
       -46.2834        -36.0624
  24082893.4514   -1850122.25249  -1421912.36545  24082893.1824   24082911.3634
      3051.1034       2377.4754
  22864513.5994   -9767105.27749  -7332658.18046  22864513.4974   22864522.3574
     -1774.9114      -1383.0474
  22655830.1994  -10699856.60749  -8329573.37246  22655829.9294   22655841.1474
     -2294.0684      -1787.5964
  23282104.5474   -9167220.02549  -7123179.25245  23282104.8064   23282114.7444
      1815.5754       1414.7364
  24296913.3364   -3378314.44949  -2529226.48245  24296913.5064   24296922.6674
     -1074.7764       -837.4894
 03  4 11 18  2 50.0000000  0  8G24G10G 5G29G 4G 7G30G13
  21614533.9484  -16648344.37849 -12961839.08047  21614533.3444   21614541.4554
      -695.9124       -542.2614
  20319764.5714  -18843148.89449 -14410918.46047  20319763.8744   20319771.9704
      1124.7124        876.3944
  21945019.3664  -15891047.88049 -11906974.42946  21945018.6594   21945028.5714
       -46.7984        -36.4924
  24082312.8144   -1853173.39549  -1424289.86745  24082312.1254   24082330.7104
      3051.0964       2377.4664
  22864851.2634   -9765330.49649  -7331275.22646  22864851.7394   22864861.2144
     -1774.8944      -1383.0484
  22656266.7964  -10697562.52349  -8327785.77246  22656266.6644   22656276.6584
     -2294.4234      -1787.8694
  23281759.2184   -9169035.45549  -7124593.87345  23281759.0964   23281768.9864
      1815.0514       1414.3254
  24297117.8034   -3377239.59349  -2528388.93245  24297118.0834   24297127.4934
     -1075.2234       -837.8404
 03  4 11 18  2 51.0000000  0  8G24G10G 5G29G 4G 7G30G13
  21614666.3294  -16647648.57849 -12961296.90047  21614665.8134   21614674.0744
      -696.2214       -542.5174
  20319550.5674  -18844273.45249 -14411794.73947  20319549.9114   20319557.8744
      1123.8214        875.7054
  21945028.2914  -15891000.93349 -11906937.84846  21945027.8204   21945037.0884
       -47.6324        -37.1064
  24081732.2414   -1856224.66249  -1426667.46845  24081731.5104   24081750.1044
      3050.9114       2377.3274
  22865189.0224   -9763555.76749  -7329892.32946  22865189.4094   22865198.6584
     -1775.1394      -1383.2134
  22656703.4534  -10695268.10649  -8325997.91846  22656702.7904   22656713.1374
     -2294.9994      -1788.3174
  23281413.8614   -9170850.38849  -7126008.10645  23281414.0304   23281423.8054
      1814.2754       1413.7184
  24297322.4174   -3376164.20149  -2527550.96445  24297322.6484   24297330.7704
     -1076.1044       -838.5224
 03  4 11 18  2 52.0000000  0  8G24G10G 5G29G 4G 7G30G13
  21614798.7114  -16646952.69449 -12960754.64947  21614798.2504   21614806.8354
      -696.1274       -542.4404
  20319336.6654  -18845397.34549 -14412670.49947  20319336.0104   20319344.1434
      1123.3304        875.3204
  21945037.3894  -15890953.34049 -11906900.76846  21945037.2874   21945045.7284
       -48.1194        -37.4924
  24081151.4774   -1859275.98949  -1429045.11545  24081150.9814   24081169.7884
      3051.1184       2377.4824
  22865526.7644   -9761781.02649  -7328509.41046  22865527.6614   22865535.7874
     -1774.9854      -1383.1134
  22657140.1744  -10692973.29549  -8324209.75546  22657139.7434   22657150.4254
     -2295.2384      -1788.4934
  23281068.5394   -9172664.73349  -7127421.87945  23281068.2984   23281078.8894
      1813.7874       1413.3354
  24297527.0774   -3375088.21149  -2526712.53145  24297526.6914   24297535.8244
     -1076.4564       -838.7994
 03  4 11 18  2 53.0000000  0  8G24G10G 5G29G 4G 7G30G13
  21614931.1034  -16646256.78949 -12960212.38747  21614931.0894   21614939.1134
      -696.1124       -542.4194
  20319122.8864  -18846520.64849 -14413545.79947  20319122.3104   20319130.0774
      1122.8154        874.9204
  21945046.6574  -15890905.18649 -11906863.25546  21945046.3854   21945054.9244
       -48.6114        -37.8684
  24080570.8084   -1862327.40049  -1431422.82845  24080570.1914   24080589.4534
      3051.2414       2377.5794
  22865864.5024   -9760006.32149  -7327126.52746  22865864.8164   22865873.8274
     -1774.8804      -1383.0194
  22657576.9614  -10690678.13349  -8322421.33446  22657576.9704   22657587.0994
     -2295.5514      -1788.7434
  23280723.3024   -9174478.60449  -7128835.29045  23280723.3914   23280733.7464
      1813.4044       1413.0504
  24297731.9654   -3374011.68549  -2525873.67845  24297732.7384   24297740.4504
     -1076.8984       -839.1414
 03  4 11 18  2 54.0000000  0  8G24G10G 5G29G 4G 7G30G13
  21615063.4854  -16645560.89749 -12959670.13547  21615063.3284   21615071.7094
      -696.3354       -542.6024
  20318909.2264  -18847643.37749 -14414420.64947  20318908.5034   20318916.3494
      1122.0004        874.2854
  21945056.0414  -15890856.48849 -11906825.30946  21945055.2374   21945064.2874
       -49.4204        -38.5114
  24079990.1364   -1865378.93549  -1433800.63645  24079989.2004   24080008.3674
      3051.1544       2377.5124
  22866202.2614   -9758231.69049  -7325743.70246  22866203.3834   22866210.9844
     -1775.0324      -1383.1504
  22658013.8224  -10688382.63949  -8320632.64146  22658013.4104   22658024.2744
     -2296.1354      -1789.1884
  23280378.2254   -9176291.97349  -7130248.30745  23280378.9084   23280388.8014
      1812.7754       1412.5504
  24297936.9244   -3372934.64049  -2525034.42545  24297937.2954   24297944.9144
     -1077.7054       -839.7664
 03  4 11 18  2 55.0000000  0  8G24G10G 5G29G 4G 7G30G13
  21615195.9284  -16644864.86549 -12959127.77447  21615195.4964   21615204.2504
      -695.9814       -542.3284
  20318695.7154  -18848765.39049 -14415294.94747  20318695.0014   20318702.8114
      1121.8004        874.1334
  21945065.5184  -15890807.10249 -11906786.82846  21945064.5734   21945073.4154
       -49.6084        -38.6574
  24079409.3884   -1868430.49849  -1436178.46345  24079408.7634   24079427.5924
      3051.6944       2377.9284
  22866540.0724   -9756456.96149  -7324360.79446  22866541.0214   22866549.1414
     -1774.5994      -1382.8164
  22658450.7544  -10686086.67549  -8318843.58546  22658450.4984   22658460.8764
     -2296.0814      -1789.1584
  23280033.2244   -9178104.70749  -7131660.82745  23280033.2504   23280043.3944
      1812.5924       1412.4204
  24298141.9514   -3371856.95549  -2524194.66945  24298142.2174   24298149.8364
     -1077.8354       -839.8724
 03  4 11 18  2 56.0000000  0  8G24G10G 5G29G 4G 7G30G13
  21615328.3694  -16644168.84649 -12958585.42347  21615328.1204   21615336.4764
      -695.9684       -542.3144
  20318482.3194  -18849886.82949 -14416168.79747  20318481.5054   20318489.6384
      1121.2134        873.6754
  21945075.0564  -15890757.17849 -11906747.92646  21945074.7534   21945082.9634
       -50.1394        -39.0804
  24078828.7194   -1871482.11049  -1438556.33145  24078827.6564   24078847.0704
      3051.7234       2377.9594
  22866877.7934   -9754682.32349  -7322977.96446  22866878.3234   22866885.9574
     -1774.4794      -1382.7014
  22658887.7744  -10683790.40049  -8317054.28946  22658887.0144   22658897.5394
     -2296.4274      -1789.4054
  23279688.2064   -9179916.94949  -7133072.96145  23279687.8384   23279698.7814
      1812.0834       1412.0094
  24298347.1634   -3370778.73349  -2523354.49945  24298347.1854   24298355.2184
     -1078.3764       -840.2914
 03  4 11 18  2 57.0000000  0  8G24G10G 5G29G 4G 7G30G13
  21615460.7554  -16643472.82149 -12958043.06347  21615460.4504   21615468.9224
      -696.0034       -542.3334
  20318269.0234  -18851007.70049 -14417042.19947  20318268.2544   20318276.2214
      1120.6024        873.1884
  21945084.7074  -15890706.70949 -11906708.60046  21945083.9714   21945092.3774
       -50.7154        -39.5104
  24078247.9754   -1874533.88149  -1440934.32445  24078246.7774   24078266.6014
      3051.8374       2378.0444
  22867215.4644   -9752907.73049  -7321595.16546  22867215.7454   22867224.6064
     -1774.4914      -1382.7234
  22659324.8244  -10681493.79549  -8315264.72746  22659324.1754   22659334.3124
     -2296.7644      -1789.6934
  23279343.3234   -9181728.71049  -7134484.72445  23279343.0564   23279353.5684
      1811.5574       1411.6054
  24298552.4994   -3369700.01249  -2522513.93645  24298552.1854   24298560.3944
     -1079.0354       -840.8084
 03  4 11 18  2 58.0000000  0  8G24G10G 5G29G 4G 7G30G13
  21615593.1824  -16642776.71449 -12957500.64547  21615592.7914   21615601.4684
      -695.8214       -542.2094
  20318055.8214  -18852127.90049 -14417915.08147  20318054.9124   20318063.0814
      1120.1594        872.8494
  21945094.4914  -15890655.58949 -11906668.76446  21945093.8524   21945102.2844
       -51.1624        -39.8754
  24077667.2994   -1877585.70049  -1443312.35045  24077666.0774   24077685.4954
      3052.1814       2378.3044
  22867553.1054   -9751133.12549  -7320212.36146  22867553.2104   22867561.5964
     -1774.3454      -1382.6064
  22659761.9734  -10679196.75549  -8313474.82246  22659760.9644   22659771.7054
     -2296.9724      -1789.8524
  23278998.5434   -9183539.87449  -7135896.02545  23278998.8554   23279008.8524
      1811.1504       1411.2994
  24298757.8314   -3368620.69749  -2521672.91245  24298757.9804   24298766.2414
     -1079.3824       -841.0724
 03  4 11 18  2 59.0000000  0  8G24G10G 5G29G 4G 7G30G13
  21615725.6474  -16642080.66249 -12956958.26447  21615725.7864   21615733.8504
      -696.0094       -542.3454
  20317842.7594  -18853247.59149 -14418787.56547  20317842.0334   20317850.0414
      1119.4344        872.2794
  21945104.3664  -15890603.98849 -11906628.55146  21945102.9934   21945112.7014
       -51.8864        -40.4294
  24077086.4304   -1880637.69249  -1445690.51345  24077085.3194   24077104.5064
      3052.0274       2378.1874
  22867890.6814   -9749358.62549  -7318829.62746  22867890.7994   22867899.3644
     -1774.4554      -1382.6864
  22660199.1984  -10676899.46249  -8311684.72546  22660198.9164   22660209.2974
     -2297.4664      -1790.2294
  23278653.9794   -9185350.62349  -7137306.99745  23278653.7824   23278663.9034
      1810.5904       1410.8504
  24298963.2474   -3367540.92549  -2520831.53345  24298963.4624   24298971.8534
     -1079.9564       -841.5224
 03  4 11 18  3  0.0000000  0  8G24G10G 5G29G 4G 7G30G13
  21615858.1274  -16641384.57449 -12956415.86147  21615858.1294   21615866.1744
      -696.3144       -542.5654
  20317629.8244  -18854366.66049 -14419659.56347  20317629.2854   20317637.0444
      1118.5654        871.6024
  21945114.3094  -15890551.80749 -11906587.89746  21945112.9784   21945122.2534
       -52.6794        -41.0274
  24076505.6144   -1883689.76049  -1448068.73645  24076504.6244   24076523.8384
      3051.8244       2378.0304
  22868228.4114   -9747584.16749  -7317446.93946  22868228.2504   22868237.3524
     -1774.6194      -1382.8214
  22660636.4374  -10674601.80649  -8309894.35546  22660635.6404   22660646.3664
     -2298.0624      -1790.6934
  23278309.3894   -9187160.81149  -7138717.53445  23278309.4474   23278319.4784
      1809.6884       1410.1564
  24299168.8564   -3366460.57549  -2519989.70345  24299168.9414   24299178.1404
     -1080.8564       -842.2254
 03  4 11 18  3  1.0000000  0  8G24G10G 5G29G 4G 7G30G13
  21615990.5924  -16640688.43749 -12955873.41547  21615990.1784   21615998.8644
      -696.5724       -542.7864
  20317417.0134  -18855485.10549 -14420531.08047  20317416.5684   20317424.2684
      1117.7384        870.9684
  21945124.3774  -15890499.02049 -11906546.76646  21945123.2564   21945132.4204
       -53.4814        -41.6704
  24075924.7424   -1886741.91449  -1450447.02545  24075923.9524   24075942.7374
      3051.7694       2377.9914
  22868566.0704   -9745809.73749  -7316064.26746  22868566.2704   22868574.6044
     -1774.8264      -1382.9844
  22661073.7504  -10672303.76449  -8308103.68446  22661072.6414   22661084.5544
     -2298.6994      -1791.1734
  23277965.0554   -9188970.47749  -7140127.66345  23277965.2034   23277975.0444
      1808.9504       1409.5694
  24299374.5214   -3365379.69849  -2519147.46245  24299375.1684   24299383.8834
     -1081.6184       -842.8214
 03  4 11 18  3  2.0000000  0  8G24G10G 5G29G 4G 7G30G13
  21616123.0754  -16639992.19949 -12955330.89247  21616122.6994   21616131.7014
      -696.1624       -542.4724
  20317204.3414  -18856602.86049 -14421402.06047  20317203.7564   20317211.6594
      1117.5154        870.7924
  21945134.5604  -15890445.57049 -11906505.12246  21945133.9774   21945142.5614
       -53.6534        -41.7994
  24075343.8104   -1889794.05649  -1452825.30445  24075342.8954   24075361.8934
      3052.1744       2378.3054
  22868903.7204   -9744035.24949  -7314681.55646  22868904.2164   22868913.3394
     -1774.3444      -1382.5864
  22661511.1524  -10670005.29949  -8306312.67546  22661510.7854   22661521.3474
     -2298.6144      -1791.1124
  23277620.7914   -9190779.55149  -7141537.32845  23277620.9734   23277630.0324
      1808.8604       1409.5084
  24299580.1254   -3364298.19549  -2518304.73545  24299580.4194   24299589.2894
     -1081.6584       -842.8424
 03  4 11 18  3  3.0000000  0  8G24G10G 5G29G 4G 7G30G13
  21616255.5294  -16639296.01349 -12954788.41047  21616255.0204   21616263.8454
      -696.5954       -542.7994
  20316991.7374  -18857720.10249 -14422272.63747  20316990.9914   20316998.9204
      1116.5334        870.0244
  21945144.8094  -15890391.62649 -11906463.08546  21945144.1754   21945152.5914
       -54.6394        -42.5824
  24074763.0194   -1892846.42649  -1455203.76445  24074762.0294   24074780.5914
      3051.9574       2378.1384
  22869241.4134   -9742260.85149  -7313298.91146  22869241.9954   22869250.2384
     -1774.8094      -1382.9514
  22661948.6714  -10667706.56349  -8304521.45846  22661948.6834   22661958.9624
     -2299.3604      -1791.7194
  23277276.5914   -9192588.18149  -7142946.65645  23277276.3454   23277286.3014
      1807.9384       1408.7894
  24299786.0244   -3363216.20349  -2517461.62745  24299786.2994   24299795.5814
     -1082.6454       -843.6204
 03  4 11 18  3  4.0000000  0  8G24G10G 5G29G 4G 7G30G13
  21616388.0184  -16638599.78749 -12954245.89547  21616387.8254   21616396.1604
      -696.7424       -542.9204
  20316779.2484  -18858836.72249 -14423142.72747  20316778.3354   20316786.3114
      1115.8394        869.4814
  21945155.1194  -15890337.10749 -11906420.60246  21945154.1154   21945163.2734
       -55.3234        -43.1164
  24074182.0784   -1895898.86149  -1457582.27245  24074181.1534   24074199.6524
      3051.9004       2378.0944
  22869579.0834   -9740486.50749  -7311916.31346  22869580.8244   22869587.8024
     -1774.8334      -1382.9804
  22662386.1684  -10665407.44949  -8302729.94946  22662385.6904   22662395.3234
     -2299.8104      -1792.0474
  23276932.5594   -9194396.29549  -7144355.57745  23276932.9744   23276942.5374
      1807.4334       1408.3844
  24299992.0354   -3362133.69049  -2516618.11145  24299992.2754   24300002.3254
     -1083.3584       -844.1714
 03  4 11 18  3  5.0000000  0  8G24G10G 5G29G 4G 7G30G13
  21616520.4944  -16637903.52449 -12953703.35247  21616520.1104   21616528.7684
      -696.9894       -543.1054
  20316566.8784  -18859952.71849 -14424012.33047  20316565.9984   20316574.0074
      1115.0134        868.8374
  21945165.6034  -15890281.99249 -11906377.65646  21945164.3954   21945173.7254
       -56.0784        -43.7014
  24073601.2114   -1898951.34049  -1459960.81645  24073600.4144   24073618.8954
      3051.8714       2378.0664
  22869916.7874   -9738712.15149  -7310533.68946  22869917.4174   22869926.1184
     -1774.9664      -1383.0894
  22662823.7784  -10663107.98549  -8300938.15946  22662822.3544   22662833.5024
     -2300.3804      -1792.5014
  23276588.5674   -9196203.87449  -7145764.07745  23276589.0664   23276598.4624
      1806.6644       1407.7854
  24300198.0554   -3361050.61349  -2515774.15645  24300198.1734   24300208.5264
     -1084.0674       -844.7214
 03  4 11 18  3  6.0000000  0  8G24G10G 5G29G 4G 7G30G13
  21616653.0114  -16637207.16749 -12953160.74247  21616653.0174   21616661.1344
      -696.7124       -542.8794
  20316354.6154  -18861068.04349 -14424881.41347  20316353.6934   20316361.9214
      1114.6954        868.5934
  21945176.2034  -15890226.22549 -11906334.20646  21945175.3844   21945184.6494
       -56.3914        -43.9244
  24073020.2504   -1902003.86749  -1462339.39845  24073019.8514   24073038.1594
      3052.1544       2378.2864
  22870254.5374   -9736937.75349  -7309151.04746  22870255.6034   22870263.4604
     -1774.7484      -1382.9224
  22663261.4054  -10660808.09849  -8299146.05546  22663260.1294   22663271.9554
     -2300.4164      -1792.5274
  23276244.6584   -9198010.83549  -7147172.10245  23276245.3964   23276254.7954
      1806.3734       1407.5634
  24300404.3444   -3359966.87849  -2514929.69145  24300404.4464   24300414.6224
     -1084.3214       -844.9244
 03  4 11 18  3  7.0000000  0  8G24G10G 5G29G 4G 7G30G13
  21616785.5254  -16636510.80449 -12952618.12047  21616785.5574   21616793.9764
      -696.7154       -542.8944
  20316142.4614  -18862182.78049 -14425750.04147  20316141.6004   20316149.8694
      1114.1044        868.1454
  21945186.9264  -15890169.89249 -11906290.31446  21945186.5594   21945194.7264
       -56.9684        -44.3914
  24072439.3074   -1905056.50949  -1464718.06845  24072438.9584   24072457.3314
      3052.4244       2378.5014
  22870592.2504   -9735163.44049  -7307768.46746  22870593.1904   22870600.8674
     -1774.6854      -1382.8714
  22663699.1524  -10658507.86649  -8297353.66546  22663698.4864   22663709.1374
     -2300.7674      -1792.8134
  23275900.9094   -9199817.30449  -7148579.73745  23275901.6954   23275911.3934
      1805.8644       1407.1664
  24300610.5354   -3358882.72149  -2514084.89545  24300610.3214   24300620.5984
     -1084.7724       -845.2764
 03  4 11 18  3  8.0000000  0  8G24G10G 5G29G 4G 7G30G13
  21616918.0424  -16635814.41049 -12952075.47647  21616917.8724   21616926.3404
      -696.7794       -542.9424
  20315930.4264  -18863296.90349 -14426618.18747  20315929.6624   20315937.7924
      1113.4704        867.6364
  21945197.7394  -15890112.99949 -11906245.98546  21945197.1734   21945205.4694
       -57.5164        -44.8174
  24071858.2864   -1908109.20149  -1467096.77945  24071858.0314   24071876.2914
      3052.4604       2378.5264
  22870929.9454   -9733389.13749  -7306385.89746  22870930.7294   22870938.7804
     -1774.6034      -1382.8104
  22664136.9834  -10656207.25449  -8295560.98446  22664137.2894   22664147.3264
     -2301.1514      -1793.1124
  23275557.1104   -9201623.24449  -7149986.96345  23275557.6864   23275567.5854
      1805.3664       1406.7764
  24300816.9294   -3357797.91749  -2513239.59745  24300816.8944   24300826.5174
     -1085.4084       -845.7594
 03  4 11 18  3  9.0000000  0  8G24G10G 5G29G 4G 7G30G13
  21617050.5274  -16635118.00049 -12951532.81747  21617050.3504   21617058.5454
      -696.8324       -542.9824
  20315718.5324  -18864410.43049 -14427485.86847  20315717.9124   20315725.9664
      1112.7954        867.1064
  21945208.6844  -15890055.52049 -11906201.19146  21945207.6384   21945217.0254
       -58.1954        -45.3544
  24071277.3154   -1911162.02549  -1469475.59245  24071277.2464   24071295.2144
      3052.4334       2378.5084
  22871267.5614   -9731614.88749  -7305003.36546  22871268.1634   22871276.5354
     -1774.6864      -1382.8644
  22664574.8734  -10653906.31449  -8293768.04846  22664574.4104   22664585.2344
     -2301.5794      -1793.4424
  23275213.4964   -9203428.68549  -7151393.80145  23275213.6614   23275224.0944
      1804.7844       1406.3194
  24301023.3584   -3356712.63649  -2512393.92645  24301022.7414   24301032.8694
     -1086.0994       -846.3094
 03  4 11 18  3 10.0000000  0  8G24G10G 5G29G 4G 7G30G13
  21617183.0644  -16634421.52149 -12950990.10547  21617182.8904   21617191.3044
      -696.6854       -542.8744
  20315506.7754  -18865523.31449 -14428353.04747  20315506.1484   20315513.9364
      1112.3754        866.7864
  21945219.7004  -15889997.43749 -11906155.92946  21945219.2114   21945228.0074
       -58.5664        -45.6384
  24070696.2764   -1914214.92049  -1471854.46045  24070696.2644   24070714.1804
      3052.7244       2378.7344
  22871605.2254   -9729840.62749  -7303620.82346  22871605.6134   22871612.8984
     -1774.4434      -1382.6694
  22665012.8004  -10651604.97749  -8291974.80246  22665011.6774   22665023.4524
     -2301.7394      -1793.5454
  23274869.9734   -9205233.55249  -7152800.18945  23274870.1994   23274880.1684
      1804.4274       1406.0464
  24301229.9294   -3355626.75849  -2511547.78945  24301230.1384   24301239.7864
     -1086.3704       -846.5184
 03  4 11 18  3 11.0000000  0  8G24G10G 5G29G 4G 7G30G13
  21617315.6044  -16633725.07149 -12950447.41747  21617315.3954   21617324.2134
      -696.9574       -543.0754
  20315295.1374  -18866635.64649 -14429219.80047  20315294.4954   20315302.2754
      1111.5494        866.1464
  21945230.8384  -15889938.82549 -11906110.25846  21945230.3044   21945238.7814
       -59.3894        -46.2764
  24070115.2174   -1917267.96549  -1474233.44345  24070115.1834   24070133.1664
      3052.6314       2378.6614
  22871942.8064   -9728066.44049  -7302238.33846  22871943.7594   22871950.6504
     -1774.6564      -1382.8524
  22665450.7814  -10649303.33649  -8290181.32346  22665450.2784   22665461.6134
     -2302.3914      -1794.0504
  23274526.5204   -9207037.95049  -7154206.20945  23274527.1144   23274536.8504
      1803.6704       1405.4524
  24301436.6264   -3354540.39049  -2510701.27245  24301437.2854   24301446.6364
     -1087.2274       -847.1834
 03  4 11 18  3 12.0000000  0  8G24G10G 5G29G 4G 7G30G13
  21617448.0844  -16633028.52149 -12949904.65747  21617447.5324   21617456.6014
      -696.8794       -543.0254
  20315083.6114  -18867747.29549 -14430086.02047  20315082.8454   20315090.5584
      1111.0354        865.7384
  21945242.0114  -15889879.55749 -11906064.08346  21945241.0234   21945249.7744
       -59.8714        -46.6444
  24069534.2124   -1920321.00449  -1476612.42345  24069534.3684   24069552.3684
      3052.8244       2378.8144
  22872280.4164   -9726292.20449  -7300855.81646  22872280.2224   22872288.9484
     -1774.5004      -1382.7274
  22665888.9044  -10647001.27049  -8288387.50746  22665887.3704   22665898.8224
     -2302.6284      -1794.2704
  23274183.2374   -9208841.77149  -7155611.78445  23274184.4044   23274193.1194
      1803.2644       1405.1374
  24301643.4724   -3353453.41749  -2509854.28045  24301643.8314   24301653.9634
     -1087.5494       -847.4454
 03  4 11 18  3 13.0000000  0  8G24G10G 5G29G 4G 7G30G13
  21617580.6144  -16632332.01949 -12949361.92847  21617580.4094   21617588.9804
      -697.1434       -543.2284
  20314872.1964  -18868858.41949 -14430951.82947  20314871.4934   20314879.5214
      1110.1734        865.0664
  21945253.3064  -15889819.79849 -11906017.52146  21945253.4324   21945261.5514
       -60.6704        -47.2804
  24068953.2334   -1923374.22349  -1478991.54745  24068953.5214   24068971.4454
      3052.6454       2378.6774
  22872618.0114   -9724518.09649  -7299473.39246  22872618.6384   22872627.3144
     -1774.7244      -1382.8974
  22666326.9924  -10644698.93949  -8286593.49046  22666325.4244   22666337.9204
     -2303.1954      -1794.6964
  23273840.1134   -9210645.13549  -7157017.00645  23273841.6314   23273850.4764
      1802.4464       1404.5124
  24301850.4154   -3352365.94749  -2509006.89845  24301850.8974   24301860.4824
     -1088.4264       -848.1224
 03  4 11 18  3 14.0000000  0  8G24G10G 5G29G 4G 7G30G13
  21617713.1294  -16631635.44249 -12948819.13747  21617712.9824   21617721.0124
      -697.2734       -543.3354
  20314660.9244  -18869968.88549 -14431817.12747  20314660.1544   20314668.0744
      1109.5014        864.5474
  21945264.7444  -15889759.40749 -11905970.46546  21945264.1334   21945272.8714
       -61.3444        -47.8074
  24068372.2134   -1926427.48549  -1481370.70045  24068372.4774   24068390.1614
      3052.6604       2378.6814
  22872955.6234   -9722743.96149  -7298090.94846  22872955.9924   22872964.2054
     -1774.7694      -1382.9494
  22666765.1974  -10642396.18749  -8284799.14846  22666764.2084   22666775.4184
     -2303.6134      -1795.0234
  23273497.2274   -9212447.93049  -7158421.78145  23273498.2824   23273507.6214
      1801.8604       1404.0434
  24302057.3304   -3351277.91649  -2508159.08345  24302058.3244   24302067.5674
     -1088.9964       -848.5674
 03  4 11 18  3 15.0000000  0  8G24G10G 5G29G 4G 7G30G13
  21617845.7004  -16630938.83249 -12948276.32447  21617845.3134   21617853.9344
      -697.2314       -543.2964
  20314449.7634  -18871078.74749 -14432681.95047  20314448.9294   20314456.8984
      1108.9464        864.1074
  21945276.3034  -15889698.43749 -11905922.95446  21945276.0544   21945284.8234
       -61.8764        -48.2134
  24067791.2084   -1929480.85449  -1483749.93545  24067791.3304   24067809.3524
      3052.8284       2378.8144
  22873293.2564   -9720969.85649  -7296708.53746  22873293.5954   22873301.8134
     -1774.7234      -1382.9014
  22667203.4584  -10640093.09249  -8283004.52946  22667202.4644   22667214.0184
     -2303.9394      -1795.2784
  23273154.3184   -9214250.19449  -7159826.14145  23273155.1554   23273164.3294
      1801.4184       1403.7064
  24302264.4834   -3350189.33649  -2507310.83845  24302265.9664   24302274.9004
     -1089.4744       -848.9364
 03  4 11 18  3 16.0000000  0  8G24G10G 5G29G 4G 7G30G13
  21617978.2674  -16630242.12849 -12947733.44047  21617978.2574   21617986.5254
      -697.0184       -543.1294
  20314238.7144  -18872187.92149 -14433546.24147  20314237.9244   20314245.9724
      1108.5584        863.8164
  21945288.0504  -15889636.81549 -11905874.94046  21945287.9504   21945296.4554
       -62.2224        -48.4774
  24067210.0994   -1932534.22249  -1486129.17545  24067210.3664   24067228.1234
      3053.1484       2379.0634
  22873630.9084   -9719195.71349  -7295326.09446  22873631.3864   22873639.8244
     -1774.4494      -1382.6754
  22667641.8024  -10637789.56649  -8281209.57946  22667640.7174   22667651.7004
     -2304.0364      -1795.3584
  23272811.5524   -9216051.83649  -7161230.02245  23272812.0674   23272821.6334
      1801.0294       1403.4074
  24302471.7694   -3349100.13349  -2506462.10945  24302473.0974   24302482.0564
     -1089.7364       -849.1454
 03  4 11 18  3 17.0000000  0  8G24G10G 5G29G 4G 7G30G13
  21618110.8304  -16629545.42949 -12947190.55747  21618110.6864   21618119.4334
      -696.9784       -543.1014
  20314027.7834  -18873296.52349 -14434410.09047  20314026.7984   20314034.9534
      1108.0304        863.4064
  21945299.8524  -15889574.64749 -11905826.50146  21945299.2734   21945308.1034
       -62.7384        -48.8854
  24066629.0914   -1935587.70849  -1488508.50545  24066629.2774   24066647.2224
      3053.2444       2379.1394
  22873968.6064   -9717421.63649  -7293943.69546  22873969.5084   22873975.9974
     -1774.3714      -1382.6424
  22668080.1524  -10635485.70549  -8279414.36646  22668079.0384   22668090.2504
     -2304.3474      -1795.5904
  23272468.7334   -9217853.04049  -7162633.55745  23272468.8164   23272478.7714
      1800.6674       1403.1164
  24302679.0834   -3348010.38849  -2505612.95845  24302680.2274   24302689.3794
     -1090.2264       -849.5314
 03  4 11 18  3 18.0000000  0  8G24G10G 5G29G 4G 7G30G13
  21618243.3654  -16628848.76049 -12946647.69947  21618243.2294   21618251.9924
      -697.2374       -543.2954
  20313816.9654  -18874404.57349 -14435273.50347  20313816.1274   20313823.7634
      1107.1884        862.7424
  21945311.8484  -15889511.95749 -11905777.65046  21945311.7704   21945320.4194
       -63.5664        -49.5334
  24066048.0824   -1938641.31949  -1490887.92845  24066048.3584   24066066.0064
      3053.0844       2379.0154
  22874306.1964   -9715647.66549  -7292561.38246  22874306.5154   22874314.2564
     -1774.5454      -1382.7574
  22668518.6134  -10633181.53349  -8277618.91246  22668517.5064   22668528.5024
     -2304.9904      -1796.0864
  23272126.1934   -9219653.75149  -7164036.70845  23272126.5724   23272136.0384
      1799.9144       1402.5344
  24302886.7374   -3346920.16849  -2504763.43945  24302888.0664   24302896.7264
     -1091.0794       -850.1864
 03  4 11 18  3 19.0000000  0  8G24G10G 5G29G 4G 7G30G13
  21618375.9244  -16628151.99249 -12946104.76347  21618376.1454   21618384.2064
      -697.0614       -543.1604
  20313606.2364  -18875511.95249 -14436136.39147  20313605.4754   20313613.3384
      1106.7644        862.4104
  21945323.9264  -15889448.62749 -11905728.30646  21945323.7624   21945332.9044
       -63.9154        -49.8044
  24065467.0244   -1941694.97249  -1493267.38745  24065467.1084   24065484.8674
      3053.3314       2379.2054
  22874643.8234   -9713873.63749  -7291179.01946  22874643.7654   22874652.0554
     -1774.3304      -1382.6074
  22668957.1204  -10630876.94749  -8275823.13946  22668956.0694   22668966.9484
     -2305.0434      -1796.1264
  23271783.7114   -9221453.88449  -7165439.40745  23271784.0464   23271793.2424
      1799.5704       1402.2584
  24303094.4504   -3345829.36649  -2503913.46845  24303095.8544   24303104.3374
     -1091.3354       -850.3864
 03  4 11 18  3 20.0000000  0  8G24G10G 5G29G 4G 7G30G13
  21618508.4774  -16627455.25049 -12945561.84947  21618508.5324   21618516.4794
      -697.4824       -543.5004
  20313395.6324  -18876618.78249 -14436998.85347  20313394.7704   20313402.7904
      1105.8094        861.6684
  21945336.1174  -15889384.77249 -11905678.54946  21945335.7624   21945344.7444
       -64.8614        -50.5414
  24064885.9104   -1944748.79449  -1495646.97945  24064885.7574   24064903.2304
      3053.1644       2379.0784
  22874981.4784   -9712099.70249  -7289796.73546  22874981.4794   22874990.0844
     -1774.6524      -1382.8404
  22669395.6904  -10628572.04549  -8274027.11846  22669394.3034   22669406.3864
     -2305.8304      -1796.7504
  23271441.3604   -9223253.53849  -7166841.73345  23271441.4914   23271451.0704
      1798.6994       1401.5814
  24303302.1184   -3344738.06149  -2503063.10045  24303303.3544   24303312.1064
     -1092.2614       -851.1134
 03  4 11 18  3 21.0000000  0  8G24G10G 5G29G 4G 7G30G13
  21618641.0754  -16626758.44249 -12945018.88447  21618641.2804   21618649.2274
      -697.4554       -543.4594
  20313185.1504  -18877724.96849 -14437860.81747  20313184.4414   20313192.1184
      1105.2524        861.2334
  21945348.4344  -15889320.29849 -11905628.31246  21945348.2144   21945356.2854
       -65.4114        -50.9674
  24064304.8884   -1947802.61749  -1498026.57045  24064304.6234   24064322.1084
      3053.2584       2379.1514
  22875319.0944   -9710325.75749  -7288414.44246  22875319.1774   22875327.8584
     -1774.5474      -1382.7554
  22669834.2844  -10626266.76249  -8272230.80446  22669833.4074   22669845.2444
     -2306.1544      -1796.9774
  23271099.1564   -9225052.61449  -7168243.61345  23271099.1364   23271108.8694
      1798.1814       1401.1854
  24303509.8514   -3343646.17349  -2502212.27845  24303511.2484   24303520.1064
     -1092.7804       -851.5184
 03  4 11 18  3 22.0000000  0  8G24G10G 5G29G 4G 7G30G13
  21618773.7194  -16626061.51049 -12944475.82247  21618773.8044   21618782.0534
      -697.1154       -543.1984
  20312974.7934  -18878830.44149 -14438722.22947  20312973.8704   20312981.8574
      1105.0014        861.0414
  21945360.8534  -15889255.15249 -11905577.55346  21945360.2604   21945368.7184
       -65.6134        -51.1284
  24063723.7904   -1950856.48949  -1500406.19845  24063723.4324   24063740.9194
      3053.6314       2379.4404
  22875656.6064   -9708551.75149  -7287032.10446  22875656.6114   22875664.9094
     -1774.1554      -1382.4424
  22670272.9974  -10623961.01949  -8270434.13246  22670272.5964   22670283.8514
     -2306.1124      -1796.9864
  23270757.0374   -9226851.09649  -7169645.02645  23270757.1454   23270766.5274
      1798.0724       1401.0904
  24303717.8224   -3342553.62649  -2501360.94245  24303719.5444   24303728.2564
     -1093.0004       -851.6924
 03  4 11 18  3 23.0000000  0  8G24G10G 5G29G 4G 7G30G13
  21618906.3554  -16625364.64449 -12943932.80647  21618906.2554   21618914.7794
      -697.2864       -543.3424
  20312764.5314  -18879935.40749 -14439583.24147  20312763.6754   20312771.3444
      1104.2614        860.4584
  21945373.3114  -15889189.51449 -11905526.40946  21945372.4214   21945381.3184
       -66.3574        -51.7114
  24063142.5594   -1953910.51349  -1502785.94545  24063142.3394   24063159.6904
      3053.7354       2379.5224
  22875994.1304   -9706777.87049  -7285649.85746  22875993.6304   22876001.8814
     -1774.2494      -1382.5284
  22670711.7554  -10621655.02349  -8268637.26046  22670711.0144   22670721.6164
     -2306.5994      -1797.3494
  23270414.9114   -9228649.14749  -7171046.10645  23270414.8084   23270423.7284
      1797.3784       1400.5684
  24303925.8714   -3341460.64049  -2500509.26545  24303926.8444   24303936.2984
     -1093.6624       -852.2044
 03  4 11 18  3 24.0000000  0  8G24G10G 5G29G 4G 7G30G13
  21619038.9854  -16624667.70149 -12943389.73447  21619039.1194   21619047.3164
      -697.0854       -543.1794
  20312554.4124  -18881039.71549 -14440443.73647  20312553.4324   20312561.2424
      1103.8554        860.1384
  21945385.9364  -15889123.25449 -11905474.77746  21945385.1904   21945393.7284
       -66.7114        -51.9814
  24062561.4174   -1956964.55649  -1505165.70845  24062560.8744   24062578.5894
      3053.9624       2379.7034
  22876331.7054   -9705003.96649  -7284267.60646  22876331.9084   22876338.6714
     -1774.0354      -1382.3574
  22671150.6434  -10619348.60649  -8266840.05446  22671151.2274   22671161.1564
     -2306.7654      -1797.4764
  23270073.0184   -9230446.60449  -7172446.72045  23270073.2544   23270082.1644
      1797.0274       1400.2764
  24304133.9624   -3340367.04549  -2499657.11445  24304135.1404   24304144.7264
     -1094.0394       -852.4984
 03  4 11 18  3 25.0000000  0  8G24G10G 5G29G 4G 7G30G13
  21619171.6034  -16623970.69149 -12942846.60847  21619171.4914   21619180.0814
      -696.8454       -542.9914
  20312344.3894  -18882143.37649 -14441303.72847  20312343.5714   20312351.3734
      1103.5454        859.9074
  21945398.6704  -15889056.38049 -11905422.66046  21945398.3134   21945407.1864
       -66.9864        -52.1954
  24061980.2434   -1960018.68549  -1507545.53545  24061979.7184   24061997.4504
      3054.3544       2380.0004
  22876669.2744   -9703230.08249  -7282885.35546  22876669.0094   22876676.9844
     -1773.7544      -1382.1544
  22671589.5994  -10617041.81949  -8265042.55746  22671589.2864   22671600.1914
     -2306.8054      -1797.5114
  23269731.2594   -9232243.52149  -7173846.91545  23269731.5944   23269740.4994
      1796.8414       1400.1344
  24304342.2754   -3339272.90649  -2498804.53945  24304343.3844   24304353.0894
     -1094.2674       -852.6724
 03  4 11 18  3 26.0000000  0  8G24G10G 5G29G 4G 7G30G13
  21619304.2374  -16623273.73949 -12942303.53047  21619304.5614   21619312.4444
      -697.0784       -543.1774
  20312134.4654  -18883246.52649 -14442163.32547  20312133.4654   20312141.6114
      1102.7514        859.2904
  21945411.4884  -15888989.00949 -11905370.16846  21945410.8644   21945420.1994
       -67.7784        -52.8164
  24061398.9544   -1963072.98749  -1509925.49745  24061398.5374   24061415.8574
      3054.2284       2379.9084
  22877006.7774   -9701456.29449  -7281503.17946  22877007.2314   22877015.3714
     -1773.9004      -1382.2584
  22672028.5644  -10614734.73949  -8263244.83946  22672028.0134   22672039.8894
     -2307.3694      -1797.9364
  23269389.4044   -9234039.97249  -7175246.75145  23269390.0024   23269398.8364
      1796.0744       1399.5414
  24304550.8094   -3338178.27849  -2497951.58345  24304551.6084   24304561.0964
     -1094.9404       -853.1984
 03  4 11 18  3 27.0000000  0  8G24G10G 5G29G 4G 7G30G13
  21619436.8664  -16622576.73549 -12941760.40847  21619436.8284   21619444.7194
      -697.1924       -543.2734
  20311924.6644  -18884349.03549 -14443022.42247  20311923.6634   20311931.8014
      1102.0194        858.7184
  21945424.4094  -15888921.04649 -11905317.21446  21945423.8284   21945433.0444
       -68.4314        -53.3204
  24060817.6864   -1966127.33049  -1512305.49345  24060817.1954   24060834.8494
      3054.2064       2379.8864
  22877344.3404   -9699682.52149  -7280121.02046  22877344.6164   22877352.5934
     -1773.9334      -1382.2894
  22672467.6684  -10612427.29749  -8261446.83446  22672466.7084   22672477.9494
     -2307.8004      -1798.2854
  23269047.6874   -9235835.91149  -7176646.18545  23269048.0594   23269056.7054
      1795.4684       1399.0764
  24304759.3364   -3337083.10349  -2497098.19945  24304760.4064   24304769.6084
     -1095.6294       -853.7454
 03  4 11 18  3 28.0000000  0  8G24G10G 5G29G 4G 7G30G13
  21619569.5094  -16621879.72049 -12941217.28347  21619569.7444   21619577.8314
      -697.2784       -543.3384
  20311714.9844  -18885450.95149 -14443881.05747  20311713.9004   20311721.8824
      1101.3664        858.2024
  21945437.5084  -15888852.50549 -11905263.81346  21945437.0614   21945445.8964
       -69.1094        -53.8414
  24060236.4574   -1969181.78049  -1514685.57245  24060235.9184   24060253.8644
      3054.1754       2379.8664
  22877681.9914   -9697908.79949  -7278738.90946  22877682.0614   22877690.3824
     -1773.9334      -1382.2744
  22672906.7714  -10610119.48349  -8259648.54446  22672905.5264   22672916.9494
     -2308.2734      -1798.6404
  23268706.0574   -9237631.30949  -7178045.19645  23268706.3934   23268714.2644
      1794.8934       1398.6234
  24304968.0294   -3335987.37549  -2496244.38545  24304969.1084   24304978.0634
     -1096.3084       -854.2604
 03  4 11 18  3 29.0000000  0  8G24G10G 5G29G 4G 7G30G13
  21619702.1594  -16621182.65049 -12940674.11247  21619702.3424   21619710.7184
      -697.4294       -543.4574
  20311505.4014  -18886552.24749 -14444739.20747  20311504.3014   20311512.3594
      1100.6594        857.6594
  21945450.6914  -15888783.38549 -11905209.95446  21945450.4834   21945458.8574
       -69.6924        -54.3084
  24059655.1514   -1972236.33449  -1517065.73245  24059654.7394   24059672.4224
      3054.2964       2379.9624
  22878019.6694   -9696135.09149  -7277356.79246  22878020.6234   22878027.9764
     -1773.9714      -1382.3344
  22673345.9924  -10607811.29649  -8257849.96746  22673344.4654   22673356.6144
     -2308.7144      -1798.9864
  23268364.4934   -9239426.16349  -7179443.78545  23268364.7814   23268373.0604
      1794.2464       1398.1194
  24305176.7374   -3334891.10449  -2495390.15045  24305177.2994   24305186.8214
     -1096.8374       -854.6784
 03  4 11 18  3 30.0000000  0  8G24G10G 5G29G 4G 7G30G13
  21619834.8514  -16620485.53749 -12940130.90747  21619834.6424   21619843.2954
      -697.2744       -543.3354
  20311295.9474  -18887652.91849 -14445596.87147  20311294.9514   20311303.1454
      1100.2104        857.3044
  21945464.0004  -15888713.64649 -11905155.60846  21945463.0914   21945472.5534
       -70.1944        -54.7014
  24059073.9354   -1975290.91249  -1519445.91145  24059073.3944   24059091.0684
      3054.5474       2380.1554
  22878357.3314   -9694361.38849  -7275974.68046  22878357.6094   22878365.4434
     -1773.7884      -1382.1734
  22673785.2664  -10605502.73549  -8256051.08846  22673784.9354   22673796.1874
     -2308.9064      -1799.1234
  23268023.1054   -9241220.47649  -7180841.94945  23268023.9434   23268031.5024
      1793.8414       1397.7924
  24305385.4024   -3333794.24149  -2494535.45045  24305385.8934   24305395.4574
     -1097.3114       -855.0484
 03  4 11 18  3 31.0000000  0  8G24G10G 5G29G 4G 7G30G13
  21619967.5624  -16619788.39549 -12939587.68047  21619967.6834   21619975.8034
      -697.2844       -543.3324
  20311086.6284  -18888752.97449 -14446454.05647  20311085.6424   20311093.5754
      1099.6174        856.8444
  21945477.4684  -15888643.33549 -11905100.82446  21945477.2894   21945485.6354
       -70.7374        -55.1114
  24058492.6404   -1978345.56349  -1521826.14745  24058491.9384   24058509.9364
      3054.5234       2380.1354
  22878694.9484   -9692587.71249  -7274592.59646  22878694.3864   22878702.5714
     -1773.7704      -1382.1504
  22674224.5964  -10603193.82349  -8254251.94346  22674223.7224   22674235.3294
     -2309.2484      -1799.4114
  23267681.7544   -9243014.28749  -7182239.72545  23267682.3734   23267690.5624
      1793.4174       1397.4714
  24305594.1974   -3332696.87349  -2493680.36145  24305594.6324   24305604.2044
     -1097.7794       -855.4174
 03  4 11 18  3 32.0000000  0  8G24G10G 5G29G 4G 7G30G13
  21620100.3264  -16619091.23149 -12939044.43747  21620100.4264   21620108.2604
      -697.4194       -543.4514
  20310877.4204  -18889852.43149 -14447310.77747  20310876.4314   20310884.4594
      1098.9014        856.2864
  21945490.9814  -15888572.45849 -11905045.59846  21945490.2504   21945499.2074
       -71.4254        -55.6464
  24057911.3414   -1981400.36349  -1524206.49845  24057910.5434   24057928.5944
      3054.5904       2380.1814
  22879032.5004   -9690814.07749  -7273210.55146  22879031.4284   22879039.6714
     -1773.8284      -1382.2104
  22674664.0344  -10600884.55449  -8252452.52546  22674663.5154   22674674.8884
     -2309.7394      -1799.7874
  23267340.6534   -9244807.53949  -7183637.06445  23267341.2294   23267349.3274
      1792.7444       1396.9414
  24305803.1024   -3331598.91049  -2492824.80445  24305802.9884   24305812.8684
     -1098.4484       -855.9354
 03  4 11 18  3 33.0000000  0  8G24G10G 5G29G 4G 7G30G13
  21620233.0864  -16618393.96549 -12938501.11147  21620233.1324   21620241.0994
      -697.2424       -543.3124
  20310668.2874  -18890951.21749 -14448166.97347  20310667.3774   20310675.2764
      1098.5324        855.9944
  21945504.6454  -15888500.93449 -11904989.86446  21945503.5784   21945513.1404
       -71.7414        -55.9024
  24057330.0954   -1984455.16649  -1526586.85345  24057329.1934   24057347.3734
      3054.8814       2380.4154
  22879370.0084   -9689040.41449  -7271828.48146  22879369.7374   22879377.8894
     -1773.6134      -1382.0234
  22675103.4984  -10598574.87049  -8250652.77746  22675103.4904   22675114.2854
     -2309.8324      -1799.8784
  23266999.5364   -9246600.24149  -7185033.97545  23267000.1924   23267008.4924
      1792.4944       1396.7374
  24306012.1464   -3330500.38149  -2491968.80845  24306012.2614   24306021.7874
     -1098.7374       -856.1564
 03  4 11 18  3 34.0000000  0  8G24G10G 5G29G 4G 7G30G13
  21620365.8124  -16617696.75049 -12937957.82847  21620366.1484   21620373.8394
      -697.2634       -543.3234
  20310459.2714  -18892049.45849 -14449022.74347  20310458.1804   20310466.3264
      1097.9164        855.5154
  21945518.3844  -15888428.88949 -11904933.72946  21945517.5994   21945526.4434
       -72.3624        -56.3704
  24056748.6244   -1987510.14249  -1528967.34145  24056747.8464   24056765.7524
      3055.0064       2380.5124
  22879707.4484   -9687266.83549  -7270446.47546  22879706.4474   22879714.9154
     -1773.5814      -1382.0044
  22675543.0354  -10596264.89849  -8248852.79546  22675543.1564   22675552.2914
     -2310.2514      -1800.1874
  23266658.5464   -9248392.46249  -7186430.51045  23266658.8044   23266667.5364
      1791.9274       1396.3024
  24306221.2354   -3329401.38449  -2491112.44945  24306221.1394   24306231.4734
     -1099.2154       -856.5284
 03  4 11 18  3 35.0000000  0  8G24G10G 5G29G 4G 7G30G13
  21620498.5134  -16616999.50549 -12937414.52147  21620498.2294   21620506.5064
      -697.3904       -543.4164
  20310250.4094  -18893147.10549 -14449878.05147  20310249.4814   20310257.4714
      1097.2104        854.9684
  21945532.2294  -15888356.29149 -11904877.15846  21945531.3744   21945540.4004
       -73.0664        -56.9354
  24056167.1984   -1990565.19649  -1531347.88945  24056166.6074   24056184.2774
      3054.9204       2380.4424
  22880044.8934   -9685493.28849  -7269064.49746  22880044.0954   22880053.0964
     -1773.6754      -1382.0884
  22675982.6944  -10593954.58749  -8247052.56246  22675982.4504   22675993.7334
     -2310.6324      -1800.4824
  23266317.6224   -9250184.16249  -7187826.63645  23266317.9494   23266325.4954
      1791.2994       1395.8144
  24306430.3464   -3328301.82449  -2490255.64545  24306430.6534   24306440.8614
     -1099.8684       -857.0414
 03  4 11 18  3 36.0000000  0  8G24G10G 5G29G 4G 7G30G13
  21620631.2504  -16616302.15749 -12936871.13247  21620630.9094   21620639.1104
      -697.2784       -543.3374
  20310041.6374  -18894244.06549 -14450732.82447  20310040.7774   20310048.5584
      1096.7614        854.6154
  21945546.1574  -15888283.02449 -11904820.06346  21945545.3864   21945554.5034
       -73.4874        -57.2714
  24055585.8364   -1993620.26749  -1533728.45245  24055585.2814   24055602.8854
      3055.1574       2380.6314
  22880382.3624   -9683719.69449  -7267682.47846  22880381.8444   22880390.2554
     -1773.4914      -1381.9364
  22676422.4714  -10591643.82649  -8245251.97546  22676422.0134   22676433.6784
     -2310.8644      -1800.6644
  23265976.7944   -9251975.25849  -7189222.29445  23265976.8394   23265984.6594
      1790.9314       1395.5344
  24306639.6214   -3327201.64449  -2489398.36545  24306639.9004   24306650.1714
     -1100.3334       -857.4014
 03  4 11 18  3 37.0000000  0  8G24G10G 5G29G 4G 7G30G13
  21620763.9704  -16615604.87949 -12936327.79847  21620763.7874   21620771.3664
      -697.5454       -543.5334
  20309832.9814  -18895340.50249 -14451587.19147  20309832.0284   20309840.0824
      1095.8654        853.9234
  21945560.1864  -15888209.27849 -11904762.60346  21945559.4854   21945568.2654
       -74.2994        -57.8924
  24055004.3384   -1996675.51049  -1536109.15045  24055003.8774   24055022.0344
      3055.0434       2380.5424
  22880719.8234   -9681946.24149  -7266300.56746  22880720.1014   22880727.9704
     -1773.7024      -1382.0924
  22676862.2464  -10589332.80749  -8243451.18546  22676861.8564   22676873.4364
     -2311.5094      -1801.1734
  23265636.0984   -9253765.94049  -7190617.62945  23265635.8414   23265643.7864
      1790.1964       1394.9514
  24306849.0744   -3326101.00949  -2488540.72845  24306849.3054   24306859.6314
     -1101.1484       -858.0384
 03  4 11 18  3 38.0000000  0  8G24G10G 5G29G 4G 7G30G13
  21620896.7044  -16614907.50849 -12935784.39547  21620896.4424   21620904.5924
      -697.5344       -543.5294
  20309624.4934  -18896436.28249 -14452441.04547  20309623.6714   20309631.6274
      1095.3034        853.4744
  21945574.3164  -15888134.90049 -11904704.64946  21945573.3814   21945582.3874
       -74.7934        -58.2824
  24054422.8314   -1999730.80249  -1538489.88645  24054422.6114   24054441.0854
      3055.1964       2380.6604
  22881057.3414   -9680172.76049  -7264918.62746  22881056.7024   22881065.0984
     -1773.6194      -1382.0544
  22677302.1214  -10587021.38149  -8241650.07846  22677301.7614   22677312.5724
     -2311.8114      -1801.4144
  23265295.5954   -9255556.02749  -7192012.50145  23265295.1064   23265302.8924
      1789.7034       1394.5684
  24307058.6094   -3324999.77449  -2487682.62245  24307059.2104   24307069.3474
     -1101.5624       -858.3624
 03  4 11 18  3 39.0000000  0  8G24G10G 5G29G 4G 7G30G13
  21621029.4684  -16614210.11749 -12935240.97247  21621029.2114   21621037.1084
      -697.6034       -543.5824
  20309416.0994  -18897531.45249 -14453294.41947  20309415.2554   20309423.1534
      1094.6744        852.9884
  21945588.5134  -15888059.92749 -11904646.22746  21945587.9254   21945597.0494
       -75.4524        -58.7904
  24053841.3624   -2002786.16249  -1540870.67445  24053841.0404   24053859.4264
      3055.2614       2380.7064
  22881394.7994   -9678399.32849  -7263536.73346  22881394.9024   22881401.8654
     -1773.6124      -1382.0354
  22677742.0844  -10584709.58649  -8239848.69246  22677741.2474   22677753.7024
     -2312.2084      -1801.7234
  23264955.0944   -9257345.58549  -7193406.96445  23264954.4644   23264962.4094
      1789.2584       1394.2294
  24307268.1494   -3323897.99949  -2486824.10145  24307268.8634   24307279.3374
     -1102.1354       -858.8074
 03  4 11 18  3 40.0000000  0  8G24G10G 5G29G 4G 7G30G13
  21621162.2554  -16613512.65549 -12934697.49247  21621161.8624   21621170.1814
      -697.4474       -543.4624
  20309207.8214  -18898625.96949 -14454147.28847  20309206.8924   20309214.6564
      1094.2554        852.6614
  21945602.8834  -15887984.34949 -11904587.33746  21945602.4244   21945611.2724
       -75.8324        -59.0864
  24053259.9184   -2005841.55949  -1543251.49245  24053259.8934   24053277.7234
      3055.4524       2380.8544
  22881732.2554   -9676625.85349  -7262154.80546  22881732.3044   22881739.5354
     -1773.4604      -1381.9154
  22678182.1074  -10582397.39349  -8238046.98146  22678181.6854   22678193.1074
     -2312.3704      -1801.8474
  23264614.6464   -9259134.57249  -7194800.98245  23264614.1024   23264622.1254
      1788.7764       1393.8504
  24307477.8354   -3322795.61149  -2485965.10045  24307478.9614   24307489.3884
     -1102.5974       -859.1624
 03  4 11 18  3 41.0000000  0  8G24G10G 5G29G 4G 7G30G13
  21621295.0244  -16612815.16149 -12934153.99347  21621294.6614   21621302.7624
      -697.2254       -543.2854
  20308999.6604  -18899719.87949 -14454999.68547  20308998.8584   20309006.5974
      1093.8744        852.3774
  21945617.3944  -15887908.17849 -11904527.98646  21945616.8094   21945625.1194
       -76.1794        -59.3524
  24052678.4954   -2008897.04149  -1545632.37745  24052678.3444   24052696.5964
      3055.7944       2381.1304
  22882069.7224   -9674852.40849  -7260772.90146  22882069.0534   22882077.6224
     -1773.1794      -1381.6964
  22678622.2364  -10580084.84649  -8236244.99846  22678622.1614   22678632.0824
     -2312.5034      -1801.9454
  23264274.3274   -9260923.05849  -7196194.60945  23264273.4974   23264282.2774
      1788.4424       1393.5994
  24307687.5754   -3321692.72749  -2485105.70845  24307688.9354   24307699.1464
     -1102.8804       -859.3844
 03  4 11 18  3 42.0000000  0  8G24G10G 5G29G 4G 7G30G13
  21621427.7734  -16612117.74749 -12933610.55547  21621427.2804   21621435.3014
      -697.7934       -543.7394
  20308791.6154  -18900813.28549 -14455851.69247  20308790.7424   20308798.6014
      1092.7434        851.4934
  21945631.9994  -15887831.54949 -11904468.27846  21945631.2404   21945640.0664
       -77.3064        -60.2474
  24052097.0314   -2011952.69849  -1548013.39945  24052096.9024   24052115.1424
      3055.3374       2380.7764
  22882407.1474   -9673079.12949  -7259391.13146  22882406.4284   22882415.6124
     -1773.6094      -1382.0154
  22679062.3424  -10577772.05449  -8234442.83446  22679061.4244   22679072.3924
     -2313.3864      -1802.6324
  23263934.0614   -9262711.09049  -7197587.87945  23263933.3054   23263941.9404
      1787.4364       1392.8084
  24307897.5214   -3320589.36049  -2484245.94245  24307898.4564   24307909.5464
     -1103.8244       -860.1244
 03  4 11 18  3 43.0000000  0  8G24G10G 5G29G 4G 7G30G13
  21621560.5544  -16611420.21249 -12933067.02347  21621560.1324   21621568.2484
      -697.5814       -543.5704
  20308583.6984  -18901905.99949 -14456703.15647  20308582.6254   20308590.5964
      1092.3504        851.1794
  21945646.6734  -15887754.24049 -11904408.03846  21945646.2274   21945654.5274
       -77.6554        -60.5124
  24051515.6334   -2015008.39949  -1550394.45445  24051515.4814   24051533.6364
      3055.7424       2381.0884
  22882744.5564   -9671305.75149  -7258009.28346  22882744.0024   22882752.9484
     -1773.4224      -1381.8864
  22679502.5804  -10575458.82449  -8232640.32446  22679501.5594   22679513.1434
     -2313.5164      -1802.7354
  23263593.8904   -9264498.52349  -7198980.68545  23263593.5834   23263601.9854
      1787.1784       1392.6104
  24308107.6204   -3319485.35549  -2483385.68045  24308108.5314   24308119.4234
     -1104.2314       -860.4454
 03  4 11 18  3 44.0000000  0  8G24G10G 5G29G 4G 7G30G13
  21621693.3304  -16610722.70149 -12932523.50447  21621692.6354   21621700.7474
      -697.8184       -543.7564
  20308375.8874  -18902998.15249 -14457554.17947  20308374.9934   20308382.8114
      1091.5514        850.5584
  21945661.4704  -15887676.41449 -11904347.39346  21945661.2604   21945669.3784
       -78.3834        -61.0824
  24050934.0554   -2018064.17449  -1552775.56845  24050934.1834   24050952.1214
      3055.4974       2380.8954
  22883081.8684   -9669532.44849  -7256627.47846  22883081.2144   22883090.5744
     -1773.6074      -1382.0464
  22679942.8554  -10573145.26549  -8230837.55546  22679941.5974   22679953.7584
     -2314.0064      -1803.1144
  23263253.8664   -9266285.50649  -7200373.13845  23263253.9744   23263262.2314
      1786.4004       1391.9974
  24308317.6904   -3318380.88749  -2482525.05445  24308318.9384   24308329.8674
     -1104.9414       -860.9984
 03  4 11 18  3 45.0000000  0  8G24G10G 5G29G 4G 7G30G13
  21621826.0734  -16610025.11149 -12931979.92947  21621825.4004   21621833.6684
      -697.8534       -543.7794
  20308168.1894  -18904089.65049 -14458404.69547  20308167.5444   20308175.0224
      1090.9434        850.0834
  21945676.4124  -15887597.95549 -11904286.25646  21945675.4334   21945684.2784
       -78.9644        -61.5244
  24050352.5474   -2021120.03549  -1555156.74845  24050352.4774   24050370.2504
      3055.6324       2381.0024
  22883419.2204   -9667759.15949  -7255245.69546  22883418.5534   22883427.6374
     -1773.5264      -1381.9604
  22680383.1894  -10570831.29849  -8229034.46846  22680382.5954   22680394.5764
     -2314.4344      -1803.4464
  23262913.9764   -9268071.91949  -7201765.14645  23262914.5164   23262922.6324
      1785.9414       1391.6354
  24308527.9474   -3317275.81149  -2481663.95945  24308529.1714   24308540.0734
     -1105.5454       -861.4604
 03  4 11 18  3 46.0000000  0  8G24G10G 5G29G 4G 7G30G13
  21621958.8764  -16609327.46549 -12931436.30947  21621958.5734   21621966.0484
      -697.6834       -543.6544
  20307960.6104  -18905180.50549 -14459254.71247  20307959.6584   20307967.5144
      1090.5174        849.7514
  21945691.4234  -15887518.88449 -11904224.64246  21945690.5774   21945699.2284
       -79.3884        -61.8564
  24049771.0474   -2024175.95749  -1557537.97845  24049770.8274   24049788.6304
      3055.9854       2381.2784
  22883756.6124   -9665985.85349  -7253863.91246  22883757.1144   22883765.2784
     -1773.3214      -1381.8044
  22680823.6314  -10568516.95849  -8227231.09146  22680823.1494   22680834.8574
     -2314.5304      -1803.5324
  23262574.0874   -9269857.73549  -7203156.69045  23262574.2294   23262583.0024
      1785.5704       1391.3534
  24308738.3164   -3316170.14949  -2480802.40345  24308739.6134   24308750.1394
     -1105.9254       -861.7584
 03  4 11 18  3 47.0000000  0  8G24G10G 5G29G 4G 7G30G13
  21622091.6454  -16608629.85849 -12930892.72347  21622091.2114   21622099.2154
      -697.9154       -543.8184
  20307753.1274  -18906270.81749 -14460104.30847  20307752.3494   20307760.0224
      1089.7174        849.1284
  21945706.5154  -15887439.30149 -11904162.63546  21945705.6464   21945714.7094
       -80.1964        -62.4844
  24049189.4874   -2027232.00649  -1559919.30345  24049189.3304   24049206.9234
      3055.7844       2381.1234
  22884093.9624   -9664212.67049  -7252482.21846  22884094.7874   22884102.5004
     -1773.4554      -1381.9064
  22681264.1504  -10566202.32249  -8225427.49246  22681263.9994   22681274.7354
     -2315.1424      -1803.9794
  23262234.3214   -9271643.10549  -7204547.88645  23262234.2194   23262243.1824
      1784.8194       1390.7614
  24308948.8004   -3315063.98049  -2479940.45345  24308949.8654   24308960.9334
     -1106.6954       -862.3604
 03  4 11 18  3 48.0000000  0  8G24G10G 5G29G 4G 7G30G13
  21622224.3994  -16607932.14849 -12930349.05247  21622223.8514   21622232.2304
      -697.8454       -543.7724
  20307545.7704  -18907360.47049 -14460953.38947  20307545.0004   20307552.7644
      1089.2594        848.7734
  21945721.7694  -15887359.08749 -11904100.13046  21945721.5934   21945729.8464
       -80.6434        -62.8414
  24048607.9374   -2030288.09149  -1562300.65445  24048608.0674   24048625.2644
      3055.9714       2381.2624
  22884431.3194   -9662439.45549  -7251100.49446  22884431.7934   22884439.8794
     -1773.3054      -1381.7804
  22681704.7594  -10563887.26349  -8223623.55446  22681704.7754   22681715.1014
     -2315.4084      -1804.2034
  23261894.6664   -9273427.87949  -7205938.62045  23261894.9844   23261903.6164
      1784.4154       1390.4624
  24309159.4024   -3313957.22249  -2479078.04245  24309160.4724   24309171.2894
     -1107.1614       -862.7204
 03  4 11 18  3 49.0000000  0  8G24G10G 5G29G 4G 7G30G13
  21622357.1464  -16607234.47849 -12929805.41347  21622356.7184   21622364.7694
      -698.0204       -543.9094
  20307338.5054  -18908449.55049 -14461802.02047  20307337.8314   20307345.1674
      1088.4554        848.1494
  21945737.1114  -15887278.34149 -11904037.20946  21945736.5264   21945745.5784
       -81.3514        -63.3904
  24048026.3064   -2033344.31049  -1564682.11045  24048026.3664   24048043.5914
      3056.0544       2381.3284
  22884768.7304   -9660666.32649  -7249718.83546  22884769.4374   22884777.4434
     -1773.4384      -1381.8874
  22682145.4364  -10561571.91449  -8221819.39146  22682145.3974   22682155.5934
     -2315.8384      -1804.5574
  23261555.1714   -9275212.17549  -7207328.98245  23261554.7814   23261563.7054
      1783.6784       1389.8764
  24309370.0094   -3312849.99249  -2478215.26645  24309371.3174   24309382.2244
     -1107.8144       -863.2354
 03  4 11 18  3 50.0000000  0  8G24G10G 5G29G 4G 7G30G13
  21622489.9404  -16606536.72149 -12929261.70747  21622489.5124   21622497.6274
      -697.8384       -543.7764
  20307131.3754  -18909537.97849 -14462650.14547  20307130.5384   20307138.0124
      1088.0444        847.8304
  21945752.5734  -15887196.96249 -11903973.79746  21945751.8434   21945760.8064
       -81.7514        -63.7054
  24047444.6794   -2036400.52849  -1567063.56245  24047444.5704   24047462.0464
      3056.1884       2381.4364
  22885106.1314   -9658893.16949  -7248337.16146  22885106.7904   22885114.9394
     -1773.2294      -1381.7284
  22682586.1444  -10559256.13149  -8220014.89246  22682586.5144   22682596.7444
     -2316.0514      -1804.6974
  23261215.6634   -9276995.90149  -7208718.89845  23261214.9944   23261223.5794
      1783.3254       1389.6094
  24309580.8944   -3311742.14849  -2477352.01545  24309581.2014   24309592.5324
     -1108.2154       -863.5384
 03  4 11 18  3 51.0000000  0  8G24G10G 5G29G 4G 7G30G13
  21622622.6824  -16605838.94449 -12928717.98647  21622622.1674   21622630.3754
      -697.9754       -543.8704
  20306924.3904  -18910625.80349 -14463497.80047  20306923.5254   20306931.2444
      1087.3364        847.2794
  21945768.1134  -15887115.02449 -11903909.95446  21945767.7894   21945776.6324
       -82.4324        -64.2404
  24046863.0854   -2039456.86749  -1569445.11545  24046863.0474   24046880.4014
      3056.1634       2381.4164
  22885443.6334   -9657120.03949  -7246955.50346  22885444.6114   22885452.4394
     -1773.2924      -1381.7824
  22683026.9044  -10556940.02649  -8218210.14546  22683026.6844   22683037.7864
     -2316.5244      -1805.0794
  23260876.3094   -9278779.09949  -7210108.40645  23260876.5404   23260884.3174
      1782.7104       1389.1234
  24309791.9044   -3310633.77249  -2476488.34845  24309791.8644   24309803.5004
     -1108.8214       -864.0104
 03  4 11 18  3 52.0000000  0  8G24G10G 5G29G 4G 7G30G13
  21622755.4874  -16605141.12749 -12928174.23547  21622754.8784   21622763.2124
      -697.9914       -543.8964
  20306717.5124  -18911713.01749 -14464344.98147  20306716.7064   20306724.6264
      1086.7424        846.8134
  21945783.8374  -15887032.48149 -11903845.63346  21945783.2654   21945791.9954
       -82.9704        -64.6534
  24046281.4074   -2042513.30049  -1571826.73645  24046281.7284   24046298.9774
      3056.3014       2381.5184
  22885781.0804   -9655346.93249  -7245573.86446  22885781.1754   22885790.1574
     -1773.2434      -1381.7384
  22683467.7474  -10554623.55149  -8216405.09946  22683466.5934   22683478.9124
     -2316.8414      -1805.3534
  23260537.2174   -9280561.76149  -7211497.49245  23260537.7004   23260545.0284
      1782.2124       1388.7414
  24310003.0934   -3309524.84749  -2475624.25445  24310003.4414   24310014.3204
     -1109.3034       -864.3884
 03  4 11 18  3 53.0000000  0  8G24G10G 5G29G 4G 7G30G13
  21622888.2514  -16604443.34049 -12927630.50047  21622887.4364   21622895.3994
      -698.2224       -544.0754
  20306510.7304  -18912799.67249 -14465191.71947  20306509.9764   20306517.4854
      1085.9274        846.1694
  21945799.6194  -15886949.42449 -11903780.91846  21945798.8104   21945807.9254
       -83.7774        -65.2794
  24045699.7374   -2045569.86349  -1574208.46445  24045699.6744   24045718.1624
      3056.1714       2381.4244
  22886118.4834   -9653573.90749  -7244192.27346  22886118.3784   22886126.3894
     -1773.4074      -1381.8994
  22683908.6394  -10552306.77649  -8214599.83346  22683908.2764   22683919.2404
     -2317.4174      -1805.7654
  23260198.1004   -9282343.95249  -7212886.21645  23260198.8124   23260205.8324
      1781.4784       1388.1614
  24310214.2274   -3308415.41949  -2474759.76245  24310214.3124   24310225.3664
     -1110.0254       -864.9544
 03  4 11 18  3 54.0000000  0  8G24G10G 5G29G 4G 7G30G13
  21623021.0164  -16603745.48749 -12927086.71947  21623020.4914   21623028.7334
      -698.3834       -544.1964
  20306304.0874  -18913885.68349 -14466037.96247  20306303.2114   20306310.8304
      1085.2024        845.6194
  21945815.5604  -15886865.75749 -11903715.72646  21945814.8894   21945823.8094
       -84.4674        -65.8124
  24045118.0364   -2048626.46449  -1576590.22045  24045117.8824   24045136.3114
      3056.1724       2381.4264
  22886455.8804   -9651800.88149  -7242810.69446  22886456.6784   22886463.4074
     -1773.4884      -1381.9294
  22684349.6334  -10549989.60349  -8212794.24746  22684348.7424   22684360.2224
     -2317.8804      -1806.1384
  23259859.1954   -9284125.61349  -7214274.52345  23259859.7914   23259866.4144
      1780.8894       1387.7084
  24310425.3624   -3307305.40749  -2473894.81745  24310425.3364   24310436.4684
     -1110.8014       -865.5574
 03  4 11 18  3 55.0000000  0  8G24G10G 5G29G 4G 7G30G13
  21623153.8144  -16603047.56049 -12926542.88047  21623153.4874   21623161.9284
      -698.1834       -544.0244
  20306097.5714  -18914971.04049 -14466883.69447  20306096.6194   20306104.5294
      1084.7964        845.2974
  21945831.6594  -15886781.47049 -11903650.04946  21945830.9264   21945839.9514
       -84.8114        -66.0954
  24044536.3924   -2051683.15149  -1578972.04545  24044536.2134   24044554.8594
      3056.4934       2381.6754
  22886793.2914   -9650027.81649  -7241429.09246  22886793.3564   22886801.7844
     -1773.3074      -1381.7904
  22684790.6874  -10547672.02849  -8210988.34546  22684789.4664   22684800.9394
     -2318.0504      -1806.2834
  23259520.2924   -9285906.68849  -7215662.37045  23259520.8784   23259528.0044
      1780.5664       1387.4524
  24310636.7664   -3306194.83549  -2473029.43845  24310636.5654   24310648.1884
     -1111.0754       -865.7704
 03  4 11 18  3 56.0000000  0  8G24G10G 5G29G 4G 7G30G13
  21623286.6084  -16602349.61549 -12925999.03247  21623286.7824   21623294.1654
      -698.1774       -544.0274
  20305891.1894  -18916055.79949 -14467728.95947  20305890.5464   20305898.0994
      1084.2284        844.8494
  21945847.8904  -15886696.59849 -11903583.91046  21945847.5074   21945856.3404
       -85.4034        -66.5614
  24043954.8394   -2054739.88749  -1581353.90745  24043954.6824   24043973.1454
      3056.5614       2381.7284
  22887130.6234   -9648254.81249  -7240047.53646  22887131.2374   22887138.7824
     -1773.1804      -1381.6924
  22685231.8204  -10545354.11649  -8209182.19046  22685230.6374   22685242.0344
     -2318.3314      -1806.4794
  23259181.5354   -9287687.22949  -7217049.80345  23259182.4304   23259188.8904
      1779.9974       1387.0084
  24310848.2094   -3305083.72049  -2472163.63445  24310847.6964   24310858.9624
     -1111.6174       -866.1954
 03  4 11 18  3 57.0000000  0  8G24G10G 5G29G 4G 7G30G13
  21623419.4454  -16601651.66749 -12925455.17347  21623419.3114   21623426.8144
      -698.3174       -544.1494
  20305684.8584  -18917139.98149 -14468573.77747  20305683.9764   20305691.7094
      1083.5064        844.2914
  21945864.2024  -15886611.18449 -11903517.35846  21945864.2924   21945872.7484
       -86.0844        -67.0774
  24043373.2294   -2057796.76349  -1583735.87845  24043372.8044   24043391.5014
      3056.5634       2381.7274
  22887467.9364   -9646481.84749  -7238666.01246  22887469.1224   22887476.7864
     -1773.3464      -1381.8184
  22685673.0194  -10543035.86049  -8207375.76246  22685672.1644   22685682.4734
     -2318.8124      -1806.8764
  23258842.8684   -9289467.28549  -7218436.85545  23258843.5194   23258850.3994
      1779.4304       1386.5614
  24311059.6694   -3303972.06649  -2471297.41245  24311059.2864   24311070.4144
     -1112.2544       -866.6884
 03  4 11 18  3 58.0000000  0  8G24G10G 5G29G 4G 7G30G13
  21623552.3074  -16600953.67349 -12924911.28147  21623551.9164   21623559.7644
      -698.3264       -544.1544
  20305478.6634  -18918223.53349 -14469418.10147  20305477.7404   20305485.3494
      1082.9234        843.8384
  21945880.5844  -15886525.17449 -11903450.33746  21945880.1324   21945888.5094
       -86.6124        -67.4974
  24042791.4864   -2060853.73649  -1586117.92245  24042790.7974   24042809.8114
      3056.7554       2381.8714
  22887805.3814   -9644708.91449  -7237284.51146  22887806.2944   22887813.9704
     -1773.2424      -1381.7344
  22686114.2714  -10540717.21849  -8205569.03346  22686113.7294   22686124.3944
     -2319.1554      -1807.1304
  23258504.2604   -9291246.79949  -7219823.48845  23258504.6374   23258511.4814
      1778.9384       1386.1904
  24311271.2174   -3302859.85849  -2470430.75745  24311270.9144   24311282.1684
     -1112.8204       -867.1334
 03  4 11 18  3 59.0000000  0  8G24G10G 5G29G 4G 7G30G13
  21623685.1864  -16600255.61149 -12924367.33447  21623684.8564   21623692.5894
      -698.2644       -544.1024
  20305272.5974  -18919306.44649 -14470261.93147  20305271.7934   20305279.3044
      1082.4344        843.4574
  21945897.0814  -15886438.55449 -11903382.84546  21945896.6844   21945904.8164
       -87.0944        -67.8474
  24042209.7774   -2063910.71949  -1588499.97445  24042209.2134   24042228.3404
      3056.8424       2381.9414
  22888142.7314   -9642935.97349  -7235902.99846  22888143.1134   22888151.3874
     -1773.0864      -1381.6414
  22686555.5974  -10538398.18149  -8203762.00046  22686555.5224   22686565.7504
     -2319.4154      -1807.3404
  23258165.8224   -9293025.74049  -7221209.67645  23258166.2864   23258173.8444
      1778.4954       1385.8454
  24311482.7424   -3301747.06749  -2469563.65045  24311482.5904   24311493.9674
     -1113.1724       -867.4034
 03  4 11 18  4  0.0000000  0  8G24G10G 5G29G 4G 7G30G13
  21623818.0314  -16599557.55949 -12923823.39847  21623817.7174   21623825.2754
      -698.3294       -544.1514
  20305066.6104  -18920388.77749 -14471105.30247  20305065.7134   20305073.4264
      1081.7654        842.9304
  21945913.6954  -15886351.37649 -11903314.91646  21945913.2364   21945921.4004
       -87.7094        -68.3454
  24041627.9964   -2066967.80649  -1590882.10845  24041627.1704   24041646.2874
      3056.8514       2381.9534
  22888480.1114   -9641163.08149  -7234521.51746  22888480.4494   22888489.6344
     -1773.1454      -1381.6834
  22686996.9784  -10536078.83449  -8201954.71946  22686996.2434   22687007.2594
     -2319.8064      -1807.6474
  23257827.3564   -9294804.18349  -7222595.47745  23257827.6794   23257835.5104
      1777.9194       1385.3844
  24311694.6204   -3300633.74349  -2468696.12545  24311694.6044   24311705.6464
     -1113.8284       -867.9234
 03  4 11 18  4  1.0000000  0  8G24G10G 5G29G 4G 7G30G13
  21623950.8424  -16598859.45249 -12923279.42147  21623950.4094   21623958.4084
      -698.1934       -544.0454
  20304860.7504  -18921470.47749 -14471948.18547  20304859.6654   20304867.5844
      1081.3194        842.5914
  21945930.4224  -15886263.60849 -11903246.52746  21945929.4294   21945938.7094
       -88.1114        -68.6734
  24041046.1904   -2070024.95049  -1593264.28645  24041045.5114   24041064.5774
      3057.0764       2382.1244
  22888817.5284   -9639390.21849  -7233140.06446  22888817.9554   22888826.1734
     -1772.9184      -1381.4814
  22687438.4514  -10533759.09649  -8200147.13546  22687437.2694   22687449.5804
     -2320.0224      -1807.8004
  23257489.0564   -9296582.08049  -7223980.85245  23257489.0154   23257497.1804
      1777.5674       1385.1194
  24311906.6914   -3299519.88649  -2467828.18745  24311906.4334   24311918.3034
     -1114.2724       -868.2664
 03  4 11 18  4  2.0000000  0  8G24G10G 5G29G 4G 7G30G13
  21624083.6804  -16598161.37249 -12922735.46747  21624083.4184   21624091.1504
      -698.5144       -544.2944
  20304655.0024  -18922551.62249 -14472790.63647  20304654.0414   20304661.7894
      1080.4234        841.8944
  21945947.2334  -15886175.30449 -11903177.72146  21945946.3244   21945955.5344
       -89.0214        -69.3704
  24040464.3844   -2073082.22549  -1595646.56745  24040463.8384   24040482.9744
      3056.8284       2381.9314
  22889154.9714   -9637617.45249  -7231758.68946  22889155.4974   22889163.1904
     -1773.1984      -1381.7074
  22687879.9384  -10531439.06849  -8198339.32146  22687878.8174   22687890.3714
     -2320.6534      -1808.3004
  23257150.9104   -9298359.52349  -7225365.87345  23257150.7794   23257158.8874
      1776.7474       1384.4794
  24312118.7604   -3298405.51749  -2466959.85045  24312119.5184   24312129.9384
     -1115.0464       -868.8554
 03  4 11 18  4  3.0000000  0  8G24G10G 5G29G 4G 7G30G13
  21624216.5254  -16597463.24549 -12922191.46947  21624216.0144   21624223.7384
      -698.6654       -544.4194
  20304449.3934  -18923632.13549 -14473632.59447  20304448.4294   20304456.1814
      1079.7174        841.3374
  21945964.1934  -15886086.39349 -11903108.44146  21945963.6954   21945971.8704
       -89.7364        -69.9124
  24039882.5904   -2076139.56649  -1598028.89845  24039881.8154   24039901.2934
      3056.7224       2381.8474
  22889492.3854   -9635844.67749  -7230377.31146  22889492.1884   22889500.6564
     -1773.2614      -1381.7594
  22688321.4474  -10529118.65449  -8196531.21446  22688320.5764   22688332.4104
     -2321.1304      -1808.6564
  23256812.7044   -9300136.40649  -7226750.45945  23256812.7614   23256820.7064
      1776.1644       1384.0294
  24312330.9104   -3297290.59949  -2466091.08545  24312331.8714   24312341.8894
     -1115.6554       -869.3414
 03  4 11 18  4  4.0000000  0  8G24G10G 5G29G 4G 7G30G13
  21624349.3854  -16596764.99949 -12921647.38347  21624349.3564   21624356.9594
      -698.3024       -544.1344
  20304243.9104  -18924711.95349 -14474474.00647  20304242.9144   20304250.7844
      1079.4914        841.1554
  21945981.3064  -15885996.83049 -11903038.65646  21945980.7364   21945989.1454
       -89.8934        -70.0484
  24039300.7984   -2079196.94449  -1600411.25845  24039300.0604   24039319.4954
      3057.3864       2382.3664
  22889829.8024   -9634071.84049  -7228995.88446  22889830.5524   22889838.2284
     -1772.8394      -1381.4314
  22688763.0144  -10526797.81649  -8194722.77646  22688762.1644   22688773.4734
     -2321.0874      -1808.6294
  23256474.7704   -9301912.65449  -7228134.54845  23256475.0194   23256482.8614
      1775.9734       1383.8704
  24312543.2564   -3296175.03449  -2465221.81345  24312544.1674   24312554.1814
     -1115.8274       -869.4764
 03  4 11 18  4  5.0000000  0  8G24G10G 5G29G 4G 7G30G13
  21624482.2384  -16596066.79249 -12921103.32547  21624482.0864   21624490.0734
      -698.4414       -544.2344
  20304038.5404  -18925791.23249 -14475314.99847  20304037.3584   20304045.4174
      1078.7404        840.5724
  21945998.4864  -15885906.76249 -11902968.47346  21945997.9034   21946006.3824
       -90.5774        -70.5754
  24038718.9494   -2082254.43549  -1602793.70745  24038718.4814   24038737.2314
      3057.3484       2382.3414
  22890167.2324   -9632299.11349  -7227614.53646  22890167.9924   22890175.8364
     -1772.8824      -1381.4734
  22689204.6884  -10524476.67049  -8192914.09246  22689204.4774   22689215.6264
     -2321.5904      -1809.0414
  23256136.8214   -9303688.45849  -7229518.28745  23256137.0124   23256144.6304
      1775.2634       1383.3264
  24312755.5574   -3295058.98449  -2464352.16245  24312756.3204   24312766.8424
     -1116.5164       -870.0154
 03  4 11 18  4  6.0000000  0  8G24G10G 5G29G 4G 7G30G13
  21624615.1324  -16595368.47249 -12920559.18447  21624615.1604   21624623.2464
      -698.1224       -543.9834
  20303833.2924  -18926869.80449 -14476155.44547  20303832.3154   20303840.0764
      1078.4794        840.3794
  21946015.7864  -15885816.02349 -11902897.76846  21946014.8814   21946023.6224
       -90.8044        -70.7524
  24038137.1604   -2085311.92949  -1605176.15745  24038136.6724   24038155.1434
      3057.7504       2382.6544
  22890504.6634   -9630526.32949  -7226233.14246  22890505.0824   22890513.0914
     -1772.5354      -1381.1934
  22689646.3594  -10522155.09949  -8191105.07946  22689645.3894   22689656.4244
     -2321.5794      -1809.0084
  23255799.0854   -9305463.66249  -7230901.55945  23255799.4144   23255806.5574
      1775.1784       1383.2564
  24312967.9834   -3293942.31849  -2463482.03245  24312968.5764   24312979.0294
     -1116.8084       -870.2404
 03  4 11 18  4  7.0000000  0  8G24G10G 5G29G 4G 7G30G13
  21624747.9904  -16594670.22449 -12920015.09547  21624747.5234   21624755.8204
      -698.3694       -544.1864
  20303628.1504  -18927947.87949 -14476995.50547  20303627.1684   20303634.8804
      1077.6484        839.7274
  21946033.1724  -15885724.80549 -11902826.69346  21946032.0494   21946040.8174
       -91.6004        -71.3804
  24037555.2874   -2088369.64349  -1607558.78345  24037555.0684   24037573.2264
      3057.6244       2382.5574
  22890842.0474   -9628753.66249  -7224851.84946  22890842.0364   22890850.5474
     -1772.7264      -1381.3314
  22690088.0754  -10519833.24949  -8189295.86446  22690086.4344   22690098.5294
     -2322.1494      -1809.4414
  23255461.4314   -9307238.42849  -7232284.49145  23255461.7144   23255468.6434
      1774.4094       1382.6584
  24313180.5054   -3292825.21849  -2462611.56645  24313181.0214   24313191.3644
     -1117.4254       -870.7194
 03  4 11 18  4  8.0000000  0  8G24G10G 5G29G 4G 7G30G13
  21624880.8804  -16593971.91449 -12919470.95647  21624880.5564   21624888.4104
      -698.3214       -544.1464
  20303423.1084  -18929025.30249 -14477835.05347  20303422.1624   20303429.8034
      1077.1304        839.3204
  21946050.6464  -15885632.98249 -11902755.14246  21946049.9154   21946058.2064
       -92.1024        -71.7714
  24036973.4854   -2091427.41049  -1609941.44645  24036973.1334   24036991.5254
      3057.7294       2382.6364
  22891179.3354   -9626980.99649  -7223470.55246  22891179.9854   22891188.3354
     -1772.6284      -1381.2524
  22690529.8934  -10517511.01549  -8187486.33846  22690528.6324   22690540.3334
     -2322.4074      -1809.6714
  23255123.8214   -9309012.62449  -7233666.98045  23255124.2634   23255130.8784
      1773.9414       1382.2954
  24313393.0634   -3291707.51649  -2461740.63045  24313393.6434   24313403.8524
     -1117.9924       -871.1634
 03  4 11 18  4  9.0000000  0  8G24G10G 5G29G 4G 7G30G13
  21625013.7484  -16593273.62449 -12918926.83347  21625013.9684   21625021.2614
      -698.6064       -544.3634
  20303218.1614  -18930102.16149 -14478674.16247  20303217.2314   20303224.8534
      1076.2514        838.6314
  21946068.2314  -15885540.61849 -11902683.16246  21946067.7644   21946075.8974
       -92.9384        -72.4194
  24036391.6524   -2094485.24149  -1612324.15845  24036391.1704   24036409.9444
      3057.5854       2382.5204
  22891516.6004   -9625208.40349  -7222089.31246  22891517.1474   22891524.9464
     -1772.9214      -1381.4864
  22690971.8284  -10515188.45649  -8185676.54646  22690970.1294   22690983.4594
     -2323.1184      -1810.2164
  23254786.2644   -9310786.33449  -7235049.08845  23254786.2444   23254793.8634
      1773.1914       1381.7074
  24313605.7644   -3290589.32549  -2460869.31345  24313606.7244   24313616.6524
     -1118.7514       -871.7504
 03  4 11 18  4 10.0000000  0  8G24G10G 5G29G 4G 7G30G13
  21625146.6544  -16592575.25049 -12918382.64447  21625146.4244   21625154.2514
      -698.5654       -544.3434
  20303013.3684  -18931178.36049 -14479512.75847  20303012.3114   20303020.2614
      1075.7254        838.2334
  21946085.8984  -15885447.62349 -11902610.70046  21946085.2154   21946093.0034
       -93.4594        -72.8224
  24035809.7604   -2097543.14749  -1614706.92845  24035809.2314   24035828.0474
      3057.7034       2382.6104
  22891853.8694   -9623435.79649  -7220708.06146  22891854.3564   22891861.8344
     -1772.7924      -1381.3974
  22691413.8464  -10512865.51349  -8183866.46446  22691413.1724   22691424.4714
     -2323.3604      -1810.4044
  23254448.8034   -9312559.47449  -7236430.75645  23254449.0174   23254456.8354
      1772.7064       1381.3224
  24313818.5794   -3289470.52849  -2459997.52245  24313819.7074   24313829.4054
     -1119.2674       -872.1594
 03  4 11 18  4 11.0000000  0  8G24G10G 5G29G 4G 7G30G13
  21625279.5454  -16591876.83549 -12917838.42747  21625279.0344   21625287.1574
      -698.4654       -544.2604
  20302808.6784  -18932253.93249 -14480350.86747  20302807.8014   20302815.5974
      1075.2314        837.8484
  21946103.6974  -15885354.04349 -11902537.78946  21946102.6004   21946111.8354
       -93.9164        -73.1684
  24035227.9384   -2100601.10249  -1617089.73745  24035227.2304   24035246.1204
      3057.8684       2382.7404
  22892191.1584   -9621663.19449  -7219326.81546  22892191.4314   22892198.9924
     -1772.5934      -1381.2374
  22691855.9444  -10510542.19949  -8182056.09246  22691855.2594   22691866.5834
     -2323.5224      -1810.5284
  23254111.5214   -9314332.06549  -7237811.99345  23254111.6374   23254119.3854
      1772.3014       1381.0114
  24314031.4334   -3288351.18149  -2459125.30445  24314032.4854   24314042.0874
     -1119.6784       -872.4744
 03  4 11 18  4 12.0000000  0  8G24G10G 5G29G 4G 7G30G13
  21625412.4214  -16591178.43549 -12917294.22147  21625412.4144   21625419.5694
      -698.8114       -544.5254
  20302604.0994  -18933328.95249 -14481188.54247  20302603.0684   20302611.1954
      1074.3034        837.1134
  21946121.5864  -15885259.92949 -11902464.45346  21946120.5244   21946129.9624
       -94.7994        -73.8664
  24034645.9834   -2103659.20249  -1619472.65845  24034645.0154   24034664.3834
      3057.6254       2382.5524
  22892528.4394   -9619890.66449  -7217945.62946  22892528.6824   22892536.9024
     -1772.9504      -1381.5144
  22692298.1544  -10508218.56649  -8180245.47446  22692296.3944   22692309.3644
     -2324.2334      -1811.0984
  23253774.3424   -9316104.19149  -7239192.86745  23253773.7544   23253781.5854
      1771.4424       1380.3454
  24314244.6004   -3287231.35449  -2458252.71045  24314245.7624   24314255.2884
     -1120.4834       -873.1054
 03  4 11 18  4 13.0000000  0  8G24G10G 5G29G 4G 7G30G13
  21625545.3594  -16590479.96349 -12916749.95447  21625545.2694   21625552.4474
      -698.7604       -544.4924
  20302399.6504  -18934403.30849 -14482025.69947  20302398.7804   20302406.6464
      1073.7894        836.7174
  21946139.5884  -15885165.19249 -11902390.63346  21946138.9194   21946147.2844
       -95.2754        -74.2424
  24034064.0884   -2106717.33649  -1621855.60845  24034063.0164   24034082.3574
      3057.8754       2382.7454
  22892865.7454   -9618118.16349  -7216564.46346  22892866.1784   22892874.2044
     -1772.7264      -1381.3634
  22692740.3714  -10505894.52549  -8178434.54346  22692738.7084   22692750.9294
     -2324.5094      -1811.3164
  23253437.2874   -9317875.72049  -7240573.27845  23253436.5294   23253445.1174
      1770.9624       1379.9714
  24314457.7604   -3286110.92249  -2457379.64845  24314458.5964   24314468.8344
     -1120.9584       -873.4694
 03  4 11 18  4 14.0000000  0  8G24G10G 5G29G 4G 7G30G13
  21625678.2814  -16589781.51549 -12916205.70747  21625677.8874   21625685.5754
      -698.9924       -544.6754
  20302195.3034  -18935477.10349 -14482862.41847  20302194.1724   20302202.3064
      1072.9474        836.0634
  21946157.6414  -15885069.92449 -11902316.39646  21946156.9084   21946165.5554
       -96.0954        -74.8804
  24033482.1184   -2109775.61549  -1624238.66945  24033481.1664   24033500.4724
      3057.7364       2382.6404
  22893203.0774   -9616345.72649  -7215183.33546  22893203.1984   22893210.7814
     -1772.9764      -1381.5284
  22693182.6304  -10503570.19049  -8176623.37646  22693181.7264   22693192.6854
     -2325.0754      -1811.7474
  23253100.3734   -9319646.79349  -7241953.33945  23253099.7144   23253108.0344
      1770.3094       1379.4634
  24314671.0144   -3284989.97449  -2456506.18445  24314671.7714   24314682.1284
     -1121.8144       -874.1364
 03  4 11 18  4 15.0000000  0  8G24G10G 5G29G 4G 7G30G13
  21625811.1674  -16589082.98049 -12915661.39547  21625810.6904   21625819.0244
      -698.8974       -544.5844
  20301991.0774  -18936550.23549 -14483698.62747  20301990.1294   20301998.0534
      1072.4924        835.7104
  21946175.8644  -15884974.02449 -11902241.67546  21946175.0964   21946183.9124
       -96.5364        -75.2194
  24032900.2024   -2112833.87649  -1626621.71645  24032899.1534   24032918.4564
      3057.8424       2382.7204
  22893540.4674   -9614573.23249  -7213802.16846  22893541.5364   22893548.9034
     -1772.8344      -1381.4404
  22693624.9494  -10501245.42449  -8174811.88046  22693623.5614   22693635.7054
     -2325.3714      -1811.9604
  23252763.5904   -9321417.26849  -7243332.92945  23252762.5234   23252770.7724
      1769.8434       1379.1014
  24314884.4914   -3283868.48449  -2455632.29845  24314885.5364   24314895.6214
     -1122.2214       -874.4594
 03  4 11 18  4 16.0000000  0  8G24G10G 5G29G 4G 7G30G13
  21625944.0504  -16588384.44949 -12915117.08647  21625943.7494   21625951.7254
      -699.1304       -544.7824
  20301786.9554  -18937622.78849 -14484534.38147  20301786.1284   20301793.8904
      1071.6674        835.0604
  21946194.1814  -15884877.57249 -11902166.51746  21946193.7374   21946201.8114
       -97.3224        -75.8414
  24032318.1184   -2115892.28749  -1629004.88345  24032317.5254   24032336.2844
      3057.8114       2382.7054
  22893877.7364   -9612800.83149  -7212421.08646  22893878.6234   22893885.8464
     -1772.9464      -1381.5014
  22694067.2874  -10498920.34649  -8173000.13546  22694065.9664   22694078.5604
     -2325.8714      -1812.3784
  23252426.8884   -9323187.24849  -7244712.13745  23252425.9584   23252433.8174
      1769.1104       1378.5304
  24315098.1304   -3282746.40849  -2454757.95445  24315099.0214   24315109.0494
     -1122.9344       -875.0114
 03  4 11 18  4 17.0000000  0  8G24G10G 5G29G 4G 7G30G13
  21626076.9724  -16587685.85549 -12914572.72747  21626076.5214   21626084.7044
      -699.0564       -544.7254
  20301582.9404  -18938694.69849 -14485369.63447  20301582.1414   20301589.9384
      1071.1584        834.6584
  21946212.6154  -15884780.51949 -11902090.89746  21946212.2224   21946220.2314
       -97.8044        -76.2194
  24031736.0774   -2118950.74449  -1631388.08445  24031735.4884   24031754.4104
      3058.0794       2382.9014
  22894215.0284   -9611028.41949  -7211039.98946  22894214.8574   22894222.8914
     -1772.8194      -1381.4344
  22694509.7754  -10496594.85249  -8171188.06546  22694509.3274   22694521.2084
     -2326.1514      -1812.5824
  23252090.2104   -9324956.66149  -7246090.90145  23252089.4434   23252097.6944
      1768.7284       1378.2244
  24315311.6964   -3281623.79349  -2453883.18945  24315312.7644   24315322.6594
     -1123.4304       -875.4014
 03  4 11 18  4 18.0000000  0  8G24G10G 5G29G 4G 7G30G13
  21626209.8884  -16586987.23649 -12914028.35147  21626209.6924   21626217.8264
      -699.0634       -544.7244
  20301379.0744  -18939765.99749 -14486204.41147  20301378.0384   20301385.9504
      1070.6004        834.2334
  21946231.2304  -15884682.88749 -11902014.81846  21946230.7234   21946239.1534
       -98.3184        -76.6134
  24031153.9404   -2122009.29049  -1633771.35445  24031153.9054   24031172.5374
      3058.1574       2382.9674
  22894552.3034   -9609256.03449  -7209658.90446  22894551.9714   22894560.2514
     -1772.7864      -1381.3974
  22694952.2804  -10494269.03349  -8169375.74446  22694950.6634   22694963.4224
     -2326.4824      -1812.8464
  23251753.6544   -9326725.54849  -7247469.25645  23251753.0414   23251761.6794
      1768.2424       1377.8464
  24315525.3774   -3280500.62049  -2453007.99245  24315526.2614   24315536.6314
     -1123.8074       -875.6854
 03  4 11 18  4 19.0000000  0  8G24G10G 5G29G 4G 7G30G13
  21626342.8104  -16586288.54549 -12913483.91947  21626342.7064   21626350.6524
      -698.8904       -544.5874
  20301175.3514  -18940836.64449 -14487038.68147  20301174.2014   20301182.2524
      1070.1614        833.8884
  21946249.9314  -15884584.62249 -11901938.25046  21946249.0964   21946257.5504
       -98.7494        -76.9344
  24030571.9674   -2125067.83949  -1636154.62845  24030571.8304   24030589.9904
      3058.4194       2383.1734
  22894889.5504   -9607483.64649  -7208277.82446  22894889.4594   22894897.3184
     -1772.5394      -1381.1964
  22695394.8714  -10491942.80249  -8167563.10246  22695394.1784   22695406.8244
     -2326.5874      -1812.9334
  23251417.2134   -9328493.85849  -7248847.15745  23251415.7004   23251425.0574
      1767.8674       1377.5544
  24315739.1154   -3279376.86549  -2452132.34345  24315740.0734   24315749.7624
     -1124.2534       -876.0344
 03  4 11 18  4 20.0000000  0  8G24G10G 5G29G 4G 7G30G13
  21626475.7234  -16585589.96449 -12912939.56847  21626475.8134   21626483.4644
      -699.5164       -545.0874
  20300971.6834  -18941906.82549 -14487872.58447  20300970.9134   20300978.8564
      1068.9624        832.9554
  21946268.7274  -15884485.92949 -11901861.34446  21946268.4854   21946276.7604
       -99.8824        -77.8304
  24029989.8724   -2128126.60949  -1638538.07545  24029989.8874   24030007.6894
      3057.9784       2382.8294
  22895226.7334   -9605711.41249  -7206896.87046  22895226.0854   22895234.9254
     -1773.1474      -1381.6784
  22695837.5424  -10489616.36049  -8165750.30046  22695838.1454   22695849.6144
     -2327.5434      -1813.6594
  23251080.8004   -9330261.79249  -7250224.76845  23251079.4344   23251088.3624
      1766.7904       1376.7214
  24315952.9794   -3278252.74249  -2451256.40145  24315953.8454   24315963.6854
     -1125.2364       -876.8094
 03  4 11 18  4 21.0000000  0  8G24G10G 5G29G 4G 7G30G13
  21626608.7274  -16584891.22649 -12912395.10147  21626608.6754   21626616.4224
      -699.2314       -544.8524
  20300768.1654  -18942976.26449 -14488705.91447  20300767.4964   20300775.2464
      1068.6804        832.7374
  21946287.6754  -15884386.52449 -11901783.89246  21946286.9264   21946296.2074
      -100.1704        -78.0544
  24029407.8154   -2131185.36049  -1640921.50645  24029407.8624   24029425.7504
      3058.2824       2383.0684
  22895563.9394   -9603939.08649  -7205515.83746  22895564.2154   22895571.1064
     -1772.7634      -1381.3664
  22696280.2644  -10487289.41549  -8163937.10646  22696279.8774   22696291.9024
     -2327.5764      -1813.6874
  23250744.4584   -9332029.06149  -7251601.85845  23250743.0414   23250751.4014
      1766.5474       1376.5234
  24316167.0304   -3277127.89049  -2450379.89545  24316168.2164   24316178.0174
     -1125.5414       -877.0494
 03  4 11 18  4 22.0000000  0  8G24G10G 5G29G 4G 7G30G13
  21626741.6864  -16584192.41849 -12911850.57547  21626741.4034   21626749.6584
      -698.9374       -544.6334
  20300564.7824  -18944045.05049 -14489538.73747  20300564.1704   20300571.7324
      1068.3834        832.5084
  21946306.6844  -15884286.49549 -11901705.94946  21946306.1084   21946315.1424
      -100.4414        -78.2594
  24028825.7844   -2134244.16049  -1643304.97545  24028825.7734   24028843.8154
      3058.6954       2383.3864
  22895901.1654   -9602166.75249  -7204134.79946  22895901.2724   22895909.1864
     -1772.4344      -1381.1464
  22696723.0994  -10484962.06849  -8162123.59246  22696722.0334   22696734.4974
     -2327.6604      -1813.7534
  23250408.2274   -9333795.75649  -7252978.50245  23250406.5714   23250414.8164
      1766.3254       1376.3544
  24316381.0574   -3276002.47549  -2449502.94945  24316382.1874   24316392.0314
     -1125.8194       -877.2644
 03  4 11 18  4 23.0000000  0  8G24G10G 5G29G 4G 7G30G13
  21626874.6654  -16583493.68849 -12911306.10847  21626874.8194   21626882.6604
      -699.2444       -544.8634
  20300361.5144  -18945113.32849 -14490371.15747  20300360.6374   20300368.4954
      1067.4814        831.8014
  21946325.8014  -15884185.99049 -11901627.62946  21946325.4824   21946333.8694
      -101.2734        -78.9244
  24028243.6984   -2137303.09149  -1645688.54845  24028243.2764   24028262.0584
      3058.4844       2383.2254
  22896238.3854   -9600394.55549  -7202753.86946  22896239.5304   22896248.1744
     -1772.6644      -1381.2734
  22697165.9724  -10482634.47449  -8160309.88546  22697165.8604   22697176.9664
     -2328.3044      -1814.2624
  23250071.9834   -9335562.04349  -7254354.82645  23250070.6454   23250078.9564
      1765.5114       1375.7234
  24316595.4984   -3274876.60649  -2448625.64645  24316596.5984   24316606.2084
     -1126.5964       -877.8644
 03  4 11 18  4 24.0000000  0  8G24G10G 5G29G 4G 7G30G13
  21627007.6674  -16582794.86449 -12910761.56947  21627007.4604   21627015.6154
      -699.0834       -544.7374
  20300158.3414  -18946180.92949 -14491203.05347  20300157.4824   20300165.4154
      1067.0934        831.5054
  21946344.9924  -15884084.83849 -11901548.81046  21946344.4364   21946353.1174
      -101.6734        -79.2204
  24027661.6084   -2140362.09949  -1648072.18045  24027661.1214   24027679.6444
      3058.7634       2383.4354
  22896575.6784   -9598622.30649  -7201372.89646  22896576.9324   22896583.9064
     -1772.4474      -1381.1224
  22697608.9464  -10480306.46049  -8158495.85446  22697609.8954   22697619.8444
     -2328.4744      -1814.3894
  23249735.9584   -9337327.72249  -7255730.68545  23249734.6244   23249743.1744
      1765.1894       1375.4744
  24316809.8864   -3273750.14049  -2447747.88145  24316811.1904   24316820.6134
     -1126.8924       -878.0964
 03  4 11 18  4 25.0000000  0  8G24G10G 5G29G 4G 7G30G13
  21627140.6904  -16582095.99249 -12910216.99447  21627140.4254   21627148.6604
      -698.9094       -544.6014
  20299955.3194  -18947247.90949 -14492034.46547  20299954.4574   20299962.3884
      1066.6574        831.1604
  21946364.3394  -15883983.10249 -11901469.54346  21946363.7684   21946372.3894
      -102.0524        -79.5144
  24027079.4754   -2143421.15949  -1650455.85345  24027079.0574   24027097.5824
      3059.0444       2383.6614
  22896912.9784   -9596850.08249  -7199991.94046  22896913.6264   22896920.7954
     -1772.1994      -1380.9554
  22698051.9704  -10477978.09049  -8156681.54946  22698051.5754   22698063.3714
     -2328.6034      -1814.4864
  23249400.0644   -9339092.83549  -7257106.10345  23249398.5744   23249407.6904
      1764.7914       1375.1604
  24317024.3394   -3272623.11249  -2446869.67745  24317025.7384   24317035.3114
     -1127.1994       -878.3364
 03  4 11 18  4 26.0000000  0  8G24G10G 5G29G 4G 7G30G13
  21627273.7034  -16581397.11649 -12909672.41947  21627273.1444   21627281.3894
      -698.9474       -544.6334
  20299752.3644  -18948314.30849 -14492865.42447  20299751.6394   20299759.5014
      1066.0224        830.6674
  21946383.7794  -15883880.81649 -11901389.84746  21946383.2304   21946391.6514
      -102.6794        -79.9994
  24026497.3264   -2146480.34649  -1652839.62545  24026497.0584   24026515.1914
      3059.1714       2383.7604
  22897250.2294   -9595077.87849  -7198611.00546  22897250.1804   22897259.0524
     -1772.2554      -1380.9854
  22698495.1044  -10475649.36049  -8154866.96146  22698493.9424   22698507.8984
     -2329.0314      -1814.8194
  23249064.1774   -9340857.46249  -7258481.13945  23249063.5294   23249071.3274
      1764.2794       1374.7774
  24317238.8294   -3271495.55449  -2445991.05945  24317240.3574   24317249.8734
     -1127.9304       -878.9054
 03  4 11 18  4 27.0000000  0  8G24G10G 5G29G 4G 7G30G13
  21627406.7154  -16580698.20149 -12909127.81047  21627406.1404   21627414.6664
      -698.9044       -544.6074
  20299549.5594  -18949380.08849 -14493695.90347  20299548.8604   20299556.5984
      1065.5254        830.2774
  21946403.4034  -15883777.94749 -11901309.69246  21946403.0454   21946411.6214
      -103.1424        -80.3774
  24025915.1364   -2149539.57149  -1655223.42645  24025914.8714   24025933.2244
      3059.3454       2383.8974
  22897587.4324   -9593305.72049  -7197230.11446  22897587.5414   22897595.3254
     -1772.0994      -1380.8574
  22698938.2994  -10473320.28049  -8153052.10746  22698937.1624   22698949.8364
     -2329.2694      -1814.9974
  23248728.4424   -9342621.55249  -7259855.75445  23248727.6584   23248735.2974
      1763.8374       1374.4134
  24317453.5634   -3270367.44149  -2445112.01345  24317454.9714   24317464.3884
     -1128.3904       -879.2624
 03  4 11 18  4 28.0000000  0  8G24G10G 5G29G 4G 7G30G13
  21627539.7454  -16579999.27649 -12908583.18947  21627539.3064   21627547.6394
      -698.9714       -544.6534
  20299346.8824  -18950445.26949 -14494525.91247  20299346.0714   20299353.9184
      1064.8614        829.7604
  21946423.1054  -15883674.50449 -11901229.08546  21946422.2904   21946431.2964
      -103.7224        -80.8154
  24025332.9114   -2152598.91749  -1657607.32045  24025332.7514   24025351.0614
      3059.3424       2383.8904
  22897924.6754   -9591533.60549  -7195849.24246  22897924.3904   22897932.1444
     -1772.1004      -1380.8774
  22699381.6034  -10470990.84849  -8151236.96346  22699381.4444   22699393.7554
     -2329.6294      -1815.2904
  23248392.7904   -9344385.14249  -7261229.97845  23248392.0074   23248399.8724
      1763.3264       1374.0144
  24317668.3134   -3269238.79549  -2444232.54845  24317669.7454   24317679.0944
     -1128.9514       -879.7024
 03  4 11 18  4 29.0000000  0  8G24G10G 5G29G 4G 7G30G13
  21627672.7654  -16579300.33249 -12908038.56147  21627672.5554   21627680.7384
      -699.1324       -544.7834
  20299144.3034  -18951509.85349 -14495355.45347  20299143.5724   20299151.1694
      1064.1114        829.1754
  21946442.9414  -15883570.49149 -11901148.03146  21946442.3144   21946450.4814
      -104.4824        -81.4154
  24024750.8004   -2155658.34049  -1659991.27345  24024750.9544   24024768.8764
      3059.2884       2383.8494
  22898261.9084   -9589761.52049  -7194468.40146  22898262.1584   22898269.1914
     -1772.2554      -1380.9544
  22699825.0284  -10468661.07749  -8149421.57146  22699824.4474   22699836.9694
     -2330.1524      -1815.6884
  23248057.2814   -9346148.18649  -7262603.78045  23248056.8244   23248064.2894
      1762.5664       1373.4324
  24317883.2764   -3268109.63749  -2443352.68545  24317885.0434   24317893.8204
     -1129.5664       -880.1864
 03  4 11 18  4 30.0000000  0  8G24G10G 5G29G 4G 7G30G13
  21627805.7844  -16578601.40349 -12907493.94247  21627805.3094   21627813.3974
      -699.3784       -544.9704
  20298941.8474  -18952573.86149 -14496184.55047  20298941.0864   20298948.8804
      1063.2754        828.5254
  21946462.8984  -15883465.94649 -11901066.56746  21946462.1104   21946470.7904
      -105.2764        -82.0364
  24024168.5874   -2158717.86649  -1662375.30745  24024170.5214   24024187.0064
      3059.0534       2383.6674
  22898599.0564   -9587989.51449  -7193087.62146  22898599.5644   22898607.2104
     -1772.4494      -1381.1414
  22700268.4274  -10466330.98349  -8147605.91846  22700267.4364   22700280.7094
     -2330.7434      -1816.1674
  23247721.8694   -9347910.77149  -7263977.22345  23247722.0534   23247728.9464
      1761.8274       1372.8554
  24318098.3134   -3266979.95349  -2442472.41345  24318100.2534   24318108.9914
     -1130.3394       -880.7854
 03  4 11 18  4 31.0000000  0  8G24G10G 5G29G 4G 7G30G13
  21627938.8104  -16577902.42649 -12906949.28547  21627938.5904   21627946.5154
      -699.6334       -545.1654
  20298739.5194  -18953637.25049 -14497013.16447  20298738.5304   20298746.3104
      1062.4304        827.8754
  21946482.9534  -15883360.80549 -11900984.64446  21946482.0704   21946490.7704
      -106.0874        -82.6454
  24023586.4014   -2161777.49349  -1664759.42145  24023588.1364   24023604.7104
      3058.9744       2383.6044
  22898936.1164   -9586217.52449  -7191706.85146  22898935.7074   22898944.9114
     -1772.6144      -1381.2524
  22700711.9304  -10464000.52749  -8145789.97746  22700711.4914   22700723.3294
     -2331.3254      -1816.6214
  23247386.4224   -9349672.79149  -7265350.22845  23247386.3384   23247393.6244
      1761.1094       1372.2994
  24318313.4984   -3265849.71649  -2441591.70945  24318315.4174   24318324.4334
     -1131.2424       -881.4894
 03  4 11 18  4 32.0000000  0  8G24G10G 5G29G 4G 7G30G13
  21628071.9084  -16577203.32749 -12906404.53347  21628071.6294   21628079.3734
      -699.3184       -544.9184
  20298537.3124  -18954699.93749 -14497841.23247  20298536.5414   20298544.1804
      1062.1744        827.6684
  21946503.1834  -15883254.99149 -11900902.19746  21946502.7184   21946511.1404
      -106.3054        -82.8294
  24023004.1414   -2164837.10349  -1667143.52345  24023005.7734   24023022.1724
      3059.4774       2383.9974
  22899273.3184   -9584445.45949  -7190326.02346  22899273.1024   22899282.2504
     -1772.2644      -1380.9774
  22701155.5204  -10461669.62449  -8143973.69546  22701155.4624   22701167.3794
     -2331.2924      -1816.5844
  23247051.1614   -9351434.18549  -7266722.74745  23247051.7084   23247058.4864
      1760.9454       1372.1764
  24318528.6684   -3264718.86149  -2440710.52345  24318530.2864   24318539.8234
     -1131.3234       -881.5484
 03  4 11 18  4 33.0000000  0  8G24G10G 5G29G 4G 7G30G13
  21628204.9654  -16576504.20749 -12905859.76547  21628204.5354   21628212.5124
      -699.2774       -544.8874
  20298335.2114  -18955762.03149 -14498668.83647  20298334.4194   20298341.9824
      1061.6494        827.2544
  21946523.4534  -15883148.62749 -11900819.31146  21946522.9514   21946530.7324
      -106.8124        -83.2414
  24022421.8764   -2167896.79249  -1669527.68745  24022423.1934   24022439.9544
      3059.6354       2384.1214
  22899610.4804   -9582673.44049  -7188945.22946  22899610.7024   22899619.6264
     -1772.1634      -1380.9134
  22701599.1494  -10459338.37949  -8142157.13946  22701598.5764   22701610.9774
     -2331.6104      -1816.8344
  23246715.9504   -9353195.06149  -7268094.85745  23246716.1334   23246723.3844
      1760.4264       1371.7504
  24318744.0024   -3263587.46149  -2439828.91845  24318745.1324   24318755.3114
     -1131.7864       -881.9074
 03  4 11 18  4 34.0000000  0  8G24G10G 5G29G 4G 7G30G13
  21628338.0024  -16575805.08249 -12905314.98947  21628337.6944   21628345.6984
      -699.2574       -544.8754
  20298133.2434  -18956823.51649 -14499495.96847  20298132.3894   20298140.1614
      1061.0834        826.8174
  21946543.8564  -15883041.68349 -11900735.98146  21946542.5874   21946550.9194
      -107.3374        -83.6384
  24021839.5814   -2170956.56049  -1671911.91145  24021841.0204   24021857.8124
      3059.7694       2384.2264
  22899947.6374   -9580901.47349  -7187564.47246  22899947.9364   22899956.7924
     -1772.0564      -1380.8294
  22702042.8414  -10457006.77949  -8140340.31846  22702041.6144   22702054.7934
     -2331.9494      -1817.1124
  23246380.7794   -9354955.42249  -7269466.56645  23246381.9694   23246388.6324
      1759.9444       1371.3754
  24318959.1854   -3262455.52749  -2438946.89345  24318960.1854   24318970.4954
     -1132.3384       -882.3384
 03  4 11 18  4 35.0000000  0  8G24G10G 5G29G 4G 7G30G13
  21628471.0464  -16575105.92949 -12904770.19647  21628470.7884   21628478.6324
      -699.2774       -544.8904
  20297931.3854  -18957884.41849 -14500322.64347  20297930.2354   20297938.4104
      1060.4774        826.3414
  21946564.3444  -15882934.18649 -11900652.22346  21946563.3224   21946571.4264
      -107.8964        -84.0834
  24021257.2374   -2174016.44249  -1674296.22245  24021258.2544   24021275.4734
      3059.7974       2384.2474
  22900284.8434   -9579129.54249  -7186183.75846  22900285.5084   22900293.8824
     -1772.0434      -1380.7974
  22702486.6064  -10454674.83449  -8138523.23146  22702485.1024   22702498.4704
     -2332.2424      -1817.3284
  23246045.7624   -9356715.27049  -7270837.87445  23246047.2424   23246052.8154
      1759.4524       1370.9974
  24319174.6334   -3261323.05649  -2438064.45045  24319175.7854   24319185.6744
     -1132.7894       -882.6854
 03  4 11 18  4 36.0000000  0  8G24G10G 5G29G 4G 7G30G13
  21628604.1004  -16574406.72249 -12904225.36247  21628603.7904   21628611.6404
      -699.1974       -544.8334
  20297729.6384  -18958944.66849 -14501148.81347  20297728.8004   20297736.6774
      1060.0044        825.9724
  21946584.9524  -15882826.07049 -11900567.98346  21946583.9194   21946592.2164
      -108.3544        -84.4224
  24020674.9214   -2177076.36549  -1676680.56445  24020675.7134   24020693.1114
      3059.9854       2384.3894
  22900622.0314   -9577357.61749  -7184803.03446  22900622.7854   22900630.9884
     -1771.8434      -1380.6694
  22702930.4354  -10452342.48649  -8136705.82346  22702929.6104   22702942.1294
     -2332.5324      -1817.5624
  23245710.8474   -9358474.56049  -7272208.74945  23245712.4064   23245718.5014
      1759.0974       1370.7304
  24319390.1914   -3260190.00349  -2437181.55145  24319390.8364   24319401.5894
     -1133.2944       -883.0924
 03  4 11 18  4 37.0000000  0  8G24G10G 5G29G 4G 7G30G13
  21628737.1534  -16573707.50049 -12903680.51447  21628736.7894   21628744.7204
      -699.0904       -544.7464
  20297528.0304  -18960004.31849 -14501974.51147  20297526.9824   20297534.8814
      1059.4774        825.5684
  21946605.6574  -15882717.39249 -11900483.29246  21946605.3194   21946612.4664
      -108.8404        -84.8164
  24020092.5314   -2180136.40149  -1679064.99445  24020093.0284   24020110.6604
      3060.2434       2384.5924
  22900959.2264   -9575585.71749  -7183422.33746  22900960.0864   22900968.1644
     -1771.7704      -1380.5874
  22703374.3424  -10450009.80849  -8134888.16146  22703374.3344   22703385.5154
     -2332.7274      -1817.7214
  23245376.0594   -9360233.32949  -7273579.21845  23245377.1054   23245383.8014
      1758.6284       1370.3584
  24319605.9354   -3259056.42649  -2436298.24545  24319606.8634   24319617.5774
     -1133.6974       -883.3994
 03  4 11 18  4 38.0000000  0  8G24G10G 5G29G 4G 7G30G13
  21628870.2244  -16573008.29749 -12903135.67947  21628869.6474   21628878.0994
      -699.4034       -544.9864
  20297326.4924  -18961063.41949 -14502799.78347  20297325.5314   20297333.3464
      1058.6114        824.8924
  21946626.4064  -15882608.19149 -11900398.20046  21946625.8834   21946633.7994
      -109.7054        -85.4924
  24019510.2274   -2183196.54949  -1681449.51145  24019510.6174   24019528.2954
      3060.0104       2384.4104
  22901296.4354   -9573813.90949  -7182041.70646  22901296.8324   22901305.4634
     -1771.9984      -1380.7714
  22703818.2864  -10447676.83849  -8133070.26846  22703817.3464   22703830.5284
     -2333.3574      -1818.1864
  23245041.3674   -9361991.64149  -7274949.33445  23245041.7974   23245049.3224
      1757.8194       1369.7294
  24319821.6474   -3257922.35749  -2435414.55745  24319822.1114   24319833.3174
     -1134.5274       -884.0384
 03  4 11 18  4 39.0000000  0  8G24G10G 5G29G 4G 7G30G13
  21629003.3194  -16572309.00449 -12902590.77447  21629003.0394   21629010.6564
      -699.3424       -544.9444
  20297125.0774  -18962121.84649 -14503624.52847  20297124.2204   20297131.9254
      1058.0724        824.4724
  21946647.3754  -15882498.34649 -11900312.60446  21946646.0784   21946654.6124
      -110.1864        -85.8734
  24018927.9274   -2186256.68449  -1683834.02045  24018928.4404   24018946.0224
      3060.0844       2384.4694
  22901633.6614   -9572042.06149  -7180661.05346  22901633.8324   22901641.7844
     -1771.8854      -1380.6694
  22704262.3744  -10445343.44749  -8131252.03946  22704262.6604   22704274.6464
     -2333.6474      -1818.4204
  23244706.8354   -9363749.35249  -7276318.97845  23244706.7764   23244714.0974
      1757.4214       1369.4244
  24320037.5744   -3256787.69649  -2434530.40545  24320037.7894   24320049.3184
     -1134.9404       -884.3704
 03  4 11 18  4 40.0000000  0  8G24G10G 5G29G 4G 7G30G13
  21629136.4294  -16571609.70249 -12902045.86847  21629135.9034   21629144.0124
      -699.3144       -544.9084
  20296923.8114  -18963179.67749 -14504448.81447  20296922.8684   20296930.5024
      1057.5334        824.0554
  21946668.4074  -15882387.93649 -11900226.58146  21946667.5034   21946675.7444
      -110.7234        -86.2564
  24018345.5634   -2189316.94349  -1686218.62645  24018345.6374   24018363.7244
      3060.2564       2384.6014
  22901970.8924   -9570270.28549  -7179280.44446  22901971.3274   22901979.1814
     -1771.7984      -1380.6234
  22704706.4954  -10443009.69449  -8129433.53746  22704706.3304   22704718.1844
     -2333.9674      -1818.6694
  23244372.3254   -9365506.54049  -7277688.21845  23244371.8164   23244380.2744
      1756.9304       1369.0334
  24320253.6274   -3255652.47749  -2433645.81845  24320253.2574   24320266.7094
     -1135.4464       -884.7594
 03  4 11 18  4 41.0000000  0  8G24G10G 5G29G 4G 7G30G13
  21629269.4914  -16570910.36249 -12901500.93247  21629269.0964   21629276.8944
      -699.3874       -544.9764
  20296722.6514  -18964236.88449 -14505272.61347  20296721.6554   20296729.3674
      1056.8514        823.5184
  21946689.5814  -15882276.93949 -11900140.09646  21946689.1384   21946696.8434
      -111.3444        -86.7544
  24017763.2704   -2192377.28449  -1688603.29745  24017763.0674   24017781.4384
      3060.2564       2384.6044
  22902308.1074   -9568498.50849  -7177899.84046  22902308.1654   22902316.4434
     -1771.8614      -1380.6714
  22705150.7204  -10440675.58649  -8127614.76346  22705150.8484   22705162.0554
     -2334.3964      -1819.0114
  23244037.9694   -9367263.21449  -7279057.05645  23244037.8044   23244046.3194
      1756.3884       1368.6224
  24320469.7524   -3254516.70849  -2432760.80545  24320469.2324   24320482.8954
     -1136.0774       -885.2504
 03  4 11 18  4 42.0000000  0  8G24G10G 5G29G 4G 7G30G13
  21629402.5604  -16570210.96049 -12900955.93847  21629402.0444   21629410.2144
      -699.2004       -544.8394
  20296521.6264  -18965293.45349 -14506095.91047  20296520.5154   20296528.3324
      1056.4764        823.2284
  21946710.8914  -15882165.34149 -11900053.13846  21946709.9434   21946717.9584
      -111.6654        -87.0144
  24017180.8924   -2195437.64349  -1690987.98045  24017180.5764   24017198.7404
      3060.6454       2384.9064
  22902645.2604   -9566726.74849  -7176519.25046  22902644.9304   22902653.8514
     -1771.5554      -1380.4344
  22705594.9854  -10438341.10749  -8125795.69546  22705594.5444   22705606.2784
     -2334.4874      -1819.0784
  23243703.7054   -9369019.28149  -7280425.42045  23243703.6434   23243712.4324
      1756.0344       1368.3314
  24320685.9904   -3253380.36949  -2431875.34645  24320684.6724   24320699.1834
     -1136.3124       -885.4324
 03  4 11 18  4 43.0000000  0  8G24G10G 5G29G 4G 7G30G13
  21629535.6024  -16569511.61949 -12900410.99547  21629535.2594   21629543.2094
      -699.5414       -545.0994
  20296320.6444  -18966349.50049 -14506918.79947  20296319.5264   20296327.4424
      1055.5404        822.4954
  21946732.2704  -15882053.24849 -11899965.79046  21946731.3344   21946739.0754
      -112.5894        -87.7334
  24016598.4874   -2198498.16449  -1693372.78845  24016598.1954   24016616.3674
      3060.3264       2384.6544
  22902982.4124   -9564955.09549  -7175138.73946  22902982.5474   22902990.3784
     -1771.8134      -1380.6214
  22706039.2674  -10436006.33549  -8123976.39046  22706038.9264   22706050.0234
     -2335.1854      -1819.6254
  23243369.5944   -9370774.92849  -7281793.45645  23243368.7434   23243378.2564
      1755.2214       1367.7094
  24320902.2304   -3252243.58249  -2430989.53545  24320901.4424   24320915.1824
     -1137.2254       -886.1574
 03  4 11 18  4 44.0000000  0  8G24G10G 5G29G 4G 7G30G13
  21629668.6874  -16568812.20349 -12899865.99647  21629668.0294   21629676.5574
      -699.7444       -545.2524
  20296119.7834  -18967404.90149 -14507741.18947  20296118.5204   20296126.3644
      1054.7974        821.9204
  21946753.7394  -15881940.53249 -11899877.96446  21946752.8184   21946759.8394
      -113.2984        -88.2904
  24016016.0904   -2201558.76749  -1695757.66345  24016015.7504   24016034.1264
      3060.3484       2384.6744
  22903319.5964   -9563183.42849  -7173758.23146  22903320.1364   22903327.8294
     -1771.9714      -1380.7324
  22706483.6514  -10433671.19049  -8122156.81046  22706483.5614   22706494.5234
     -2335.6444      -1819.9864
  23243035.5604   -9372529.99449  -7283161.04145  23243034.8294   23243044.0214
      1754.5104       1367.1454
  24321118.6444   -3251106.19449  -2430103.25745  24321117.3024   24321131.8734
     -1137.8794       -886.6634
 03  4 11 18  4 45.0000000  0  8G24G10G 5G29G 4G 7G30G13
  21629801.7604  -16568112.74149 -12899320.96647  21629801.1514   21629809.5584
      -699.7224       -545.2304
  20295919.0474  -18968459.65949 -14508563.08147  20295918.0984   20295925.9394
      1054.2324        821.4764
  21946775.3014  -15881827.21749 -11899789.66746  21946774.7154   21946781.9894
      -113.8444        -88.7024
  24015433.6174   -2204619.40849  -1698142.56645  24015433.2814   24015451.7664
      3060.4354       2384.7414
  22903656.7754   -9561411.76849  -7172377.73046  22903658.0844   22903665.0844
     -1771.8724      -1380.6574
  22706928.0444  -10431335.64949  -8120336.91546  22706928.7854   22706939.0694
     -2335.9594      -1820.2214
  23242701.6544   -9374284.52649  -7284528.20845  23242701.0624   23242710.4894
      1754.0374       1366.7734
  24321335.0454   -3249968.24449  -2429216.54345  24321333.8694   24321348.1304
     -1138.3604       -887.0334
 03  4 11 18  4 46.0000000  0  8G24G10G 5G29G 4G 7G30G13
  21629934.8734  -16567413.20349 -12898775.87547  21629934.2644   21629942.4804
      -699.3994       -544.9794
  20295718.4054  -18969513.75749 -14509384.45347  20295717.2814   20295725.1454
      1053.9444        821.2524
  21946796.9514  -15881713.28749 -11899700.88646  21946796.1824   21946803.9634
      -114.0684        -88.8894
  24014851.1994   -2207680.09749  -1700527.50845  24014850.6924   24014869.4564
      3060.8984       2385.1024
  22903993.9584   -9559640.08749  -7170997.19546  22903994.0294   22904001.6484
     -1771.4824      -1380.3834
  22707372.5624  -10428999.70649  -8118516.70446  22707373.3584   22707383.7304
     -2335.9954      -1820.2544
  23242367.8024   -9376038.44749  -7285894.89845  23242367.8754   23242376.5274
      1753.8794       1366.6554
  24321551.6824   -3248829.70149  -2428329.36845  24321550.7714   24321564.4914
     -1138.6404       -887.2514
 03  4 11 18  4 47.0000000  0  8G24G10G 5G29G 4G 7G30G13
  21630067.9984  -16566713.67549 -12898230.78647  21630067.5654   21630075.7194
      -699.5234       -545.0854
  20295517.9154  -18970567.30349 -14510205.39147  20295516.8534   20295524.7214
      1053.3024        820.7504
  21946818.6924  -15881598.81049 -11899611.68646  21946817.6904   21946826.1194
      -114.6914        -89.3594
  24014268.6344   -2210740.93949  -1702912.56945  24014268.2294   24014286.9834
      3060.9834       2385.1694
  22904331.2244   -9557868.48149  -7169616.71946  22904332.2394   22904339.6994
     -1771.5434      -1380.4094
  22707817.0864  -10426663.45449  -8116696.24846  22707816.9094   22707828.9124
     -2336.4504      -1820.6124
  23242034.0924   -9377791.92149  -7287261.24245  23242034.3154   23242042.8024
      1753.2984       1366.2074
  24321768.4704   -3247690.64949  -2427441.79245  24321767.4864   24321781.5934
     -1139.2724       -887.7494
 03  4 11 18  4 48.0000000  0  8G24G10G 5G29G 4G 7G30G13
  21630201.0964  -16566014.14349 -12897685.69147  21630201.0574   21630209.1084
      -699.6554       -545.1884
  20295317.5374  -18971620.24049 -14511025.86147  20295316.7624   20295324.4304
      1052.5384        820.1604
  21946840.5644  -15881483.76649 -11899522.03746  21946839.9154   21946847.6034
      -115.4274        -89.9524
  24013686.0054   -2213801.80049  -1705297.64445  24013685.4804   24013704.2984
      3060.8024       2385.0314
  22904668.4754   -9556096.90849  -7168236.27446  22904669.2694   22904676.9794
     -1771.6894      -1380.5594
  22708261.6614  -10424326.84949  -8114875.52646  22708260.6304   22708273.5414
     -2336.8834      -1820.9514
  23241700.3644   -9379544.85549  -7288627.16845  23241700.7244   23241709.0234
      1752.5234       1365.6034
  24321985.4614   -3246551.04949  -2426553.79445  24321984.7744   24321998.4394
     -1139.9784       -888.2954
 03  4 11 18  4 49.0000000  0  8G24G10G 5G29G 4G 7G30G13
  21630334.1914  -16565314.53549 -12897140.54447  21630334.0274   21630342.1774
      -699.7524       -545.2514
  20295117.2504  -18972672.53749 -14511845.83447  20295116.3194   20295124.1174
      1051.8534        819.6254
  21946862.5204  -15881368.12349 -11899431.93146  21946861.8654   21946869.4134
      -116.0644        -90.4294
  24013103.4574   -2216862.71649  -1707682.76145  24013103.1844   24013121.9124
      3060.8284       2385.0464
  22905005.6814   -9554325.35549  -7166855.84146  22905005.9684   22905013.7754
     -1771.7134      -1380.5674
  22708706.3034  -10421989.86549  -8113054.50446  22708705.8304   22708718.0944
     -2337.3374      -1821.3104
  23241366.7004   -9381297.24549  -7289992.66745  23241367.0174   23241375.3254
      1752.0284       1365.2204
  24322202.5714   -3245410.90349  -2425665.37145  24322202.2934   24322215.5164
     -1140.5384       -888.7274
 03  4 11 18  4 50.0000000  0  8G24G10G 5G29G 4G 7G30G13
  21630467.2974  -16564614.94249 -12896595.40947  21630467.0474   21630475.0724
      -699.8174       -545.3094
  20294917.0944  -18973724.25649 -14512665.35847  20294916.0904   20294923.9854
      1051.2244        819.1394
  21946884.6074  -15881251.92549 -11899341.39346  21946883.9364   21946891.8424
      -116.6904        -90.9234
  24012520.8324   -2219923.78449  -1710067.99845  24012520.3864   24012539.5854
      3060.7554       2384.9934
  22905342.8834   -9552553.84749  -7165475.45146  22905341.9204   22905350.4704
     -1771.6804      -1380.5344
  22709151.0254  -10419652.54549  -8111233.21746  22709150.4324   22709162.0054
     -2337.7134      -1821.6034
  23241033.2484   -9383049.10849  -7291357.75045  23241033.6724   23241041.9404
      1751.3894       1364.7194
  24322419.7164   -3244270.26149  -2424776.55745  24322419.6524   24322432.6804
     -1141.0854       -889.1624
 03  4 11 18  4 51.0000000  0  8G24G10G 5G29G 4G 7G30G13
  21630600.4014  -16563915.33149 -12896050.25647  21630599.6834   21630607.9614
      -700.0424       -545.4834
  20294717.0564  -18974775.38049 -14513484.41347  20294716.3454   20294723.8444
      1050.4284        818.5144
  21946906.8464  -15881135.16849 -11899250.41146  21946906.0334   21946914.1374
      -117.4624        -91.5354
  24011938.3204   -2222984.88749  -1712453.26245  24011937.8364   24011957.0814
      3060.6334       2384.8974
  22905680.0604   -9550782.38449  -7164095.09146  22905679.6924   22905687.1804
     -1771.8834      -1380.6774
  22709595.8384  -10417314.88249  -8109411.66946  22709595.7344   22709607.6594
     -2338.2764      -1822.0314
  23240699.9864   -9384800.47449  -7292722.45545  23240699.9584   23240709.3234
      1750.7184       1364.2024
  24322637.1344   -3243129.04549  -2423887.30145  24322636.7404   24322650.1024
     -1141.7794       -889.6944
 03  4 11 18  4 52.0000000  0  8G24G10G 5G29G 4G 7G30G13
  21630733.5544  -16563215.59349 -12895505.00547  21630733.1194   21630741.2384
      -699.7504       -545.2664
  20294517.1584  -18975825.79549 -14514302.91347  20294516.1954   20294524.0124
      1050.1304        818.2784
  21946929.1844  -15881017.73849 -11899158.90846  21946928.2704   21946936.5644
      -117.6804        -91.7024
  24011355.7824   -2226046.01849  -1714838.54745  24011355.4324   24011374.4294
      3061.1144       2385.2714
  22906017.2034   -9549010.85549  -7162714.67046  22906016.8704   22906024.6044
     -1771.5264      -1380.4334
  22710040.7714  -10414976.75349  -8107589.76246  22710040.4334   22710052.3684
     -2338.3504      -1822.0784
  23240366.6904   -9386551.21249  -7294086.66845  23240366.4974   23240376.1974
      1750.4654       1364.0014
  24322854.5254   -3241987.20049  -2422997.55245  24322854.4004   24322867.6424
     -1142.1034       -889.9514
 03  4 11 18  4 53.0000000  0  8G24G10G 5G29G 4G 7G30G13
  21630866.7204  -16562515.89349 -12894959.78547  21630866.3224   21630874.1634
      -699.9874       -545.4494
  20294317.3714  -18976875.66649 -14515120.99547  20294316.5044   20294324.1784
      1049.2914        817.6284
  21946951.6164  -15880899.79549 -11899067.00646  21946951.0244   21946958.9124
      -118.5124        -92.3524
  24010773.2374   -2229107.29249  -1717223.94345  24010773.0294   24010791.8954
      3061.0684       2385.2324
  22906354.2924   -9547239.41049  -7161334.32446  22906355.2954   22906362.2214
     -1771.7464      -1380.5804
  22710485.7764  -10412638.35249  -8105767.63246  22710485.4974   22710497.3144
     -2338.9114      -1822.5204
  23240033.5304   -9388301.49249  -7295450.52345  23240031.7984   23240041.7474
      1749.7714       1363.4594
  24323071.9664   -3240844.88249  -2422107.43245  24323071.8724   24323084.4124
     -1142.8274       -890.5144
 03  4 11 18  4 54.0000000  0  8G24G10G 5G29G 4G 7G30G13
  21630999.9014  -16561816.12649 -12894414.51647  21630999.8044   21631007.8004
      -699.8534       -545.3364
  20294117.6854  -18977924.88349 -14515938.56947  20294116.7944   20294124.5844
      1048.8264        817.2714
  21946974.1504  -15880781.23149 -11898974.62546  21946972.4674   21946981.1204
      -118.9464        -92.6804
  24010190.5554   -2232168.63049  -1719609.38945  24010190.3994   24010209.2804
      3061.4124       2385.5004
  22906691.4154   -9545467.96749  -7159953.98346  22906691.2524   22906699.7824
     -1771.4914      -1380.3814
  22710930.9064  -10410299.56149  -8103945.21046  22710932.2624   22710941.8354
     -2339.0634      -1822.6324
  23239700.5004   -9390051.19249  -7296813.92345  23239699.7244   23239708.8614
      1749.3624       1363.1324
  24323289.5734   -3239701.95449  -2421216.83545  24323290.0484   24323302.2274
     -1143.2114       -890.8184
 03  4 11 18  4 55.0000000  0  8G24G10G 5G29G 4G 7G30G13
  21631133.0884  -16561116.35349 -12893869.23947  21631132.6684   21631140.7544
      -699.8374       -545.3274
  20293918.1314  -18978973.51349 -14516755.68447  20293917.2134   20293925.0734
      1048.2634        816.8314
  21946996.7884  -15880662.11249 -11898881.80446  21946995.7264   21947003.9154
      -119.4744        -93.0944
  24009607.9364   -2235229.98149  -1721994.84345  24009607.8624   24009626.6894
      3061.2734       2385.3964
  22907028.5034   -9543696.56949  -7158573.68846  22907028.4374   22907036.9654
     -1771.4194      -1380.3014
  22711376.0254  -10407960.42449  -8102122.50546  22711375.8934   22711386.6014
     -2339.4484      -1822.9384
  23239367.6224   -9391800.37649  -7298176.92645  23239366.7504   23239376.4604
      1748.8404       1362.7374
  24323507.2774   -3238558.51549  -2420325.84445  24323507.8794   24323519.0754
     -1143.7114       -891.2004
 03  4 11 18  4 56.0000000  0  8G24G10G 5G29G 4G 7G30G13
  21631266.2704  -16560416.52049 -12893323.91247  21631265.6824   21631273.8994
      -699.7644       -545.2704
  20293718.6784  -18980021.51049 -14517572.30047  20293717.7474   20293725.7424
      1047.7504        816.4194
  21947019.5464  -15880542.38049 -11898788.50546  21947018.6794   21947026.9524
      -119.9574        -93.4744
  24009025.4284   -2238291.42749  -1724380.37445  24009025.1164   24009044.1244
      3061.5184       2385.5864
  22907365.6004   -9541925.17749  -7157193.37846  22907364.7344   22907373.3784
     -1771.3194      -1380.2644
  22711821.2404  -10405620.91049  -8100299.51746  22711820.1714   22711832.1774
     -2339.6544      -1823.1064
  23239034.7514   -9393548.98549  -7299539.48245  23239034.4274   23239042.7274
      1748.4594       1362.4414
  24323725.0854   -3237414.49049  -2419434.39545  24323725.8684   24323737.0874
     -1144.2464       -891.6224
 03  4 11 18  4 57.0000000  0  8G24G10G 5G29G 4G 7G30G13
  21631399.4424  -16559716.69749 -12892778.59747  21631398.8004   21631407.2774
      -700.0184       -545.4634
  20293519.3524  -18981068.93649 -14518388.46947  20293518.5584   20293526.3004
      1046.9634        815.8114
  21947042.3954  -15880422.12249 -11898694.79546  21947042.1574   21947050.1944
      -120.7174        -94.0854
  24008442.8384   -2241353.01049  -1726766.01445  24008442.5114   24008461.3734
      3061.5174       2385.5894
  22907702.6374   -9540153.86649  -7155813.14046  22907702.6734   22907710.4414
     -1771.5064      -1380.3994
  22712266.5074  -10403281.09749  -8098476.29146  22712265.2424   22712277.3444
     -2340.2134      -1823.5504
  23238701.9374   -9395297.11249  -7300901.66145  23238702.0074   23238711.0764
      1747.6994       1361.8424
  24323942.9994   -3236269.99549  -2418542.58045  24323943.8814   24323954.4594
     -1144.9644       -892.1814
 03  4 11 18  4 58.0000000  0  8G24G10G 5G29G 4G 7G30G13
  21631532.6074  -16559016.75749 -12892233.19447  21631532.3684   21631540.7274
      -699.6964       -545.2144
  20293320.1724  -18982115.65749 -14519204.09847  20293319.3654   20293327.0284
      1046.6844        815.6004
  21947065.3264  -15880301.19549 -11898600.57046  21947064.8414   21947073.0134
      -120.9584        -94.2504
  24007860.2494   -2244414.59449  -1729151.65345  24007859.6714   24007878.6814
      3061.9374       2385.9144
  22908039.7444   -9538382.49649  -7154432.84846  22908039.2724   22908048.2524
     -1771.0874      -1380.0694
  22712711.9204  -10400940.80849  -8096652.69246  22712711.1674   22712722.7544
     -2340.2374      -1823.5614
  23238369.2704   -9397044.61749  -7302263.35145  23238369.0744   23238378.5034
      1747.4684       1361.6694
  24324161.0534   -3235124.83249  -2417650.24745  24324161.3234   24324172.9844
     -1145.1574       -892.3254
 03  4 11 18  4 59.0000000  0  8G24G10G 5G29G 4G 7G30G13
  21631665.7814  -16558316.87249 -12891687.82847  21631665.3544   21631673.8404
      -699.8574       -545.3454
  20293121.0764  -18983161.85049 -14520019.31547  20293120.3124   20293128.0794
      1045.9234        815.0074
  21947088.3694  -15880179.77149 -11898505.95246  21947087.6594   21947096.9554
      -121.6564        -94.8084
  24007277.6504   -2247476.31349  -1731537.39845  24007277.5344   24007296.2924
      3061.8694       2385.8664
  22908376.8404   -9536611.22849  -7153052.64046  22908375.8184   22908385.8454
     -1771.2234      -1380.1764
  22713157.2904  -10398600.24249  -8094828.88346  22713156.3364   22713168.9704
     -2340.7564      -1823.9584
  23238036.7454   -9398791.67949  -7303624.69645  23238036.7664   23238046.2284
      1746.8544       1361.1814
  24324379.1614   -3233979.21649  -2416757.56145  24324380.3234   24324390.6704
     -1145.8814       -892.8924
 03  4 11 18  5  0.0000000  0  8G24G10G 5G29G 4G 7G30G13
  21631798.9634  -16557616.90449 -12891142.40247  21631798.6344   21631806.5934
      -699.7424       -545.2494
  20292922.1404  -18984207.38749 -14520834.01947  20292921.4144   20292929.0674
      1045.4614        814.6394
  21947111.5674  -15880057.71149 -11898410.84346  21947111.4214   21947119.4394
      -122.1514        -95.1854
  24006694.9914   -2250538.06949  -1733923.17245  24006694.9684   24006713.3324
      3062.0124       2385.9754
  22908713.9104   -9534839.93049  -7151672.41846  22908714.3854   22908721.5124
     -1771.0934      -1380.0564
  22713602.8004  -10396259.28449  -8093004.76246  22713602.7754   22713613.9964
     -2340.9444      -1824.1274
  23237704.3874   -9400538.15349  -7304985.58945  23237705.3044   23237714.3964
      1746.4684       1360.8894
  24324597.2964   -3232833.00849  -2415864.41545  24324598.5184   24324609.4704
     -1146.3464       -893.2534
 03  4 11 18  5  1.0000000  0  8G24G10G 5G29G 4G 7G30G13
  21631932.1714  -16556917.00749 -12890597.02747  21631931.7954   21631939.9844
      -700.1234       -545.5474
  20292723.3064  -18985252.39849 -14521648.31047  20292722.5154   20292730.3994
      1044.5144        813.9004
  21947134.8944  -15879935.17549 -11898315.36946  21947134.3484   21947142.2804
      -123.0094        -95.8494
  24006112.1684   -2253599.98449  -1736309.06945  24006111.9534   24006130.4714
      3061.8424       2385.8354
  22909050.9534   -9533068.78749  -7150292.30746  22909051.0434   22909058.4794
     -1771.2994      -1380.2384
  22714048.4104  -10393918.06849  -8091180.44946  22714047.9044   22714059.1494
     -2341.5894      -1824.6114
  23237372.0494   -9402284.21449  -7306346.15345  23237373.4214   23237382.6724
      1745.6964       1360.2784
  24324815.6434   -3231686.36749  -2414970.93345  24324816.8304   24324828.0254
     -1147.1214       -893.8594
 03  4 11 18  5  2.0000000  0  8G24G10G 5G29G 4G 7G30G13
  21632065.3604  -16556216.99549 -12890051.56447  21632065.0634   21632072.9054
      -699.9894       -545.4424
  20292524.5954  -18986296.71349 -14522462.06047  20292523.7454   20292531.6654
      1044.0594        813.5484
  21947158.3324  -15879811.96949 -11898219.36146  21947157.7364   21947165.5884
      -123.4424        -96.1804
  24005529.3324   -2256661.88549  -1738694.95245  24005529.2794   24005547.6214
      3061.9564       2385.9294
  22909388.0714   -9531297.55149  -7148912.12146  22909387.7554   22909395.8274
     -1771.1434      -1380.1124
  22714493.9984  -10391576.36449  -8089355.75046  22714492.9704   22714504.1274
     -2341.8934      -1824.8404
  23237039.8434   -9404029.62249  -7307706.21245  23237041.3134   23237050.6664
      1745.2014       1359.9104
  24325033.9754   -3230539.05149  -2414076.92145  24325035.1604   24325046.0104
     -1147.6404       -894.2654
 03  4 11 18  5  3.0000000  0  8G24G10G 5G29G 4G 7G30G13
  21632198.5814  -16555516.93149 -12889506.05947  21632198.0464   21632206.5804
      -699.8914       -545.3834
  20292326.0204  -18987340.39249 -14523275.31747  20292325.1824   20292332.7264
      1043.5804        813.1754
  21947181.9144  -15879688.16349 -11898122.89246  21947181.3754   21947189.5134
      -123.9024        -96.5344
  24004946.5874   -2259723.87349  -1741080.90245  24004946.5304   24004964.9554
      3062.1964       2386.1154
  22909725.1274   -9529526.34749  -7147531.96946  22909724.7374   22909733.1644
     -1770.9714      -1379.9884
  22714939.6604  -10389234.31249  -8087530.77446  22714939.1614   22714951.3654
     -2342.0874      -1825.0134
  23236707.7614   -9405774.49749  -7309065.85245  23236709.0994   23236718.3864
      1744.7294       1359.5244
  24325252.5224   -3229391.21049  -2413182.50045  24325253.3224   24325264.4124
     -1147.9524       -894.5074
 03  4 11 18  5  4.0000000  0  8G24G10G 5G29G 4G 7G30G13
  21632331.7774  -16554816.92949 -12888960.60047  21632331.2974   21632339.6784
      -700.2744       -545.6594
  20292127.5364  -18988383.55349 -14524088.16747  20292126.3294   20292134.2914
      1042.5974        812.4144
  21947205.5314  -15879563.86849 -11898026.03446  21947204.8654   21947213.3664
      -124.8854        -97.3134
  24004363.8264   -2262785.96649  -1743466.93645  24004363.7854   24004382.3824
      3061.8704       2385.8624
  22910062.1224   -9527755.27849  -7146151.91046  22910061.9694   22910070.8024
     -1771.3364      -1380.2494
  22715385.3714  -10386891.99649  -8085705.59646  22715384.2864   22715398.2334
     -2342.7764      -1825.5384
  23236375.8034   -9407518.93549  -7310425.15545  23236376.7474   23236386.3154
      1743.9554       1358.9274
  24325471.1224   -3228242.86749  -2412287.68845  24325471.7464   24325482.6404
     -1148.9124       -895.2584
 03  4 11 18  5  5.0000000  0  8G24G10G 5G29G 4G 7G30G13
  21632465.0254  -16554116.81849 -12888415.05747  21632464.7764   21632472.9964
      -700.1434       -545.5664
  20291929.1654  -18989426.02049 -14524900.47947  20291928.3254   20291935.9774
      1042.1534        812.0694
  21947229.3074  -15879438.92249 -11897928.67746  21947228.3054   21947237.5364
      -125.2424        -97.5944
  24003781.0034   -2265848.07249  -1745852.98245  24003781.1194   24003799.7224
      3062.0874       2386.0324
  22910399.1304   -9525984.12549  -7144771.78046  22910398.0404   22910408.6784
     -1771.1204      -1380.1054
  22715831.1744  -10384549.23149  -8083880.07246  22715831.3974   22715844.4574
     -2343.0164      -1825.7304
  23236043.9644   -9409262.76549  -7311783.98645  23236045.2564   23236054.3554
      1743.5534       1358.6104
  24325689.8204   -3227093.93349  -2411392.41545  24325690.0494   24325700.5664
     -1149.2984       -895.5604
 03  4 11 18  5  6.0000000  0  8G24G10G 5G29G 4G 7G30G13
  21632598.2264  -16553416.72549 -12887869.53147  21632597.9884   21632606.4254
      -700.3104       -545.6894
  20291730.8984  -18990467.93449 -14525712.35847  20291729.8444   20291737.6804
      1041.3944        811.4694
  21947253.2204  -15879313.44249 -11897830.90446  21947252.4834   21947260.8134
      -125.9834        -98.1614
  24003198.1594   -2268910.29749  -1748239.12245  24003198.3924   24003216.9074
      3062.1554       2386.0874
  22910736.1094   -9524213.05749  -7143391.73946  22910736.0684   22910745.7584
     -1771.3104      -1380.2054
  22716277.0554  -10382206.17749  -8082054.32346  22716276.9174   22716289.1734
     -2343.4414      -1826.0544
  23235712.2244   -9411006.09649  -7313142.42145  23235713.2504   23235723.0334
      1742.8464       1358.0574
  24325908.6434   -3225944.50049  -2410496.75845  24325908.2514   24325920.1464
     -1149.9674       -896.0734
 03  4 11 18  5  7.0000000  0  8G24G10G 5G29G 4G 7G30G13
  21632731.4744  -16552716.55549 -12887323.94747  21632731.3004   21632739.0964
      -700.2814       -545.6744
  20291532.7334  -18991509.19049 -14526523.72447  20291531.5814   20291539.5334
      1040.8574        811.0564
  21947277.2304  -15879187.33449 -11897732.64046  21947276.3704   21947285.0844
      -126.4864        -98.5554
  24002615.4144   -2271972.59849  -1750625.32045  24002615.5544   24002633.8494
      3062.2734       2386.1774
  22911073.1034   -9522441.96449  -7142011.66846  22911073.7444   22911081.6124
     -1771.1904      -1380.1364
  22716723.0324  -10379862.70649  -8080228.24946  22716722.2244   22716734.8904
     -2343.8064      -1826.3444
  23235380.5644   -9412748.86049  -7314500.41745  23235380.9584   23235391.4124
      1742.4074       1357.7284
  24326127.5414   -3224794.46249  -2409600.62645  24326127.2384   24326138.7694
     -1150.4144       -896.4264
 03  4 11 18  5  8.0000000  0  8G24G10G 5G29G 4G 7G30G13
  21632864.7004  -16552016.39349 -12886778.36847  21632864.4464   21632872.1474
      -700.4644       -545.8074
  20291334.7074  -18992549.86349 -14527334.63647  20291333.6714   20291341.5214
      1040.1184        810.4794
  21947301.3594  -15879060.69149 -11897633.95846  21947300.6564   21947308.8014
      -127.2014        -99.1194
  24002032.6214   -2275035.01749  -1753011.60845  24002032.9514   24002051.1024
      3062.1754       2386.0954
  22911410.0944   -9520670.92049  -7140631.63646  22911409.9894   22911418.0894
     -1771.2874      -1380.2344
  22717169.0244  -10377518.90249  -8078401.91946  22717167.5594   22717180.7654
     -2344.2404      -1826.6694
  23235049.0464   -9414491.12449  -7315858.02545  23235049.3554   23235059.7174
      1741.7164       1357.1824
  24326346.4644   -3223643.94949  -2408704.12645  24326346.0454   24326357.8684
     -1151.0504       -896.9204
 03  4 11 18  5  9.0000000  0  8G24G10G 5G29G 4G 7G30G13
  21632997.9224  -16551316.17749 -12886232.74847  21632997.8324   21633005.7624
      -700.4694       -545.8194
  20291136.7784  -18993589.88849 -14528145.04547  20291135.6244   20291143.7924
      1039.4804        809.9844
  21947325.5634  -15878933.42949 -11897534.79346  21947324.8524   21947332.7394
      -127.7694        -99.5554
  24001449.7264   -2278097.45049  -1755397.90545  24001450.3654   24001468.3384
      3062.2904       2386.1854
  22911747.1154   -9518899.87449  -7139251.60946  22911746.7174   22911754.6984
     -1771.2854      -1380.2104
  22717615.0684  -10375174.73749  -8076575.30646  22717614.1214   22717625.6904
     -2344.6354      -1826.9894
  23234717.6314   -9416232.80449  -7317215.18345  23234718.6284   23234728.0624
      1741.2204       1356.8104
  24326565.4954   -3222492.82549  -2407807.14945  24326565.3984   24326576.7954
     -1151.5684       -897.3164
 03  4 11 18  5 10.0000000  0  8G24G10G 5G29G 4G 7G30G13
  21633131.1614  -16550615.93849 -12885687.10347  21633130.6354   21633139.1614
      -700.5644       -545.8944
  20290938.9864  -18994629.31249 -14528954.98547  20290938.0094   20290945.9944
      1038.8154        809.4584
  21947349.8884  -15878805.60749 -11897435.19246  21947349.2484   21947357.5914
      -128.3984       -100.0454
  24000866.9184   -2281159.96449  -1757784.26945  24000867.6554   24000885.6494
      3062.2414       2386.1464
  22912084.1084   -9517128.87149  -7137871.60546  22912083.9024   22912091.8794
     -1771.3494      -1380.2704
  22718061.1704  -10372830.21149  -8074748.40546  22718060.7824   22718072.3634
     -2345.0824      -1827.3264
  23234386.2144   -9417973.97349  -7318571.93645  23234386.8734   23234396.6544
      1740.6214       1356.3324
  24326784.5064   -3221341.18349  -2406909.77045  24326784.7244   24326795.6834
     -1152.2114       -897.8184
 03  4 11 18  5 11.0000000  0  8G24G10G 5G29G 4G 7G30G13
  21633264.4104  -16549915.62249 -12885141.40347  21633263.9004   21633272.1744
      -700.3294       -545.7074
  20290741.3064  -18995668.08149 -14529764.41647  20290740.4494   20290748.2854
      1038.4684        809.1964
  21947374.3394  -15878677.15049 -11897335.09946  21947373.8164   21947381.8544
      -128.7544       -100.3274
  24000284.1314   -2284222.53049  -1760170.67445  24000284.8234   24000302.6934
      3062.6214       2386.4454
  22912421.1444   -9515357.85749  -7136491.59346  22912422.0144   22912430.0424
     -1770.9614      -1379.9564
  22718507.4184  -10370485.28949  -8072921.19046  22718506.9574   22718518.6994
     -2345.2044      -1827.4344
  23234054.9184   -9419714.56349  -7319928.24345  23234055.7934   23234065.6954
      1740.3764       1356.1394
  24327003.6624   -3220188.92549  -2406011.91045  24327003.6304   24327015.0534
     -1152.5394       -898.0804
 03  4 11 18  5 12.0000000  0  8G24G10G 5G29G 4G 7G30G13
  21633397.6834  -16549215.26849 -12884595.67447  21633397.1094   21633405.8314
      -700.2444       -545.6424
  20290543.7274  -18996706.23649 -14530573.36647  20290542.7714   20290550.6164
      1037.9834        808.8164
  21947398.9084  -15878548.12149 -11897234.56146  21947398.5954   21947406.0444
      -129.1974       -100.6734
  23999701.3794   -2287285.16149  -1762557.13145  23999702.1214   23999720.4594
      3062.7884       2386.5774
  22912758.2434   -9513586.86949  -7135111.60746  22912758.9164   22912766.3444
     -1770.8724      -1379.8914
  22718953.7424  -10368140.01349  -8071093.70746  22718952.4174   22718966.3404
     -2345.3334      -1827.5384
  23233723.7844   -9421454.62149  -7321284.13145  23233726.9074   23233735.2504
      1739.9734       1355.8224
  24327222.9704   -3219036.14249  -2405113.63745  24327222.7654   24327234.6294
     -1152.9864       -898.4264
