     2              OBSERVATION DATA                        RINEX VERSION / TYPE
ASHTORIN            MSB                 15 - SEP - 02 14:55 PGM / RUN BY / DATE 
First Stocker data set on 09/15/02                          COMMENT             
STKR                                                        MARKER NAME         
001                                                         MARKER NUMBER       
Diggle              OU/EECS/AEC                             OBSERVER / AGENCY   
                    Z-XII3              1L001D0             REC # / TYPE / VERS 
                                                            ANT # / TYPE        
   678453.9803 -4893811.7938  4020507.7300                  APPROX POSITION XYZ 
        0.0001        0.0000        0.0000                  ANTENNA: DELTA H/E/N
     1     1                                                WAVELENGTH FACT L1/2
     7    L1    L2    C1    P1    P2    D1    D2            # / TYPES OF OBSERV 
     5                                                      INTERVAL            
  2002     9    15     0     0    0.000000                  TIME OF FIRST OBS   
  2002     9    15     0    59   54.998000                  TIME OF LAST OBS    
                                                            END OF HEADER       
 02  9 15  0  0  0.0000000  0  8  3 22 31 13 27  1  8  2             0.000052196
 -27489049.312 9 -20782825.55448  21376365.089    21376365.5614   21376375.1594
     -1315.439       -1025.016
 -22056783.473 9 -17169246.20246  23961242.987    23961243.0724   23961254.2574
     -2345.200       -1827.426
 -34964720.767 9 -27227217.72948  19977863.507    19977863.6834   19977872.3754
      1377.908        1073.699
 -29943071.696 9 -23014209.80748  21564342.255    21564343.1394   21564351.8974
     -1314.379       -1024.184
 -28270249.576 9 -21772134.57448  21297677.485    21297677.9764   21297687.2954
      2920.903        2276.025
 -19703828.565 9 -15332266.48647  22876658.256    22876658.8404   22876671.4214
     -2661.575       -2073.946
  -7287419.514 9  -5659896.94247  22945640.854    22945641.0564   22945653.6254
      3954.718        3081.614
 -26145735.194 9 -20347501.36947  22955968.998    22955969.0334   22955979.9204
     -1193.252        -929.805
 02  9 15  0  0  5.0000000  0  8  3 22 31 13 27  1  8  2             0.000049865
 -27482468.152 9 -20777697.36748  21377617.467    21377617.9354   21377627.5364
     -1317.272       -1026.462
 -22045059.770 9 -17160110.85646  23963473.979    23963474.0424   23963485.2094
     -2344.638       -1826.984
 -34971604.073 9 -27232581.33748  19976553.649    19976553.8134   19976562.4894
      1375.156        1071.538
 -29936495.291 9 -23009085.33748  21565593.691    21565594.5944   21565603.3364
     -1316.440       -1025.801
 -28284853.347 9 -21783514.12648  21294898.487    21294898.9844   21294908.2724
      2920.117        2275.408
 -19690520.147 9 -15321896.31347  22879190.801    22879191.3664   22879203.9604
     -2662.053       -2074.335
  -7307193.743 9  -5675305.40547  22941877.923    22941878.1364   22941890.7164
      3954.755        3081.612
 -26139769.827 9 -20342853.03347  22957104.186    22957104.2004   22957115.0894
     -1193.137        -929.718
 02  9 15  0  0 10.0000000  0  8  3 22 31 13 27  1  8  2             0.000047532
 -27475878.328 9 -20772562.44648  21378871.516    21378871.9444   21378881.5624
     -1319.309       -1028.037
 -22033339.149 9 -17150977.90846  23965704.359    23965704.3874   23965715.6124
     -2344.324       -1826.745
 -34978473.785 9 -27237934.35448  19975246.366    19975246.5374   19975255.1944
      1372.099        1069.165
 -29929908.829 9 -23003953.03748  21566847.064    21566847.9704   21566856.7054
     -1318.756       -1027.599
 -28299453.354 9 -21794890.74948  21292120.216    21292120.7054   21292129.9694
      2919.048        2274.581
 -19677209.498 9 -15311524.40047  22881723.798    22881724.3104   22881736.9284
     -2662.816       -2074.927
  -7326968.695 9  -5690714.42847  22938114.856    22938115.0684   22938127.6554
      3954.621        3081.509
 -26133805.516 9 -20338205.51547  22958239.170    22958239.1574   22958250.0684
     -1193.221        -929.780
 02  9 15  0  0 15.0000000  0  8  3 22 31 13 27  1  8  2             0.000045200
 -27469274.978 9 -20767416.97448  21380128.128    21380128.5394   21380138.1484
     -1321.337       -1029.610
 -22021616.842 9 -17141843.65546  23967935.076    23967935.0294   23967946.3184
     -2343.966       -1826.472
 -34985325.032 9 -27243272.98448  19973942.594    19973942.7754   19973951.3904
      1369.110        1066.834
 -29923307.486 9 -22998809.14148  21568103.259    21568104.1574   21568112.8764
     -1321.075       -1029.406
 -28314044.708 9 -21806260.62748  21289343.598    21289344.0834   21289353.3124
      2917.974        2273.736
 -19663891.827 9 -15301147.01547  22884258.122    22884258.5884   22884271.2164
     -2663.568       -2075.500
  -7346739.500 9  -5706120.22447  22934352.581    22934352.7784   22934365.4004
      3954.509        3081.424
 -26127837.400 9 -20333555.02947  22959374.849    22959374.8374   22959385.7574
     -1193.322        -929.869
 02  9 15  0  0 20.0000000  0  8  3 22 31 13 27  1  8  2             0.000042866
 -27462661.692 9 -20762263.76048  21381386.614    21381387.0024   21381396.6334
     -1324.320       -1031.936
 -22009896.340 8 -17132710.79646  23970165.469    23970165.3494   23970176.6954
     -2344.630       -1826.982
 -34992161.421 9 -27248600.03548  19972641.643    19972641.8404   19972650.4284
      1365.108        1063.715
 -29916694.845 9 -22993656.43848  21569361.623    21569362.5014   21569371.2144
     -1324.329       -1031.950
 -28328630.973 9 -21817626.54248  21286567.945    21286568.4224   21286577.6254
      2915.979        2272.185
 -19650570.718 9 -15290766.94747  22886793.102    22886793.5304   22886806.1434
     -2665.249       -2076.814
  -7366509.702 9  -5721525.54647  22930590.418    22930590.6064   22930603.2564
      3953.307        3080.508
 -26121869.054 9 -20328904.37147  22960510.552    22960510.5484   22960521.4914
     -1194.368        -930.699
 02  9 15  0  0 25.0000000  0  8  3 22 31 13 27  1  8  2             0.000040532
 -27456036.854 9 -20757101.55148  21382647.294    21382647.6714   21382657.3084
     -1326.582       -1033.698
 -21998176.030 8 -17123578.09246  23972395.817    23972395.6354   23972406.9924
     -2344.481       -1826.876
 -34998981.264 9 -27253914.19748  19971343.831    19971344.0664   19971352.6054
      1361.868        1061.198
 -29910069.257 9 -22988493.65548  21570622.446    21570623.3264   21570631.9984
     -1326.837       -1033.889
 -28343210.519 9 -21828987.21548  21283793.576    21283794.0424   21283803.2254
      2914.695        2271.190
 -19637244.509 9 -15280382.91447  22889329.028    22889329.4404   22889342.0394
     -2666.219       -2077.571
  -7386277.638 9  -5736929.11247  22926828.665    22926828.8664   22926841.5404
      3952.945        3080.225
 -26115898.821 9 -20324252.23947  22961646.599    22961646.6214   22961657.6064
     -1194.669        -930.911
 02  9 15  0  0 30.0000000  0  8  3 22 31 13 27  1  8  2             0.000038200
 -27449397.209 9 -20751927.81548  21383910.778    21383911.1564   21383920.7964
     -1329.564       -1036.015
 -21986452.686 8 -17114443.01946  23974626.667    23974626.4804   23974637.8704
     -2345.161       -1827.398
 -35005781.353 9 -27259212.95948  19970049.790    19970050.0464   19970058.5624
      1357.875        1058.091
 -29903427.519 9 -22983318.27548  21571886.365    21571887.2274   21571895.8654
     -1330.129       -1036.462
 -28357780.131 9 -21840340.15148  21281021.099    21281021.5394   21281030.7084
      2912.673        2269.621
 -19623910.010 9 -15269992.40747  22891866.535    22891866.9354   22891879.5144
     -2667.916       -2078.891
  -7406040.091 9  -5752328.39747  22923067.966    22923068.1654   22923080.8454
      3951.829        3079.352
 -26109923.474 9 -20319596.12547  22962783.608    22962783.6624   22962794.6614
     -1195.742        -931.748
 02  9 15  0  0 35.0000000  0  8  3 22 31 13 27  1  8  2             0.000035866
 -27442746.362 9 -20746745.33448  21385176.407    21385176.7824   21385186.4194
     -1330.839       -1037.021
 -21974729.886 8 -17105308.36946  23976857.358    23976857.1614   23976868.6564
     -2344.104       -1826.582
 -35012565.272 9 -27264499.12048  19968758.848    19968759.1044   19968767.5764
      1355.627        1056.322
 -29896773.206 9 -22978133.10448  21573152.678    21573153.5404   21573162.1304
     -1331.648       -1037.651
 -28372343.290 9 -21851688.05748  21278249.842    21278250.2684   21278259.4284
      2912.353        2269.354
 -19610570.779 9 -15259598.22847  22894404.916    22894405.3204   22894417.9004
     -2667.833       -2078.818
  -7425800.725 9  -5767726.27947  22919307.624    22919307.8414   22919320.5084
      3952.436        3079.829
 -26103946.599 9 -20314938.81947  22963920.928    22963920.9964   22963932.0434
     -1195.046        -931.209
 02  9 15  0  0 40.0000000  0  8  3 22 31 13 27  1  8  2             0.000033531
 -27436086.815 9 -20741556.07448  21386443.693    21386444.0614   21386453.7064
     -1333.383       -1038.992
 -21963010.153 8 -17096176.10846  23979087.439    23979087.2684   23979098.8744
     -2344.204       -1826.645
 -35019335.481 9 -27269774.60248  19967470.533    19967470.7784   19967479.2244
      1352.052        1053.548
 -29890108.806 9 -22972940.07048  21574420.932    21574421.7684   21574430.3244
     -1334.500       -1039.870
 -28386902.559 9 -21863032.93348  21275479.289    21275479.7144   21275488.8904
      2910.736        2268.109
 -19597229.338 9 -15249202.31247  22896943.742    22896944.1364   22896956.6784
     -2669.118       -2079.820
  -7445561.907 9  -5783124.56947  22915547.176    22915547.3694   22915560.0524
      3951.714        3079.242
 -26097970.675 9 -20310282.25247  22965058.079    22965058.1414   22965069.2424
     -1195.669        -931.680
 02  9 15  0  0 45.0000000  0  8  3 22 31 13 27  1  8  2             0.000031197
 -27429414.696 9 -20736357.02548  21387713.368    21387713.7194   21387723.3724
     -1336.125       -1041.138
 -21951289.523 8 -17087043.15846  23981317.709    23981317.5714   23981329.2814
     -2344.660       -1827.008
 -35026088.076 9 -27275036.35948  19966185.568    19966185.7964   19966194.2174
      1348.306        1050.617
 -29883430.445 9 -22967736.15148  21575691.851    21575692.6594   21575701.1714
     -1337.505       -1042.215
 -28401453.954 9 -21874371.67448  21272710.240    21272710.6714   21272719.8474
      2908.960        2266.714
 -19583881.818 9 -15238801.66947  22899483.715    22899484.1074   22899496.6504
     -2670.567       -2080.962
  -7465319.734 9  -5798520.26247  22911787.377    22911787.5474   22911800.2274
      3950.860        3078.568
 -26091991.795 9 -20305623.40147  22966195.803    22966195.8624   22966207.0044
     -1196.490        -932.334
 02  9 15  0  0 50.0000000  0  8  3 22 31 13 27  1  8  2             0.000028863
 -27422730.074 9 -20731148.22348  21388985.424    21388985.7694   21388995.4184
     -1338.244       -1042.783
 -21939568.173 8 -17077909.65246  23983548.128    23983548.0364   23983559.8444
     -2344.332       -1826.750
 -35032823.195 9 -27280284.49848  19964903.929    19964904.1654   19964912.5304
      1345.244        1048.237
 -29876738.215 9 -22962521.43548  21576965.391    21576966.1834   21576974.6724
     -1339.868       -1044.047
 -28415997.564 9 -21885704.35048  21269942.669    21269943.1214   21269952.2874
      2907.814        2265.828
 -19570528.301 9 -15228396.34947  22902024.862    22902025.2104   22902037.7554
     -2671.352       -2081.563
  -7485074.289 9  -5813913.39647  22908028.187    22908028.3554   22908041.0204
      3950.576        3078.366
 -26086010.083 9 -20300962.32648  22967334.081    22967334.1344   22967345.3224
     -1196.664        -932.470
 02  9 15  0  0 55.0000000  0  8  3 22 31 13 27  1  8  2             0.000026529
 -27416033.622 9 -20725930.21548  21390259.694    21390260.0694   21390269.7084
     -1340.399       -1044.465
 -21927846.626 8 -17068776.00446  23985778.612    23985778.5324   23985790.4984
     -2344.253       -1826.678
 -35039541.440 9 -27285519.48848  19963625.513    19963625.7304   19963634.0644
      1342.063        1045.757
 -29870032.774 9 -22957296.42548  21578241.448    21578242.2064   21578250.6684
     -1342.315       -1045.957
 -28430534.137 9 -21897031.54148  21267176.450    21267176.9014   21267186.0914
      2906.574        2264.863
 -19557169.448 9 -15217986.87747  22904567.013    22904567.3124   22904579.8464
     -2672.251       -2082.255
  -7504826.189 9  -5829304.46347  22904269.513    22904269.6884   22904282.3144
      3950.250        3078.123
 -26080026.163 9 -20296299.54648  22968472.790    22968472.8524   22968484.0654
     -1196.900        -932.651
 02  9 15  0  1  0.0000000  0  8  3 22 31 13 27  1  8  2             0.000024195
 -27409325.242 9 -20720702.90648  21391536.254    21391536.6384   21391546.2754
     -1342.227       -1045.892
 -21916124.893 8 -17059642.21046  23988009.146    23988009.0664   23988021.1574
     -2343.726       -1826.278
 -35046242.737 9 -27290741.27448  19962350.321    19962350.5184   19962358.8244
      1339.222        1043.548
 -29863314.050 9 -22952061.06148  21579519.982    21579520.7374   21579529.2014
     -1344.432       -1047.617
 -28445063.436 9 -21908353.06748  21264411.604    21264412.0694   21264421.2594
      2905.662        2264.142
 -19543805.148 9 -15207573.16147  22907110.193    22907110.4914   22907122.9764
     -2672.808       -2082.707
  -7524575.305 9  -5844693.35947  22900511.362    22900511.5374   22900524.1714
      3950.240        3078.117
 -26074039.931 9 -20291634.94948  22969611.950    22969612.0084   22969623.2644
     -1196.812        -932.584
 02  9 15  0  1  5.0000000  0  8  3 22 31 13 27  1  8  2             0.000021861
 -27402604.527 9 -20715465.98548  21392815.164    21392815.5554   21392825.1804
     -1345.139       -1048.151
 -21904402.531 8 -17050507.91146  23990239.810    23990239.7494   23990251.9074
     -2344.222       -1826.658
 -35052926.662 9 -27295949.51948  19961078.421    19961078.6134   19961086.9014
      1335.313        1040.504
 -29856581.623 9 -22946815.02548  21580801.110    21580801.8664   21580810.3314
     -1347.607       -1050.075
 -28459585.084 9 -21919668.62548  21261648.203    21261648.6854   21261657.9064
      2903.676        2262.603
 -19530435.036 9 -15197154.90247  22909654.471    22909654.7594   22909667.2044
     -2674.389       -2083.930
  -7544321.274 9  -5860079.80047  22896753.794    22896753.9834   22896766.6354
      3949.199        3077.303
 -26068050.975 9 -20286968.23248  22970751.639    22970751.7034   22970762.9694
     -1197.808        -933.357
 02  9 15  0  1 10.0000000  0  8  3 22 31 13 27  1  8  2             0.000019527
 -27395870.885 9 -20710218.99248  21394096.508    21394096.9094   21394106.5474
     -1348.434       -1050.741
 -21892678.969 8 -17041372.67246  23992470.709    23992470.6724   23992482.8714
     -2345.272       -1827.490
 -35059592.630 9 -27301143.77048  19959809.942    19959810.1094   19959818.3934
      1330.988        1037.126
 -29849834.941 9 -22941557.87848  21582084.924    21582085.7184   21582094.1794
     -1351.162       -1052.847
 -28474098.458 9 -21930977.73848  21258886.379    21258886.8754   21258896.1204
      2901.385        2260.813
 -19517058.524 9 -15186731.66447  22912199.958    22912200.2244   22912212.6454
     -2676.350       -2085.477
  -7564063.493 9  -5875463.31547  22892996.908    22892997.1094   22893009.7964
      3947.717        3076.127
 -26062058.733 9 -20282298.94648  22971891.963    22971892.0164   22971903.2994
     -1199.164        -934.429
 02  9 15  0  1 15.0000000  0  8  3 22 31 13 27  1  8  2             0.000017193
 -27389126.839 9 -20704963.89148  21395379.829    21395380.2494   21395389.8834
     -1348.918       -1051.113
 -21880956.695 9 -17032238.43746  23994701.359    23994701.3274   23994713.5514
     -2343.442       -1826.056
 -35066243.112 9 -27306325.96048  19958544.386    19958544.5544   19958552.8454
      1329.483        1035.955
 -29843076.525 9 -22936291.58448  21583370.979    21583371.7834   21583380.2524
     -1351.906       -1053.427
 -28488606.103 9 -21942282.38948  21256125.650    21256126.1584   21256135.4284
      2901.802        2261.138
 -19503678.149 9 -15176305.40947  22914746.159    22914746.4364   22914758.8134
     -2675.490       -2084.814
  -7583804.452 9  -5890845.85647  22889240.243    22889240.5094   22889253.1964
      3949.054        3077.166
 -26056065.659 9 -20277629.02248  22973032.456    22973032.4964   22973043.7874
     -1197.728        -933.292
 02  9 15  0  1 20.0000000  0  8  3 22 31 13 27  1  8  2             0.000014859
 -27382371.039 9 -20699699.63248  21396665.400    21396665.8334   21396675.4434
     -1352.768       -1054.099
 -21869234.361 9 -17023104.14346  23996932.048    23996932.0374   23996944.2654
     -2344.968       -1827.253
 -35072876.762 9 -27311495.02948  19957282.050    19957282.1884   19957290.4994
      1324.622        1032.168
 -29836304.969 9 -22931015.05648  21584659.539    21584660.3564   21584668.8294
     -1356.054       -1056.669
 -28503106.625 9 -21953581.48848  21253366.281    21253366.8134   21253376.0994
      2898.874        2258.864
 -19490292.522 9 -15165875.07347  22917293.346    22917293.6304   22917305.9754
     -2678.056       -2086.795
  -7603542.775 9  -5906226.34747  22885484.096    22885484.4054   22885497.1054
      3947.003        3075.586
 -26050070.426 9 -20272957.40648  22974173.364    22974173.3764   22974184.6594
     -1199.672        -934.816
 02  9 15  0  1 25.0000000  0  8  3 22 31 13 27  1  8  2             0.000012526
 -27375600.809 9 -20694424.12748  21397953.737    21397954.1644   21397963.7514
     -1354.510       -1055.449
 -21857509.271 8 -17013967.71646  23999163.275    23999163.2704   23999175.5074
     -2344.348       -1826.762
 -35079490.940 9 -27316648.93048  19956023.402    19956023.5354   19956031.8594
      1321.862        1030.025
 -29829517.632 9 -22925726.23148  21585951.108    21585951.9584   21585960.3984
     -1358.031       -1058.203
 -28517597.292 9 -21964872.90948  21250608.792    21250609.3454   21250618.6524
      2898.034        2258.211
 -19476899.036 9 -15155438.60347  22919842.012    22919842.3284   22919854.6184
     -2678.515       -2087.139
  -7623275.799 9  -5921602.71347  22881728.967    22881729.3124   22881742.0054
      3947.116        3075.676
 -26044070.361 9 -20268282.03248  22975315.175    22975315.1704   22975326.4394
     -1199.522        -934.697
 02  9 15  0  1 30.0000000  0  8  3 22 31 13 27  1  8  2             0.000010193
 -27368818.951 9 -20689139.56048  21399244.293    21399244.7074   21399254.2774
     -1357.272       -1057.595
 -21845784.299 9 -17004831.37846  24001394.484    24001394.4744   24001406.7184
     -2344.713       -1827.052
 -35086088.360 9 -27321789.77248  19954767.939    19954768.0554   19954776.4064
      1318.064        1027.072
 -29822717.284 9 -22920427.26548  21587245.167    21587246.0214   21587254.4474
     -1361.086       -1060.584
 -28532080.924 9 -21976158.84948  21247852.656    21247853.2164   21247862.5314
      2896.171        2256.758
 -19463500.445 9 -15144998.15247  22922391.651    22922391.9804   22922404.2704
     -2679.927       -2088.238
  -7643006.209 9  -5936977.02747  22877974.350    22877974.7004   22877987.3964
      3946.139        3074.933
 -26038068.242 9 -20263605.05447  22976457.377    22976457.3304   22976468.5924
     -1200.345        -935.335
 02  9 15  0  1 35.0000000  0  8  3 22 31 13 27  1  8  2             0.000007860
 -27362026.464 9 -20683846.71548  21400536.863    21400537.2714   21400546.8324
     -1359.824       -1059.604
 -21834060.328 9 -16995695.81746  24003625.530    24003625.4964   24003637.7454
     -2344.968       -1827.251
 -35092670.062 9 -27326918.36248  19953515.435    19953515.5734   19953523.9634
      1314.489        1024.268
 -29815904.973 9 -22915118.98048  21588541.514    21588542.3704   21588550.7564
     -1363.912       -1062.787
 -28546558.501 9 -21987440.06948  21245097.671    21245098.2314   21245107.5604
      2894.541        2255.484
 -19450097.749 9 -15134554.50547  22924942.073    22924942.4424   22924954.7204
     -2681.176       -2089.226
  -7662735.086 9  -5952350.15047  22874220.035    22874220.3834   22874233.0944
      3945.401        3074.340
 -26032065.070 9 -20258927.26047  22977599.766    22977599.6934   22977610.9494
     -1200.970        -935.813
 02  9 15  0  1 40.0000000  0  8  3 22 31 13 27  1  8  2             0.000005526
 -27355222.170 9 -20678544.67448  21401831.685    21401832.0884   21401841.6274
     -1361.644       -1061.005
 -21822336.180 9 -16986560.11746  24005856.614    24005856.5494   24005868.8084
     -2344.494       -1826.880
 -35099234.832 9 -27332033.76648  19952266.142    19952266.3124   19952274.7344
      1311.649        1022.063
 -29809079.503 9 -22909800.43148  21589840.376    21589841.2054   21589849.5784
     -1366.007       -1064.422
 -28561028.798 9 -21998715.61348  21242344.087    21242344.6284   21242353.9834
      2893.611        2254.758
 -19436689.767 9 -15124106.74847  22927493.514    22927493.8894   22927506.1894
     -2681.731       -2089.652
  -7682461.168 9  -5967721.09147  22870466.278    22870466.6074   22870479.3264
      3945.368        3074.309
 -26026059.611 9 -20254247.67047  22978742.576    22978742.4754   22978753.7244
     -1200.905        -935.779
 02  9 15  0  1 45.0000000  0  8  3 22 31 13 27  1  8  2             0.000003193
 -27348405.708 9 -20673233.13948  21403128.827    21403129.2324   21403138.7604
     -1364.576       -1063.309
 -21810611.492 9 -16977424.00146  24008087.765    24008087.7124   24008099.9864
     -2345.054       -1827.311
 -35105782.275 9 -27337135.66248  19951020.146    19951020.3534   19951028.8034
      1307.629        1018.928
 -29802240.492 9 -22904471.33548  21591141.822    21591142.6294   21591150.9794
     -1369.253       -1066.964
 -28575491.412 9 -22009985.17648  21239591.945    21239592.4824   21239601.8614
      2891.534        2253.142
 -19423276.128 9 -15113654.58447  22930046.037    22930046.4284   22930058.7414
     -2683.381       -2090.950
  -7702184.066 9  -5983089.56447  22866713.152    22866713.4284   22866726.1534
      3944.206        3073.397
 -26020051.499 9 -20249566.03147  22979885.864    22979885.7684   22979897.0144
     -1201.969        -936.601
 02  9 15  0  1 50.0000000  0  8  3 22 31 13 27  1  8  2             0.000000860
 -27341577.283 9 -20667912.29448  21404428.248    21404428.6224   21404438.1504
     -1366.810       -1065.043
 -21798886.440 9 -16968287.60146  24010318.974    24010318.9534   24010331.2314
     -2344.941       -1827.229
 -35112312.648 9 -27342224.26548  19949777.405    19949777.6404   19949786.1244
      1304.455        1016.460
 -29795388.157 9 -22899131.86748  21592445.789    21592446.5794   21592454.9034
     -1371.698       -1068.853
 -28589946.597 9 -22021248.94648  21236841.203    21236841.7444   21236851.1464
      2890.257        2252.147
 -19409857.078 9 -15103198.19847  22932599.609    22932600.0154   22932612.3324
     -2684.255       -2091.632
  -7721904.020 9  -5998455.72947  22862960.556    22862960.8084   22862973.5484
      3943.860        3073.145
 -26014040.965 9 -20244882.49747  22981029.603    22981029.5064   22981040.7614
     -1202.230        -936.808
 02  9 15  0  1 55.0000000  0  8  3 22 31 13 27  1  8  2            -0.000001474
 -27334737.844 9 -20662582.86348  21405729.760    21405730.1414   21405739.6244
     -1370.963       -1068.274
 -21787162.020 9 -16959151.69146  24012550.068    24012550.0364   24012562.3344
     -2346.797       -1828.671
 -35118826.828 9 -27347300.23648  19948537.762    19948538.0194   19948546.5304
      1299.299        1012.446
 -29788523.437 9 -22893782.73848  21593752.117    21593752.8834   21593761.1844
     -1376.135       -1072.309
 -28604395.180 9 -22032507.56948  21234091.707    21234092.2614   21234101.6904
      2886.993        2249.602
 -19396433.532 9 -15092738.30247  22935154.064    22935154.4434   22935166.7954
     -2687.116       -2093.846
  -7741621.904 9  -6013820.28047  22859208.349    22859208.5744   22859221.3234
      3941.421        3071.227
 -26008028.910 9 -20240197.77947  22982173.639    22982173.5494   22982184.7904
     -1204.499        -938.565
 02  9 15  0  2  0.0000000  0  8  3 22 31 13 27  1  8  2            -0.000003806
 -27327883.842 9 -20657242.08248  21407034.056    21407034.4164   21407043.8664
     -1371.260       -1068.526
 -21775434.701 9 -16950013.51646  24014781.726    24014781.6644   24014793.9614
     -2344.709       -1827.046
 -35125321.283 9 -27352360.84748  19947301.870    19947302.1554   19947310.6834
      1297.949        1011.383
 -29781642.789 9 -22888421.19748  21595061.478    21595062.2194   21595070.4834
     -1376.711       -1072.767
 -28618833.721 9 -22043758.37248  21231344.135    21231344.6814   21231354.1284
      2887.613        2250.079
 -19383001.950 9 -15082272.16247  22937710.047    22937710.4164   22937722.7744
     -2686.131       -2093.085
  -7761334.223 9  -6029180.49947  22855457.179    22855457.3984   22855470.1814
      3942.990        3072.442
 -26002011.810 9 -20235509.12747  22983318.649    22983318.5624   22983329.8074
     -1202.924        -937.354
 02  9 15  0  2  4.9990000  0  8  3 22 31 13 27  1  8  2            -0.000006139
 -27321021.898 9 -20651895.11548  21408339.856    21408340.2124   21408349.6094
     -1373.684       -1070.399
 -21763711.995 9 -16940878.92347  24017012.483    24017012.4344   24017024.6984
     -2344.897       -1827.191
 -35131799.953 9 -27357409.15748  19946069.009    19946069.2934   19946077.8354
      1294.477        1008.688
 -29774752.898 9 -22883052.45748  21596372.585    21596373.3064   21596381.5554
     -1379.381       -1074.842
 -28633264.438 9 -22055003.07448  21228598.061    21228598.5924   21228608.0574
      2886.033        2248.854
 -19369570.312 9 -15071805.97247  22940266.031    22940266.3734   22940278.7764
     -2687.191       -2093.909
  -7781042.234 9  -6044537.36247  22851706.804    22851707.0104   22851719.8284
      3942.328        3071.943
 -25995996.094 9 -20230821.56247  22984463.392    22984463.3274   22984474.5714
     -1203.447        -937.741
 02  9 15  0  2  9.9990000  0  8  3 22 31 13 27  1  8  2            -0.000008474
 -27314148.822 9 -20646539.46348  21409647.780    21409648.1334   21409657.4624
     -1375.950       -1072.173
 -21751988.813 9 -16931743.96047  24019243.305    24019243.2964   24019255.5504
     -2344.818       -1827.136
 -35138264.974 9 -27362446.82048  19944838.760    19944839.0334   19944847.6054
      1291.135        1006.072
 -29767850.533 9 -22877673.99548  21597686.054    21597686.7624   21597694.9994
     -1381.958       -1076.863
 -28647692.757 9 -22066245.91048  21225852.454    21225852.9744   21225862.4514
      2884.682        2247.798
 -19356132.770 9 -15061335.18147  22942823.143    22942823.4634   22942835.9104
     -2688.217       -2094.720
  -7800753.353 9  -6059896.65047  22847955.819    22847956.0444   22847968.8854
      3941.821        3071.543
 -25989978.924 9 -20226132.85348  22985608.435    22985608.3864   22985619.6264
     -1203.810        -938.046
 02  9 15  0  2 14.9990000  0  8  3 22 31 13 27  1  8  2            -0.000010809
 -27307263.106 9 -20641173.96748  21410958.094    21410958.4594   21410967.7194
     -1378.102       -1073.834
 -21740264.574 9 -16922608.18947  24021474.298    24021474.3244   24021486.6104
     -2344.711       -1827.045
 -35144712.153 9 -27367470.59048  19943611.892    19943612.1564   19943620.7634
      1287.967        1003.612
 -29760934.132 9 -22872284.60348  21599002.189    21599002.9014   21599011.1404
     -1384.380       -1078.733
 -28662112.760 9 -22077482.26948  21223108.421    21223108.9314   21223118.4224
      2883.360        2246.774
 -19342689.121 9 -15050859.62947  22945381.399    22945381.7144   22945394.2334
     -2689.044       -2095.353
  -7820460.681 9  -6075252.99047  22844205.558    22844205.8244   22844218.6564
      3941.383        3071.210
 -25983958.575 9 -20221441.67148  22986754.081    22986754.0654   22986765.2974
     -1204.044        -938.225
 02  9 15  0  2 19.9990000  0  8  3 22 31 13 27  1  8  2            -0.000013143
 -27300365.860 9 -20635799.48548  21412270.609    21412270.9784   21412280.1884
     -1380.234       -1075.500
 -21728540.391 9 -16913472.45947  24023705.287    24023705.3834   24023717.6474
     -2344.564       -1826.934
 -35151142.556 9 -27372481.29248  19942388.240    19942388.4704   19942397.0964
      1284.780        1001.125
 -29754004.821 9 -22866885.14748  21600320.779    21600321.5014   21600329.7354
     -1386.754       -1080.596
 -28676525.597 9 -22088713.04348  21220365.764    21220366.2704   21220375.7474
      2882.123        2245.810
 -19329240.488 9 -15040380.19947  22947940.597    22947940.9014   22947953.4894
     -2689.848       -2095.985
  -7840165.300 9  -6090607.21547  22840455.843    22840456.1294   22840468.9304
      3941.050        3070.952
 -25977936.140 9 -20216748.86048  22987900.150    22987900.1274   22987911.3734
     -1204.321        -938.435
 02  9 15  0  2 24.9990000  0  8  3 22 31 13 27  1  8  2            -0.000015479
 -27293458.262 9 -20630416.93348  21413585.084    21413585.4534   21413594.6224
     -1383.096       -1077.745
 -21716817.353 9 -16904337.61747  24025936.053    24025936.2014   24025948.4524
     -2345.045       -1827.313
 -35157557.390 9 -27377479.85248  19941167.524    19941167.7524   19941176.4054
      1280.859         998.066
 -29747063.809 9 -22861476.56948  21601641.586    21601642.3404   21601650.5634
     -1389.896       -1083.041
 -28690932.449 9 -22099939.14648  21217624.241    21217624.7384   21217634.2194
      2880.114        2244.239
 -19315788.052 9 -15029897.80047  22950500.519    22950500.8134   22950513.4714
     -2691.408       -2097.196
  -7859868.447 9  -6105960.28747  22836706.411    22836706.7214   22836719.4794
      3939.980        3070.099
 -25971912.823 9 -20212055.36548  22989046.391    22989046.3664   22989057.6274
     -1205.269        -939.170
 02  9 15  0  2 29.9990000  0  8  3 22 31 13 27  1  8  2            -0.000017812
 -27286535.763 9 -20625022.78348  21414902.392    21414902.7614   21414911.9064
     -1385.381       -1079.520
 -21705091.043 9 -16895200.23147  24028167.475    24028167.6424   24028179.8684
     -2344.964       -1827.246
 -35163952.089 9 -27382462.73548  19939950.634    19939950.8664   19939959.5484
      1277.528         995.474
 -29740106.524 9 -22856055.31848  21602965.506    21602966.2654   21602974.5054
     -1392.468       -1085.043
 -28705328.748 9 -22111157.03848  21214884.717    21214885.2274   21214894.7024
      2878.716        2243.150
 -19302327.288 9 -15019408.91647  22953062.037    22953062.3294   22953075.0354
     -2692.354       -2097.955
  -7879565.542 9  -6121308.65347  22832958.143    22832958.4444   22832971.1854
      3939.480        3069.722
 -25965884.039 9 -20207357.61248  22990193.670    22990193.6594   22990204.9054
     -1205.691        -939.494
 02  9 15  0  2 34.9990000  0  8  3 22 31 13 27  1  8  2            -0.000020147
 -27279602.864 9 -20619620.52048  21416221.673    21416222.0394   21416231.1664
     -1387.562       -1081.221
 -21693365.862 9 -16886063.72247  24030398.724    24030398.8554   24030411.0654
     -2344.887       -1827.186
 -35170331.171 9 -27387433.43748  19938736.707    19938736.9624   19938745.6504
      1274.331         992.980
 -29733137.498 9 -22850624.91148  21604291.647    21604292.4344   21604300.6794
     -1394.913       -1086.945
 -28719718.928 9 -22122370.15248  21212146.366    21212146.8534   21212156.3314
      2877.385        2242.118
 -19288862.669 9 -15008917.02947  22955624.280    22955624.5494   22955637.3274
     -2693.209       -2098.599
  -7899261.082 9  -6136655.79247  22829210.149    22829210.4654   22829223.2044
      3939.064        3069.393
 -25959854.311 9 -20202659.12048  22991341.119    22991341.1104   22991352.3684
     -1205.960        -939.708
 02  9 15  0  2 39.9990000  0  8  3 22 31 13 27  1  8  2            -0.000022480
 -27272657.194 9 -20614208.31148  21417543.372    21417543.7354   21417552.8724
     -1390.744       -1083.701
 -21681639.522 9 -16876926.31147  24032630.226    24032630.3114   24032642.4844
     -2345.737       -1827.844
 -35176692.238 9 -27392390.10748  19937526.216    19937526.4764   19937535.1614
      1270.059         989.650
 -29726154.354 9 -22845183.50348  21605620.489    21605621.2664   21605629.5404
     -1398.387       -1089.659
 -28734100.621 9 -22133576.65448  21209409.621    21209410.0964   21209419.5824
      2875.048        2240.286
 -19275391.852 9 -14998420.30847  22958187.719    22958187.9464   22958200.7884
     -2695.127       -2100.087
  -7918952.640 9  -6151999.84247  22825462.913    22825463.2284   22825475.9634
      3937.624        3068.269
 -25953821.216 9 -20197958.01148  22992489.167    22992489.2144   22992500.4554
     -1207.308        -940.769
 02  9 15  0  2 44.9990000  0  8  3 22 31 13 27  1  8  2            -0.000024813
 -27265698.432 9 -20608785.91048  21418867.549    21418867.9204   21418877.0694
     -1393.328       -1085.716
 -21669911.606 9 -16867787.67947  24034862.054    24034862.0814   24034874.2484
     -2346.050       -1828.092
 -35183034.945 9 -27397332.47348  19936319.197    19936319.4934   19936328.1814
      1266.455         986.847
 -29719156.757 9 -22839730.83448  21606952.077    21606952.8424   21606961.1574
     -1401.227       -1091.869
 -28748473.517 9 -22144776.30848  21206674.537    21206675.0204   21206684.5054
      2873.333        2238.957
 -19261914.520 9 -14987918.51047  22960752.370    22960752.6024   22960765.4674
     -2696.365       -2101.061
  -7938639.892 9  -6167340.53747  22821716.502    22821716.8394   22821729.5494
      3936.792        3067.626
 -25947784.457 9 -20193254.05047  22993637.905    22993637.9814   22993649.2524
     -1207.953        -941.262
 02  9 15  0  2 49.9990000  0  8  3 22 31 13 27  1  8  2            -0.000027145
 -27258728.076 9 -20603354.46348  21420193.917    21420194.3134   21420203.4544
     -1395.761       -1087.610
 -21658183.604 9 -16858648.98347  24037093.888    24037093.8714   24037106.0594
     -2346.117       -1828.149
 -35189360.784 9 -27402261.69048  19935115.397    19935115.7164   19935124.3984
      1262.964         984.122
 -29712146.192 9 -22834268.06648  21608286.115    21608286.8864   21608295.2424
     -1403.938       -1093.982
 -28762839.050 9 -22155970.22148  21203940.860    21203941.3314   21203950.8224
      2871.769        2237.736
 -19248432.160 9 -14977412.79247  22963317.985    22963318.2094   22963331.1194
     -2697.492       -2101.939
  -7958324.341 9  -6182679.04447  22817970.643    22817970.9944   22817983.6884
      3936.133        3067.117
 -25941745.493 9 -20188548.36347  22994787.065    22994787.1384   22994798.4544
     -1208.518        -941.708
 02  9 15  0  2 54.9990000  0  8  3 22 31 13 27  1  8  2            -0.000029477
 -27251744.760 9 -20597912.92248  21421522.747    21421523.1714   21421532.3174
     -1398.015       -1089.364
 -21646454.207 9 -16849509.19546  24039325.988    24039325.9174   24039338.1134
     -2346.086       -1828.113
 -35195668.376 9 -27407176.68948  19933915.088    19933915.4064   19933924.0954
      1259.609         981.521
 -29705121.320 9 -22828794.14648  21609622.867    21609623.6604   21609632.0444
     -1406.461       -1095.941
 -28777195.839 9 -22167157.31748  21201208.855    21201209.3184   21201218.8034
      2870.303        2236.596
 -19234943.419 9 -14966902.10547  22965884.808    22965885.0324   22965897.9964
     -2698.447       -2102.691
  -7978004.558 9  -6198014.25447  22814225.594    22814225.9224   22814238.6174
      3935.617        3066.713
 -25935702.925 9 -20183839.88647  22995936.902    22995936.9614   22995948.3034
     -1208.929        -942.026
 02  9 15  0  2 59.9990000  0  8  3 22 31 13 27  1  8  2            -0.000031809
 -27244749.873 9 -20592462.35748  21422853.791    21422854.2164   21422863.3884
     -1400.043       -1090.948
 -21634724.755 9 -16840369.36146  24041558.089    24041557.9664   24041570.1394
     -2345.837       -1827.926
 -35201959.114 9 -27412078.55348  19932718.016    19932718.3084   19932727.0064
      1256.579         979.147
 -29698083.521 9 -22823310.15248  21610962.086    21610962.8804   21610971.3234
     -1408.762       -1097.739
 -28791545.291 9 -22178338.69848  21198478.244    21198478.6904   21198488.1804
      2869.153        2235.698
 -19221449.672 9 -14956387.51647  22968452.574    22968452.8164   22968465.8064
     -2699.163       -2103.241
  -7997681.893 9  -6213347.20747  22810481.088    22810481.4414   22810494.1194
      3935.292        3066.454
 -25929658.173 9 -20179129.69347  22997087.140    22997087.1914   22997098.5614
     -1209.070        -942.123
 02  9 15  0  3  4.9990000  0  8  3 22 31 13 27  1  8  2            -0.000034142
 -27237744.695 9 -20587003.77448  21424186.776    21424187.2264   21424196.4114
     -1402.475       -1092.842
 -21622996.496 9 -16831230.45346  24043789.929    24043789.8154   24043801.9244
     -2345.944       -1828.012
 -35208234.244 9 -27416968.25848  19931523.923    19931524.1874   19931532.9004
      1253.074         976.418
 -29691034.072 9 -22817817.08848  21612303.532    21612304.3344   21612312.8094
     -1411.466       -1099.845
 -28805888.577 9 -22189515.27248  21195748.802    21195749.2444   21195758.7264
      2867.534        2234.428
 -19207952.190 9 -14945870.00647  22971021.054    22971021.2954   22971034.3574
     -2700.257       -2104.091
  -8017357.617 9  -6228678.91847  22806736.898    22806737.2264   22806749.8964
      3934.626        3065.933
 -25923612.506 9 -20174418.79047  22998237.546    22998237.6024   22998248.9944
     -1209.611        -942.559
 02  9 15  0  3  9.9990000  0  8  3 22 31 13 27  1  8  2            -0.000036474
 -27230726.253 9 -20581534.86448  21425522.296    21425522.7574   21425531.9474
     -1405.088       -1094.876
 -21611266.480 9 -16822090.16746  24046022.076    24046022.0234   24046034.0284
     -2346.289       -1828.278
 -35214490.752 9 -27421843.45248  19930333.361    19930333.6084   19930342.3364
      1249.370         973.532
 -29683969.941 9 -22812312.58048  21613647.787    21613648.6024   21613657.0924
     -1414.366       -1102.098
 -28820222.705 9 -22200684.71448  21193021.092    21193021.5284   21193031.0024
      2865.718        2233.026
 -19194447.994 9 -14935347.28847  22973590.783    22973591.0634   22973604.1484
     -2701.620       -2105.150
  -8037028.731 9  -6244007.03747  22802993.581    22802993.9234   22803006.5424
      3933.726        3065.240
 -25917562.909 9 -20169704.81847  22999388.709    22999388.7764   22999400.1504
     -1210.383        -943.172
 02  9 15  0  3 14.9990000  0  8  3 22 31 13 27  1  8  2            -0.000038806
 -27223696.406 9 -20576057.06048  21426859.982    21426860.4574   21426869.6654
     -1407.293       -1096.598
 -21599536.531 9 -16812949.93646  24048254.164    24048254.1804   24048266.1454
     -2346.202       -1828.211
 -35220730.536 9 -27426705.61148  19929145.976    19929146.2174   19929154.9494
      1246.117         970.992
 -29676893.062 9 -22806798.13248  21614994.483    21614995.2904   21615003.8034
     -1416.815       -1104.021
 -28834549.589 9 -22211848.50648  21190294.757    21190295.1994   21190304.6694
      2864.362        2231.957
 -19180938.981 9 -14924820.80147  22976161.435    22976161.7374   22976174.8664
     -2702.462       -2105.807
  -8056697.104 9  -6259333.02147  22799250.784    22799251.1574   22799263.7174
      3933.226        3064.837
 -25911511.243 9 -20164989.23447  23000540.259    23000540.3574   23000551.7094
     -1210.703        -943.418
 02  9 15  0  3 19.9990000  0  8  3 22 31 13 27  1  8  2            -0.000041139
 -27216656.438 9 -20570571.37248  21428199.593    21428200.0794   21428209.3304
     -1408.979       -1097.905
 -21587807.953 9 -16803810.78646  24050485.963    24050486.0614   24050497.9824
     -2345.557       -1827.704
 -35226954.826 9 -27431555.70448  19927961.525    19927961.7594   19927970.5124
      1243.350         968.850
 -29669804.715 9 -22801274.75248  21616343.358    21616344.1614   21616352.6814
     -1418.774       -1105.533
 -28848870.445 9 -22223007.60948  21187569.576    21187570.0144   21187579.4644
      2863.473        2231.286
 -19167426.423 9 -14914291.54947  22978732.761    22978733.1004   22978746.2394
     -2702.819       -2106.090
  -8076363.985 9  -6274657.84347  22795508.280    22795508.6724   22795521.1604
      3933.295        3064.899
 -25905458.799 9 -20160273.03647  23001691.969    23001692.1294   23001703.4134
     -1210.507        -943.252
 02  9 15  0  3 24.9990000  0  8  3 22 31 13 27  1  8  2            -0.000043475
 -27209608.356 9 -20565079.35948  21429540.767    21429541.2594   21429550.5324
     -1410.944       -1099.447
 -21576082.736 9 -16794674.26546  24052717.142    24052717.2784   24052729.1904
     -2345.193       -1827.415
 -35233165.653 9 -27436395.30348  19926779.636    19926779.8714   19926788.6434
      1240.339         966.494
 -29662706.880 9 -22795743.97548  21617694.041    21617694.8274   21617703.3784
     -1420.988       -1107.269
 -28863187.288 9 -22234163.57948  21184845.167    21184845.6014   21184855.0164
      2862.351        2230.402
 -19153912.315 9 -14903761.09547  22981304.360    22981304.7654   22981317.8964
     -2703.492       -2106.607
  -8096031.316 9  -6289983.01047  22791765.678    22791766.0774   22791778.5494
      3933.040        3064.707
 -25899407.555 9 -20155557.77847  23002843.487    23002843.6804   23002854.8844
     -1210.605        -943.330
 02  9 15  0  3 29.9990000  0  8  3 22 31 13 27  1  8  2            -0.000045809
 -27202546.340 9 -20559576.49848  21430884.596    21430885.0954   21430894.3884
     -1413.757       -1101.631
 -21564355.058 9 -16785535.81546  24054948.845    24054948.9764   24054960.8284
     -2345.744       -1827.846
 -35239357.151 9 -27441219.84348  19925601.425    19925601.6554   19925610.4604
      1236.407         963.434
 -29655593.707 9 -22790201.25248  21619047.646    21619048.4324   21619057.0104
     -1424.145       -1109.723
 -28877494.234 9 -22245311.84248  21182122.643    21182123.0584   21182132.4684
      2860.339        2228.833
 -19140390.860 9 -14893224.91547  22983877.366    22983877.8114   22983890.9484
     -2705.005       -2107.773
  -8115693.287 9  -6305303.99847  22788024.088    22788024.5134   22788036.9384
      3931.997        3063.886
 -25893351.688 9 -20150838.91647  23003995.899    23003996.1104   23004007.2384
     -1211.586        -944.083
 02  9 15  0  3 34.9990000  0  8  3 22 31 13 27  1  8  2            -0.000048142
 -27195472.356 9 -20554064.30248  21432230.713    21432231.2254   21432240.5324
     -1415.550       -1103.033
 -21552626.862 9 -16776396.96646  24057180.659    24057180.7664   24057192.5894
     -2345.300       -1827.512
 -35245531.350 9 -27446030.90148  19924426.496    19924426.7264   19924435.5644
      1233.571         961.228
 -29648467.264 9 -22784648.18748  21620403.764    21620404.5364   21620413.1634
     -1426.156       -1111.288
 -28891793.322 9 -22256453.97948  21179401.602    21179402.0104   21179411.4154
      2859.380        2228.089
 -19126864.037 9 -14882684.54447  22986451.425    22986451.8944   22986465.0114
     -2705.455       -2108.157
  -8135351.941 9  -6320622.40247  22784283.138    22784283.5704   22784295.9604
      3931.906        3063.813
 -25887293.164 9 -20146117.97547  23005148.847    23005149.0594   23005160.1464
     -1211.507        -944.040
 02  9 15  0  3 39.9990000  0  8  3 22 31 13 27  1  8  2            -0.000050476
 -27188388.060 9 -20548544.07748  21433578.829    21433579.3354   21433588.6434
     -1417.656       -1104.660
 -21540899.859 9 -16767259.04246  24059412.249    24059412.3184   24059424.1144
     -2345.068       -1827.324
 -35251689.820 9 -27450829.70348  19923254.541    19923254.7904   19923263.6664
      1230.375         958.728
 -29641329.112 9 -22779086.00548  21621762.098    21621762.8674   21621771.5464
     -1428.564       -1113.156
 -28906086.071 9 -22267591.17448  21176681.767    21176682.1544   21176691.5634
      2858.026        2227.032
 -19113333.463 9 -14872141.25147  22989026.223    22989026.7014   22989039.8244
     -2706.244       -2108.752
  -8155008.806 9  -6335939.42247  22780542.534    22780542.9904   22780555.3004
      3931.475        3063.489
 -25881233.602 9 -20141396.23447  23006302.011    23006302.2034   23006313.2594
     -1211.746        -944.214
 02  9 15  0  3 44.9990000  0  8  3 22 31 13 27  1  8  2            -0.000052809
 -27181290.784 9 -20543013.73548  21434929.407    21434929.9134   21434939.2194
     -1419.884       -1106.400
 -21529171.256 8 -16758119.87046  24061644.149    24061644.1934   24061655.9864
     -2345.003       -1827.277
 -35257829.904 9 -27455614.18048  19922086.097    19922086.3584   19922095.2734
      1227.060         956.155
 -29634176.566 9 -22773512.60048  21623123.180    21623123.9414   21623132.6634
     -1431.057       -1115.105
 -28920369.846 9 -22278721.37948  21173963.630    21173964.0134   21173973.4254
      2856.645        2225.961
 -19099796.499 9 -14861592.98847  22991602.258    22991602.7244   22991615.8264
     -2707.151       -2109.459
  -8174661.235 9  -6351252.99147  22776802.813    22776803.2324   22776815.4834
      3930.971        3063.096
 -25875170.358 9 -20136671.61947  23007455.866    23007456.0364   23007467.0794
     -1212.130        -944.524
 02  9 15  0  3 49.9990000  0  8  3 22 31 13 27  1  8  2            -0.000055143
 -27174183.136 9 -20537475.30448  21436281.969    21436282.4804   21436291.7624
     -1422.572       -1108.500
 -21517443.696 8 -16748981.51646  24063875.860    24063875.8414   24063887.6604
     -2345.388       -1827.569
 -35263954.200 9 -27460386.34948  19920920.678    19920920.9304   19920929.8694
      1223.268         953.182
 -29627012.324 9 -22767930.08148  21624486.482    21624487.2374   21624496.0034
     -1434.044       -1117.441
 -28934647.240 9 -22289846.60848  21171246.709    21171247.0784   21171256.5104
      2854.713        2224.446
 -19086255.743 9 -14851041.76647  22994179.017    22994179.4544   22994192.5844
     -2708.544       -2110.552
  -8194311.833 9  -6366565.12047  22773063.443    22773063.8274   22773076.0074
      3929.949        3062.314
 -25869105.996 9 -20131946.14947  23008609.903    23008610.0444   23008621.1084
     -1212.993        -945.202
 02  9 15  0  3 54.9990000  0  8  3 22 31 13 27  1  8  2            -0.000057477
 -27167064.815 9 -20531928.56448  21437636.581    21437637.0804   21437646.3334
     -1424.746       -1110.196
 -21505716.876 8 -16739843.74046  24066107.389    24066107.3254   24066119.2364
     -2345.312       -1827.517
 -35270062.415 9 -27465145.99048  19919758.313    19919758.5534   19919767.5354
      1220.055         950.687
 -29619836.081 9 -22762338.20948  21625852.064    21625852.8224   21625861.6164
     -1436.431       -1119.301
 -28948917.955 9 -22300966.63648  21168531.055    21168531.4134   21168540.8924
      2853.376        2223.406
 -19072710.921 9 -14840487.37247  22996756.554    22996756.9564   22996770.1154
     -2709.349       -2111.192
  -8213960.268 9  -6381875.55446  22769324.485    22769324.8114   22769336.9804
      3929.497        3061.919
 -25863040.232 9 -20127219.57947  23009764.200    23009764.3384   23009775.4284
     -1213.306        -945.441
 02  9 15  0  3 59.9990000  0  8  3 22 31 13 27  1  8  2            -0.000059812
 -27159934.594 9 -20526372.54848  21438993.443    21438993.9404   21439003.1754
     -1426.691       -1111.711
 -21493989.636 8 -16730705.63746  24068338.900    24068338.8524   24068350.8104
     -2344.890       -1827.179
 -35276153.306 9 -27469892.13148  19918599.243    19918599.4694   19918608.4814
      1216.993         948.305
 -29612646.610 9 -22756736.03048  21627220.161    21627220.9284   21627229.7414
     -1438.669       -1121.040
 -28963180.740 9 -22312080.47948  21165816.894    21165817.2574   21165826.7524
      2852.227        2222.510
 -19059160.786 9 -14829928.85847  22999335.096    22999335.4744   22999348.6474
     -2709.990       -2111.670
  -8233605.278 9  -6397183.33346  22765586.157    22765586.4484   22765598.5674
      3929.231        3061.727
 -25856971.829 9 -20122490.96747  23010918.971    23010919.0834   23010930.2464
     -1213.375        -945.482
 02  9 15  0  4  4.9990000  0  8  3 22 31 13 27  1  8  2            -0.000062148
 -27152795.037 9 -20520809.25548  21440352.090    21440352.5764   21440361.7934
     -1429.433       -1113.854
 -21482264.427 8 -16721569.13046  24070569.971    24070569.9864   24070582.0124
     -2345.448       -1827.624
 -35282229.449 9 -27474626.78448  19917442.977    19917443.1864   19917452.2494
      1213.148         945.308
 -29605446.462 9 -22751125.52348  21628590.277    21628591.0764   21628599.8914
     -1441.687       -1123.395
 -28977438.070 9 -22323190.07248  21163103.765    21163104.1294   21163113.6624
      2850.218        2220.940
 -19045607.953 9 -14819368.21847  23001914.145    23001914.5134   23001927.6924
     -2711.423       -2112.796
  -8253249.442 9  -6412490.44746  22761847.986    22761848.2364   22761860.3224
      3928.157        3060.904
 -25850903.344 9 -20117762.29147  23012073.732    23012073.8294   23012085.0654
     -1214.301        -946.206
 02  9 15  0  4  9.9990000  0  8  3 22 31 13 27  1  8  2            -0.000064482
 -27145640.573 9 -20515234.35248  21441713.566    21441714.0544   21441723.2264
     -1432.046       -1115.882
 -21470535.743 8 -16712429.89946  24072801.730    24072801.8214   24072813.8324
     -2345.757       -1827.863
 -35288285.217 9 -27479345.56048  19916290.581    19916290.7884   19916299.8804
      1209.429         942.415
 -29598230.086 9 -22745502.37348  21629963.469    21629964.3104   21629973.1244
     -1444.551       -1125.627
 -28991684.434 9 -22334291.12848  21160392.709    21160393.0974   21160402.6584
      2848.420        2219.551
 -19032046.818 9 -14808801.13547  23004494.759    23004495.0914   23004508.3044
     -2712.702       -2113.781
  -8272887.143 9  -6427792.53746  22758111.058    22758111.2734   22758123.2894
      3927.298        3060.239
 -25844829.202 9 -20113029.20747  23013229.555    23013229.6404   23013240.9534
     -1215.049        -946.791
 02  9 15  0  4 14.9990000  0  8  3 22 31 13 27  1  8  2            -0.000066815
 -27138473.865 9 -20509649.90248  21443077.368    21443077.8654   21443086.9964
     -1434.422       -1117.725
 -21458806.251 8 -16703290.02546  24075033.689    24075033.8534   24075045.8584
     -2345.899       -1827.963
 -35294323.318 9 -27484050.56648  19915141.543    19915141.7434   19915150.8794
      1205.987         939.724
 -29591000.116 9 -22739868.63148  21631339.270    21631340.1374   21631348.9604
     -1447.195       -1127.693
 -29005922.479 9 -22345385.69348  21157683.221    21157683.6634   21157693.2284
      2846.813        2218.289
 -19018480.071 9 -14798229.64847  23007076.412    23007076.7304   23007089.9904
     -2713.762       -2114.627
  -8292521.026 9  -6443091.63946  22754374.853    22754375.0484   22754386.9824
      3926.579        3059.672
 -25838752.076 9 -20108293.78947  23014385.922    23014386.0144   23014397.4184
     -1215.552        -947.189
 02  9 15  0  4 19.9990000  0  8  3 22 31 13 27  1  8  2            -0.000069148
 -27131295.625 9 -20504056.46848  21444443.368    21444443.8684   21444452.9624
     -1436.430       -1119.307
 -21447076.655 8 -16694150.07746  24077265.714    24077265.8954   24077277.9104
     -2345.486       -1827.661
 -35300344.442 9 -27488742.35048  19913995.716    19913995.9454   19914005.0934
      1202.910         937.328
 -29583757.290 9 -22734224.87848  21632717.563    21632718.4224   21632727.2504
     -1449.468       -1129.461
 -29020152.873 9 -22356474.30548  21154975.202    21154975.6784   21154985.2604
      2845.571        2217.325
 -19004908.412 9 -14787654.35747  23009658.983    23009659.3314   23009672.6064
     -2714.440       -2115.146
  -8312151.784 9  -6458388.31546  22750639.240    22750639.4084   22750651.2844
      3926.246        3059.389
 -25832672.625 9 -20103556.57647  23015542.714    23015542.8324   23015554.2824
     -1215.730        -947.330
 02  9 15  0  4 24.9990000  0  8  3 22 31 13 27  1  8  2            -0.000071482
 -27124107.428 9 -20498455.27148  21445811.260    21445811.7634   21445820.8314
     -1438.681       -1121.054
 -21435348.472 8 -16685011.23445  24079497.468    24079497.7094   24079509.7034
     -2345.596       -1827.734
 -35306350.107 9 -27493422.07948  19912852.841    19912853.0864   19912862.2504
      1199.555         934.716
 -29576503.161 9 -22728572.31348  21634098.016    21634098.8664   21634107.6994
     -1451.962       -1131.397
 -29034377.130 9 -22367558.13348  21152268.360    21152268.8604   21152278.4564
      2844.111        2216.191
 -18991333.409 9 -14777076.45147  23012242.169    23012242.5724   23012255.8734
     -2715.401       -2115.894
  -8331780.893 9  -6473683.70546  22746903.948    22746904.1034   22746915.8804
      3925.647        3058.950
 -25826592.431 9 -20098818.76947  23016699.662    23016699.8274   23016711.2894
     -1216.135        -947.638
 02  9 15  0  4 29.9990000  0  8  3 22 31 13 27  1  8  2            -0.000073816
 -27116907.453 9 -20492844.90048  21447181.378    21447181.9084   21447190.9414
     -1440.974       -1122.849
 -21423619.920 8 -16675872.10745  24081729.299    24081729.5764   24081741.5214
     -2345.551       -1827.705
 -35312338.524 9 -27498088.37548  19911713.254    19911713.5184   19911722.6854
      1196.165         932.075
 -29569235.909 9 -22722909.52748  21635480.987    21635481.8104   21635490.6414
     -1454.554       -1133.416
 -29048593.458 9 -22378635.78148  21149563.042    21149563.5584   21149573.1524
      2842.581        2214.989
 -18977753.272 9 -14766494.55347  23014826.341    23014826.7624   23014840.0854
     -2716.328       -2116.616
  -8351406.611 9  -6488976.44946  22743169.305    22743169.4564   22743181.1314
      3925.035        3058.472
 -25820509.666 9 -20094078.96647  23017857.131    23017857.3564   23017868.7794
     -1216.559        -947.971
 02  9 15  0  4 34.9990000  0  8  3 22 31 13 27  1  8  2            -0.000076149
 -27109694.352 9 -20487224.30148  21448553.992    21448554.5424   21448563.5604
     -1443.606       -1124.891
 -21411889.627 8 -16666731.61445  24083961.473    24083961.7444   24083973.6574
     -2345.975       -1828.039
 -35318308.291 9 -27502740.13548  19910577.232    19910577.5184   19910586.6524
      1192.434         929.169
 -29561954.176 9 -22717235.46048  21636866.702    21636867.5124   21636876.3384
     -1457.453       -1135.672
 -29062800.433 9 -22389706.14148  21146859.513    21146860.0254   21146869.6284
      2840.662        2213.500
 -18964166.642 9 -14755907.58747  23017411.752    23017412.2094   23017425.5604
     -2717.662       -2117.670
  -8371027.587 9  -6504265.50746  22739435.573    22739435.7224   22739447.3184
      3924.070        3057.709
 -25814422.978 9 -20089336.09247  23019015.400    23019015.6504   23019027.0064
     -1217.390        -948.615
 02  9 15  0  4 39.9990000  0  8  3 22 31 13 27  1  8  2            -0.000078483
 -27102471.288 9 -20481595.93448  21449928.512    21449929.0674   21449938.0744
     -1445.880       -1126.663
 -21400160.671 8 -16657592.15846  24086193.425    24086193.6714   24086205.5564
     -2345.986       -1828.046
 -35324262.610 9 -27507379.85648  19909444.171    19909444.4374   19909453.5774
      1189.041         926.515
 -29554661.119 9 -22711552.56548  21638254.563    21638255.3574   21638264.1914
     -1460.023       -1137.689
 -29077001.243 9 -22400771.69448  21144157.159    21144157.6814   21144167.2864
      2839.132        2212.302
 -18950576.675 9 -14745318.01847  23019997.806    23019998.2944   23020011.6754
     -2718.636       -2118.428
  -8390646.937 9  -6519553.29146  22735702.180    22735702.3034   22735713.7924
      3923.450        3057.230
 -25808335.499 9 -20084592.59047  23020173.860    23020174.1134   23020185.3514
     -1217.852        -948.982
 02  9 15  0  4 44.9990000  0  8  3 22 31 13 27  1  8  2            -0.000080818
 -27095237.922 9 -20475959.54548  21451304.994    21451305.5344   21451314.5454
     -1447.948       -1128.274
 -21388432.817 8 -16648453.56146  24088425.181    24088425.3914   24088437.2634
     -2345.698       -1827.820
 -35330201.081 9 -27512007.22948  19908314.130    19908314.3964   19908323.5014
      1185.862         924.043
 -29547356.414 9 -22705860.59948  21639644.604    21639645.4184   21639654.2714
     -1462.347       -1139.499
 -29091195.532 9 -22411832.17348  21141456.047    21141456.5624   21141466.2034
      2837.863        2211.316
 -18936983.006 9 -14734725.57847  23022584.565    23022585.0844   23022598.4904
     -2719.338       -2118.976
  -8410264.236 9  -6534839.48846  22731969.180    22731969.2504   22731980.6974
      3923.059        3056.925
 -25802246.860 9 -20079848.18847  23021332.565    23021332.8094   23021343.9224
     -1218.089        -949.177
 02  9 15  0  4 49.9990000  0  8  3 22 31 13 27  1  8  2            -0.000083153
 -27087994.691 9 -20470315.46748  21452683.321    21452683.8784   21452692.9074
     -1449.520       -1129.497
 -21376706.415 8 -16639316.09746  24090656.653    24090656.8624   24090668.7024
     -2345.050       -1827.311
 -35336124.154 9 -27516622.60648  19907187.029    19907187.2714   19907196.3514
      1183.203         921.975
 -29540040.490 9 -22700159.88748  21641036.766    21641037.6054   21641046.4844
     -1464.167       -1140.906
 -29105383.676 9 -22422887.85248  21138756.109    21138756.6164   21138766.2894
      2837.067        2210.699
 -18923386.069 9 -14724130.58947  23025171.949    23025172.5014   23025185.9104
     -2719.589       -2119.153
  -8429879.930 9  -6550124.41246  22728236.481    22728236.4894   22728247.9244
      3923.192        3057.026
 -25796157.490 9 -20075103.20547  23022491.435    23022491.6244   23022502.6124
     -1217.793        -948.935
 02  9 15  0  4 54.9990000  0  8  3 22 31 13 27  1  8  2            -0.000085486
 -27080736.845 9 -20464660.00148  21454064.439    21454065.0014   21454074.0444
     -1452.759       -1132.025
 -21364976.665 8 -16630176.02246  24092888.734    24092888.9754   24092900.7894
     -2346.067       -1828.111
 -35342027.061 9 -27521222.27148  19906063.747    19906063.9844   19906073.0504
      1178.873         918.601
 -29532708.578 9 -22694446.72648  21642431.969    21642432.8264   21642441.7384
     -1467.679       -1143.641
 -29119560.897 9 -22433935.02548  21136058.253    21136058.7624   21136068.4814
      2834.518        2208.713
 -18909781.135 9 -14713529.36147  23027760.877    23027761.4474   23027774.8364
     -2721.489       -2120.641
  -8449489.241 9  -6565404.36546  22724504.943    22724504.9544   22724516.3524
      3921.555        3055.758
 -25790062.637 9 -20070353.95547  23023651.337    23023651.4824   23023662.3614
     -1219.220        -950.047
 02  9 15  0  4 59.9990000  0  8  3 22 31 13 27  1  8  2            -0.000087817
 -27073463.380 9 -20458992.36848  21455448.518    21455449.0804   21455458.1534
     -1456.073       -1134.603
 -21353242.619 8 -16621032.60346  24095121.623    24095121.8044   24095133.7214
     -2347.074       -1828.889
 -35347908.783 9 -27525805.42448  19904944.506    19904944.7364   19904953.7794
      1174.400         915.106
 -29525359.680 9 -22688720.32048  21643830.400    21643831.2984   21643840.2164
     -1471.293       -1146.465
 -29133726.174 9 -22444972.88848  21133362.666    21133363.1634   21133372.9374
      2831.930        2206.690
 -18896167.223 9 -14702921.12247  23030351.531    23030352.1384   23030365.4874
     -2723.519       -2122.229
  -8469091.130 9  -6580678.54747  22720774.808    22720774.8064   22720786.1974
      3919.867        3054.432
 -25783961.286 9 -20065599.64947  23024812.463    23024812.5664   23024823.3554
     -1220.762        -951.256
 02  9 15  0  5  4.9990000  0  8  3 22 31 13 27  1  8  2            -0.000090149
 -27066179.448 9 -20453316.57448  21456834.599    21456835.1634   21456844.2514
     -1457.964       -1136.080
 -21341509.440 8 -16611889.87246  24097354.392    24097354.4814   24097366.4994
     -2346.682       -1828.582
 -35353774.464 9 -27530376.07848  19903828.305    19903828.5294   19903837.5664
      1171.391         912.764
 -29517998.993 9 -22682984.73148  21645231.090    21645232.0124   21645240.9234
     -1473.453       -1148.151
 -29147884.646 9 -22456005.45048  21130668.365    21130668.8654   21130678.6924
      2830.782        2205.800
 -18882549.497 9 -14692309.93347  23032942.907    23032943.5264   23032956.8734
     -2724.046       -2122.638
  -8488690.829 9  -6595951.00947  22717045.098    22717045.0984   22717056.4524
      3919.641        3054.274
 -25777858.614 9 -20060844.30947  23025973.816    23025973.8864   23025984.6374
     -1220.789        -951.273
 02  9 15  0  5  9.9990000  0  8  3 22 31 13 27  1  8  2            -0.000092483
 -27058889.326 9 -20447635.96448  21458221.844    21458222.4444   21458231.5244
     -1459.156       -1137.011
 -21329781.408 8 -16602751.14046  24099586.193    24099586.2604   24099598.3084
     -2345.631       -1827.765
 -35359628.382 9 -27534937.56948  19902714.341    19902714.5534   19902723.5874
      1169.137         911.011
 -29510630.765 9 -22677243.26948  21646633.223    21646634.1554   21646643.0504
     -1474.912       -1149.285
 -29162040.642 9 -22467036.08548  21127974.546    21127975.0514   21127984.9054
      2830.346        2205.456
 -18868932.218 9 -14681699.08447  23035534.224    23035534.8414   23035548.1564
     -2723.922       -2122.524
  -8508292.595 9  -6611225.10647  22713314.977    22713314.9764   22713326.3244
      3920.094        3054.631
 -25771758.862 9 -20056091.25647  23027134.595    23027134.6224   23027145.3934
     -1220.138        -950.761
 02  9 15  0  5 14.9990000  0  8  3 22 31 13 27  1  8  2            -0.000094816
 -27051584.196 9 -20441943.65448  21459611.954    21459612.5774   21459621.6534
     -1462.309       -1139.464
 -21318049.673 8 -16593609.53046  24101818.690    24101818.7564   24101830.7844
     -2346.510       -1828.455
 -35365461.702 9 -27539483.00648  19901604.291    19901604.5074   19901613.5314
      1164.824         907.656
 -29503246.196 9 -22671489.06348  21648038.468    21648039.4184   21648048.2824
     -1478.330       -1151.951
 -29176185.260 9 -22478057.85248  21125282.893    21125283.3984   21125293.2824
      2827.890        2203.553
 -18855306.568 9 -14671081.71347  23038127.145    23038127.7274   23038141.0604
     -2725.743       -2123.949
  -8527887.529 9  -6626493.85547  22709586.166    22709586.1944   22709597.4794
      3918.540        3053.408
 -25765653.193 9 -20051333.59947  23028296.446    23028296.4754   23028307.2724
     -1221.477        -951.788
 02  9 15  0  5 19.9990000  0  8  3 22 31 13 27  1  8  2            -0.000097149
 -27044269.306 9 -20436243.73748  21461003.938    21461004.5614   21461013.6474
     -1463.496       -1140.398
 -21306319.487 8 -16584469.13046  24104050.908    24104050.8834   24104062.9494
     -2345.399       -1827.578
 -35371279.696 9 -27544016.50348  19900497.172    19900497.3864   19900506.3934
      1162.528         905.855
 -29495850.555 9 -22665726.23148  21649445.812    21649446.7794   21649455.6024
     -1479.767       -1153.073
 -29190323.736 9 -22489074.83348  21122592.432    21122592.9204   21122602.8094
      2827.418        2203.174
 -18841677.806 9 -14660461.92947  23040720.667    23040721.2174   23040734.5394
     -2725.619       -2123.850
  -8547480.884 9  -6641761.38846  22705857.676    22705857.6994   22705868.9584
      3919.005        3053.775
 -25759546.865 9 -20046575.43347  23029458.379    23029458.4214   23029469.2834
     -1220.851        -951.319
 02  9 15  0  5 24.9990000  0  8  3 22 31 13 27  1  8  2            -0.000099482
 -27036941.465 9 -20430533.72848  21462398.389    21462399.0204   21462408.1064
     -1465.822       -1142.201
 -21294587.632 8 -16575327.42246  24106283.425    24106283.3054   24106295.4274
     -2345.551       -1827.704
 -35377079.142 9 -27548535.54748  19899393.573    19899393.7994   19899402.7784
      1159.079         903.174
 -29488440.594 9 -22659952.24448  21650855.890    21650856.8584   21650865.6574
     -1482.356       -1155.077
 -29204452.858 9 -22500084.52948  21119903.755    21119904.2414   21119914.1144
      2825.808        2201.919
 -18828042.768 9 -14649837.23647  23043315.385    23043315.8914   23043329.2144
     -2726.596       -2124.600
  -8567069.445 9  -6657025.18147  22702130.100    22702130.1334   22702141.3414
      3918.328        3053.236
 -25753436.683 9 -20041814.27147  23030621.043    23030621.1114   23030632.0444
     -1221.364        -951.715
 02  9 15  0  5 29.9990000  0  8  3 22 31 13 27  1  8  2            -0.000101815
 -27029603.022 9 -20424815.46148  21463794.864    21463795.5004   21463804.6094
     -1468.135       -1144.006
 -21282856.475 8 -16566186.24646  24108515.755    24108515.6204   24108527.7954
     -2345.571       -1827.723
 -35382862.365 9 -27553041.95248  19898293.073    19898293.2954   19898302.2494
      1155.649         900.509
 -29481018.666 9 -22654168.92848  21652268.248    21652269.2244   21652277.9704
     -1484.957       -1157.116
 -29218574.923 9 -22511088.72948  21117216.435    21117216.9074   21117226.7594
      2824.226        2200.694
 -18814403.781 9 -14639209.48247  23045910.852    23045911.3374   23045924.6624
     -2727.596       -2125.392
  -8586655.442 9  -6672286.97347  22698403.023    22698403.0394   22698414.2304
      3917.595        3052.661
 -25747324.972 9 -20037051.90847  23031783.998    23031784.1054   23031795.1034
     -1221.867        -952.089
 02  9 15  0  5 34.9990000  0  8  3 22 31 13 27  1  8  2            -0.000104148
 -27022254.579 9 -20419089.39748  21465193.231    21465193.8784   21465203.0134
     -1471.356       -1146.506
 -21271126.565 8 -16557046.04646  24110747.790    24110747.6944   24110759.9334
     -2346.488       -1828.436
 -35388629.960 9 -27557536.17748  19897195.550    19897195.7714   19897204.6954
      1151.302         897.127
 -29473585.395 9 -22648376.77448  21653682.778    21653683.7474   21653692.4554
     -1488.450       -1159.834
 -29232690.539 9 -22522087.90148  21114530.336    21114530.7974   21114540.6354
      2821.719        2198.738
 -18800761.445 9 -14628579.09947  23048506.935    23048507.4204   23048520.7194
     -2729.446       -2126.836
  -8606239.517 9  -6687547.26646  22694676.305    22694676.2954   22694687.4794
      3916.000        3051.422
 -25741212.317 9 -20032288.80947  23032947.149    23032947.3104   23032958.3524
     -1223.268        -953.191
 02  9 15  0  5 39.9990000  0  8  3 22 31 13 27  1  8  2            -0.000106482
 -27014893.519 9 -20413353.50848  21466593.999    21466594.6544   21466603.8324
     -1473.386       -1148.091
 -21259395.290 8 -16547904.79446  24112980.056    24112980.0434   24112992.3434
     -2346.341       -1828.319
 -35394379.322 9 -27562016.19348  19896101.492    19896101.7054   19896110.6134
      1148.108         894.629
 -29466138.175 9 -22642573.74948  21655099.964    21655100.9244   21655109.6034
     -1490.771       -1161.637
 -29246797.047 9 -22533079.97648  21111845.968    21111846.4214   21111856.2374
      2820.367        2197.686
 -18787113.160 9 -14617944.08747  23051104.117    23051104.5974   23051117.9254
     -2730.191       -2127.404
  -8625819.079 9  -6702804.03446  22690950.428    22690950.4324   22690961.5864
      3915.541        3051.064
 -25735096.116 9 -20027522.94748  23034111.030    23034111.2244   23034122.2774
     -1223.543        -953.412
 02  9 15  0  5 44.9990000  0  8  3 22 31 13 27  1  8  2            -0.000108816
 -27007523.184 9 -20407610.39148  21467996.537    21467997.1914   21468006.4254
     -1474.947       -1149.302
 -21247665.999 9 -16538765.09246  24115211.960    24115212.0264   24115224.3894
     -2345.630       -1827.761
 -35400113.737 9 -27566484.56448  19895010.262    19895010.4944   19895019.3684
      1145.447         892.560
 -29458680.339 9 -22636762.45548  21656519.180    21656520.1324   21656528.7854
     -1492.592       -1163.064
 -29260897.781 9 -22544067.55148  21109162.701    21109163.1274   21109172.9514
      2819.499        2197.015
 -18773462.250 9 -14607307.03747  23053701.785    23053702.2884   23053715.6254
     -2730.392       -2127.578
  -8645397.426 9  -6718059.88047  22687224.786    22687224.7884   22687235.9434
      3915.643        3051.133
 -25728979.699 9 -20022756.91348  23035275.004    23035275.2004   23035286.2434
     -1223.262        -953.189
 02  9 15  0  5 49.9990000  0  8  3 22 31 13 27  1  8  2            -0.000111151
 -27000142.407 9 -20401859.14148  21469401.055    21469401.7214   21469410.9904
     -1477.135       -1151.009
 -21235937.490 9 -16529625.99546  24117443.773    24117443.8854   24117456.2684
     -2345.575       -1827.718
 -35405832.055 9 -27570940.38948  19893922.084    19893922.3404   19893931.1964
      1142.125         889.966
 -29451210.727 9 -22630941.98548  21657940.638    21657941.5774   21657950.2034
     -1495.020       -1164.944
 -29274991.612 9 -22555049.74148  21106480.738    21106481.1604   21106490.9884
      2818.036        2195.870
 -18759807.544 9 -14596667.02347  23056300.150    23056300.6954   23056314.0724
     -2731.242       -2128.233
  -8664973.384 9  -6733313.85047  22683499.598    22683499.5904   22683510.7304
      3915.049        3050.676
 -25722861.864 9 -20017989.77348  23036439.288    23036439.4504   23036450.4584
     -1223.608        -953.465
 02  9 15  0  5 54.9990000  0  8  3 22 31 13 27  1  8  2            -0.000113486
 -26992751.107 9 -20396099.68848  21470807.574    21470808.2654   21470817.5414
     -1479.340       -1152.729
 -21224209.688 9 -16520487.44746  24119675.531    24119675.5914   24119687.9964
     -2345.498       -1827.660
 -35411534.175 9 -27575383.59748  19892836.988    19892837.2804   19892846.1024
      1138.800         887.372
 -29443729.281 9 -22625112.28648  21659364.345    21659365.2594   21659373.8854
     -1497.471       -1166.863
 -29289078.384 9 -22566026.43548  21103800.102    21103800.5294   21103810.3714
      2816.526        2194.697
 -18746148.967 9 -14586024.00447  23058899.240    23058899.8354   23058913.2404
     -2732.131       -2128.931
  -8684546.850 9  -6748565.88747  22679774.875    22679774.8804   22679786.0074
      3914.474        3050.238
 -25716742.515 9 -20013221.45248  23037603.886    23037603.9874   23037614.9654
     -1224.035        -953.803
 02  9 15  0  5 59.9990000  0  8  3 22 31 13 27  1  8  2            -0.000115819
 -26985344.744 9 -20390328.49548  21472216.973    21472217.6704   21472226.9464
     -1482.392       -1155.115
 -21212478.077 9 -16511345.93646  24121908.033    24121908.0564   24121920.4624
     -2346.371       -1828.335
 -35417215.563 9 -27579810.65248  19891755.861    19891756.1614   19891764.9624
      1134.562         884.071
 -29436231.480 9 -22619269.84448  21660791.153    21660792.0354   21660800.6774
     -1500.836       -1169.490
 -29303153.533 9 -22576994.07348  21101121.679    21101122.1074   21101131.9554
      2814.145        2192.834
 -18732482.018 9 -14575374.44947  23061499.906    23061500.5884   23061514.0084
     -2733.830       -2130.248
  -8704113.259 9  -6763812.41747  22676051.486    22676051.5114   22676062.6164
      3913.012        3049.094
 -25710617.130 9 -20008448.42248  23038769.624    23038769.6544   23038780.5764
     -1225.312        -954.781
 02  9 15  0  6  4.9990000  0  8  3 22 31 13 27  1  8  2            -0.000118153
 -26977928.962 9 -20384549.95948  21473628.186    21473628.8744   21473638.1234
     -1484.104       -1156.450
 -21200748.288 9 -16502205.85246  24124140.206    24124140.1924   24124152.5894
     -2345.790       -1827.886
 -35422881.888 9 -27584225.96148  19890677.613    19890677.9054   19890686.6954
      1131.759         881.885
 -29428722.898 9 -22613419.00748  21662219.991    21662220.8634   21662229.5404
     -1502.779       -1170.992
 -29317222.689 9 -22587957.03548  21098444.390    21098444.8454   21098454.6854
      2813.102        2192.025
 -18718812.338 9 -14564722.77247  23064101.129    23064101.8404   23064115.2894
     -2734.198       -2130.551
  -8723678.232 9  -6779057.82347  22672328.347    22672328.3944   22672339.4914
      3912.878        3048.978
 -25704491.349 9 -20003675.08547  23039935.415    23039935.4104   23039946.2774
     -1225.182        -954.684
 02  9 15  0  6  9.9990000  0  8  3 22 31 13 27  1  8  2            -0.000120489
 -26970505.058 9 -20378765.10048  21475040.948    21475041.6234   21475050.8384
     -1486.193       -1158.076
 -21189021.536 9 -16493068.13646  24126371.809    24126371.7864   24126384.1394
     -2345.613       -1827.748
 -35428534.395 9 -27588630.50848  19889601.995    19889602.2584   19889611.0624
      1128.513         879.351
 -29421204.884 9 -22607560.82448  21663650.603    21663651.4764   21663660.1844
     -1505.137       -1172.838
 -29331287.147 9 -22598916.34148  21095768.025    21095768.4804   21095778.3024
      2811.704        2190.927
 -18705141.211 9 -14554069.95647  23066702.661    23066703.3824   23066716.8354
     -2734.975       -2131.147
  -8743243.063 9  -6794303.12647  22668605.242    22668605.3444   22668616.3684
      3912.410        3048.642
 -25698366.451 9 -19998902.42247  23041101.014    23041100.9774   23041111.7874
     -1225.469        -954.911
 02  9 15  0  6 14.9990000  0  8  3 22 31 13 27  1  8  2            -0.000122823
 -26963067.857 9 -20372969.87648  21476456.240    21476456.9094   21476466.0794
     -1488.686       -1160.016
 -21177292.724 9 -16483928.80946  24128603.808    24128603.7904   24128616.0664
     -2345.903       -1827.976
 -35434167.875 9 -27593020.23248  19888530.007    19888530.2394   19888539.0424
      1124.894         876.539
 -29413672.242 9 -22601691.24048  21665083.995    21665084.8684   21665093.5864
     -1507.887       -1174.970
 -29345341.693 9 -22609867.92948  21093093.552    21093094.0034   21093103.8034
      2809.917        2189.547
 -18691463.444 9 -14543411.98547  23069305.484    23069306.2034   23069319.6404
     -2736.153       -2132.061
  -8762802.530 9  -6809544.25847  22664883.174    22664883.2964   22664894.2824
      3911.474        3047.909
 -25692237.238 9 -19994126.40847  23042267.413    23042267.3564   23042278.0994
     -1226.147        -955.433
 02  9 15  0  6 19.9990000  0  8  3 22 31 13 27  1  8  2            -0.000125157
 -26955617.873 9 -20367164.68848  21477873.974    21477874.6364   21477883.7604
     -1491.001       -1161.820
 -21165562.333 9 -16474788.24846  24130836.106    24130836.0924   24130848.2954
     -2345.972       -1828.028
 -35439782.871 9 -27597395.55448  19887461.537    19887461.7464   19887470.5384
      1121.451         873.855
 -29406125.461 9 -22595810.63548  21666520.077    21666520.9614   21666529.6734
     -1510.484       -1176.996
 -29359386.794 9 -22620812.15148  21090420.910    21090421.3344   21090431.0914
      2808.274        2188.255
 -18677779.555 9 -14532749.23147  23071909.477    23071910.1664   23071923.6314
     -2737.116       -2132.807
  -8782357.154 9  -6824781.60347  22661162.040    22661162.1864   22661173.1264
      3910.780        3047.359
 -25686104.187 9 -19989347.40447  23043434.509    23043434.4244   23043445.1294
     -1226.697        -955.872
 02  9 15  0  6 24.9990000  0  8  3 22 31 13 27  1  8  2            -0.000127490
 -26948155.291 9 -20361349.68748  21479294.099    21479294.7494   21479303.8414
     -1493.955       -1164.115
 -21153830.573 9 -16465646.61846  24133068.660    24133068.6424   24133080.8074
     -2346.707       -1828.605
 -35445379.528 9 -27601756.57648  19886396.517    19886396.7274   19886405.5294
      1117.348         870.655
 -29398564.746 9 -22589919.17448  21667958.811    21667959.7034   21667968.3904
     -1513.687       -1179.496
 -29373422.679 9 -22631749.19748  21087750.021    21087750.4204   21087760.1364
      2805.963        2186.461
 -18664089.757 9 -14522081.88147  23074514.612    23074515.2884   23074528.7464
     -2738.711       -2134.051
  -8801907.090 9  -6840015.30347  22657441.815    22657441.9704   22657452.8704
      3909.364        3046.245
 -25679967.510 9 -19984565.56947  23044602.266    23044602.1694   23044612.8414
     -1227.837        -956.769
 02  9 15  0  6 29.9990000  0  8  3 22 31 13 27  1  8  2            -0.000129822
 -26940679.733 9 -20355524.57248  21480716.693    21480717.3224   21480726.3894
     -1495.928       -1165.661
 -21142096.986 9 -16456503.55846  24135301.547    24135301.5234   24135313.6414
     -2346.465       -1828.417
 -35450957.489 9 -27606103.03548  19885335.053    19885335.2554   19885344.0744
      1114.222         868.224
 -29390989.723 9 -22584016.56348  21669400.277    21669401.1914   21669409.8364
     -1515.946       -1181.261
 -29387448.891 9 -22642678.70348  21085080.970    21085081.3454   21085091.0034
      2804.670        2185.459
 -18650393.655 9 -14511409.60947  23077120.971    23077121.5854   23077135.0854
     -2739.385       -2134.590
  -8821451.930 9  -6855245.03447  22653722.548    22653722.7314   22653733.5874
      3908.964        3045.949
 -25673826.803 9 -19979780.61447  23045770.771    23045770.6454   23045781.3324
     -1228.033        -956.899
 02  9 15  0  6 34.9990000  0  8  3 22 31 13 27  1  8  2            -0.000132154
 -26933194.246 9 -20349691.72448  21482141.185    21482141.7824   21482150.8404
     -1497.810       -1167.112
 -21130364.672 9 -16447361.49146  24137534.192    24137534.1474   24137546.2664
     -2346.055       -1828.097
 -35456519.748 9 -27610437.25648  19884276.547    19884276.7684   19884285.6124
      1111.179         865.851
 -29383403.434 9 -22578105.17048  21670843.910    21670844.8264   21670853.4304
     -1518.083       -1182.918
 -29401468.468 9 -22653603.03648  21082413.200    21082413.5134   21082423.1514
      2803.447        2184.500
 -18636694.315 9 -14500734.83447  23079727.936    23079728.5144   23079742.0224
     -2739.907       -2134.977
  -8840994.694 9  -6870473.13647  22650003.688    22650003.8754   22650014.7144
      3908.658        3045.700
 -25667685.075 9 -19974994.85947  23046939.437    23046939.3214   23046950.0434
     -1228.135        -956.991
 02  9 15  0  6 39.9990000  0  8  3 22 31 13 27  1  8  2            -0.000134488
 -26925699.900 9 -20343851.96748  21483567.355    21483567.9224   21483576.9584
     -1499.763       -1168.641
 -21118634.601 9 -16438221.17846  24139766.408    24139766.3314   24139778.4824
     -2345.809       -1827.905
 -35462067.384 9 -27614760.08248  19883220.826    19883221.0674   19883229.9204
      1108.044         863.414
 -29375806.934 9 -22572185.82848  21672289.491    21672290.4134   21672298.9794
     -1520.372       -1184.702
 -29415482.492 9 -22664523.04248  21079746.455    21079746.7394   21079756.3444
      2802.119        2183.473
 -18622992.804 9 -14490058.34147  23082335.291    23082335.8424   23082349.3854
     -2740.524       -2135.478
  -8860536.392 9  -6885700.42147  22646285.039    22646285.2204   22646296.0284
      3908.256        3045.400
 -25661543.411 9 -19970209.16047  23048108.088    23048107.9694   23048118.7444
     -1228.318        -957.119
 02  9 15  0  6 44.9990000  0  8  3 22 31 13 27  1  8  2            -0.000136823
 -26918196.663 9 -20338005.29148  21484995.201    21484995.7574   21485004.7664
     -1501.582       -1170.064
 -21106906.756 9 -16429082.59846  24141998.203    24141998.1004   24142010.2874
     -2345.433       -1827.608
 -35467600.353 9 -27619071.47948  19882167.907    19882168.1494   19882177.0264
      1105.083         861.101
 -29368200.205 9 -22566258.51048  21673737.018    21673737.9384   21673746.4864
     -1522.422       -1186.296
 -29429490.834 9 -22675438.61948  21077080.779    21077081.0244   21077090.6294
      2800.957        2182.560
 -18609289.053 9 -14479380.10847  23084943.058    23084943.5834   23084957.1704
     -2741.054       -2135.885
  -8880076.968 9  -6900926.81547  22642566.610    22642566.7644   22642577.5784
      3908.013        3045.194
 -25655401.751 9 -19965423.46147  23049276.727    23049276.6504   23049287.4624
     -1228.403        -957.200
 02  9 15  0  6 49.9990000  0  8  3 22 31 13 27  1  8  2            -0.000139160
 -26910683.465 9 -20332150.85248  21486424.939    21486425.4954   21486434.4744
     -1504.438       -1172.281
 -21095180.081 9 -16419944.93246  24144229.775    24144229.6404   24144241.8574
     -2346.025       -1828.069
 -35473117.604 9 -27623370.62748  19881117.994    19881118.2254   19881127.1154
      1101.101         858.004
 -29360582.221 9 -22560322.42448  21675186.667    21675187.6034   21675196.1574
     -1525.482       -1188.681
 -29443492.445 9 -22686348.95248  21074416.347    21074416.6074   21074426.1864
      2798.764        2180.857
 -18595582.039 9 -14468699.34547  23087551.399    23087551.9524   23087565.5764
     -2742.484       -2136.984
  -8899615.410 9  -6916151.56347  22638848.598    22638848.7264   22638859.5194
      3906.723        3044.196
 -25649259.062 9 -19960636.96047  23050445.593    23050445.5394   23050456.4034
     -1229.432        -957.998
 02  9 15  0  6 54.9990000  0  8  3 22 31 13 27  1  8  2            -0.000141495
 -26903158.063 9 -20326286.89448  21487856.999    21487857.5344   21487866.4984
     -1506.306       -1173.747
 -21083452.376 9 -16410806.46346  24146461.560    24146461.3794   24146473.6194
     -2345.677       -1827.802
 -35478616.874 9 -27627655.76348  19880071.504    19880071.7294   19880080.6214
      1098.091         855.653
 -29352950.675 9 -22554375.77248  21676638.906    21676639.8514   21676648.4144
     -1527.629       -1190.352
 -29457485.116 9 -22697252.32348  21071753.624    21071753.8954   21071763.4534
      2797.541        2179.903
 -18581869.514 9 -14458014.27847  23090160.797    23090161.3894   23090175.0314
     -2743.016       -2137.406
  -8919149.426 9  -6931372.85047  22635131.445    22635131.5184   22635142.3164
      3906.387        3043.933
 -25643113.058 9 -19955847.86947  23051615.111    23051615.1094   23051625.9784
     -1229.493        -958.055
 02  9 15  0  6 59.9990000  0  8  3 22 31 13 27  1  8  2            -0.000143830
 -26895621.438 9 -20320414.19648  21489291.181    21489291.6964   21489300.6584
     -1508.274       -1175.274
 -21071724.577 9 -16401667.91746  24148693.368    24148693.1364   24148705.4004
     -2345.426       -1827.603
 -35484099.097 9 -27631927.62348  19879028.278    19879028.4684   19879037.3654
      1094.908         853.179
 -29345306.582 9 -22548419.34448  21678093.522    21678094.4834   21678103.0494
     -1529.887       -1192.114
 -29471469.715 9 -22708149.40448  21069092.443    21069092.7344   21069102.2534
      2796.196        2178.863
 -18568152.452 9 -14447325.67747  23092771.060    23092771.6904   23092785.3444
     -2743.699       -2137.933
  -8938679.982 9  -6946591.44246  22631414.948    22631414.9694   22631425.7884
      3905.962        3043.616
 -25636964.723 9 -19951056.96048  23052785.117    23052785.1164   23052796.0224
     -1229.704        -958.200
 02  9 15  0  7  4.9990000  0  8  3 22 31 13 27  1  8  2            -0.000146167
 -26888075.069 9 -20314533.90748  21490727.194    21490727.7134   21490736.6684
     -1510.326       -1176.874
 -21059998.177 9 -16392530.46546  24150924.922    24150924.6494   24150936.9304
     -2345.185       -1827.414
 -35489565.789 9 -27636187.37748  19877988.009    19877988.1674   19877997.0604
      1091.712         850.695
 -29337651.461 9 -22542454.32748  21679550.253    21679551.2084   21679559.7754
     -1532.199       -1193.914
 -29485447.765 9 -22719041.38248  21066432.514    21066432.8214   21066442.2974
      2794.757        2177.741
 -18554432.353 9 -14436634.70847  23095381.925    23095382.5624   23095396.2164
     -2744.403       -2138.483
  -8958208.522 9  -6961808.47047  22627698.813    22627698.7964   22627709.6124
      3905.443        3043.188
 -25630815.538 9 -19946265.39348  23053955.307    23053955.3024   23053966.2184
     -1229.993        -958.424
 02  9 15  0  7  9.9990000  0  8  3 22 31 13 27  1  8  2            -0.000148503
 -26880516.895 9 -20308644.41748  21492165.456    21492165.9754   21492174.9364
     -1514.206       -1179.895
 -21048271.101 9 -16383392.48646  24153156.587    24153156.2764   24153168.6044
     -2346.925       -1828.768
 -35495014.878 9 -27640433.41348  19876951.092    19876951.2214   19876960.1104
      1086.662         846.754
 -29329983.204 9 -22536479.07348  21681009.485    21681010.4434   21681019.0154
     -1536.380       -1197.175
 -29499417.190 9 -22729926.63948  21063774.229    21063774.5504   21063783.9794
      2791.524        2175.214
 -18540707.176 9 -14425939.78347  23097993.778    23097994.4234   23098008.0504
     -2746.956       -2140.489
  -8977733.022 9  -6977022.33447  22623983.440    22623983.3664   22623994.2084
      3903.118        3041.386
 -25624663.436 9 -19941471.54648  23055126.065    23055126.0554   23055136.9784
     -1232.082        -960.059
 02  9 15  0  7 14.9990000  0  8  3 22 31 13 27  1  8  2            -0.000150830
 -26872946.833 9 -20302745.67248  21493605.987    21493606.4924   21493615.4724
     -1514.736       -1180.318
 -21036543.227 8 -16374253.88746  24155388.366    24155388.0474   24155400.4154
     -2345.237       -1827.456
 -35500446.276 9 -27644665.66348  19875917.511    19875917.6314   19875926.5234
      1084.974         845.430
 -29322301.733 9 -22530493.52048  21682471.228    21682472.1944   21682480.7424
     -1537.139       -1197.768
 -29513377.871 9 -22740805.08648  21061117.602    21061117.9314   21061127.3214
      2791.596        2175.271
 -18526976.813 9 -14415240.82047  23100606.645    23100607.2774   23100620.8744
     -2746.133       -2139.841
  -8997253.405 9  -6992233.00347  22620268.825    22620268.7474   22620279.5784
      3904.168        3042.208
 -25618508.291 9 -19936675.32948  23056297.417    23056297.3574   23056308.3094
     -1230.837        -959.097
 02  9 15  0  7 19.9990000  0  8  3 22 31 13 27  1  8  2            -0.000153166
 -26865367.467 9 -20296839.67248  21495048.276    21495048.7874   21495057.7794
     -1517.112       -1182.169
 -21024817.163 8 -16365116.70646  24157619.721    24157619.4694   24157631.8944
     -2345.335       -1827.530
 -35505862.524 9 -27648886.10848  19874886.809    19874886.9154   19874895.8284
      1081.416         842.654
 -29314609.652 9 -22524499.69248  21683935.013    21683935.9704   21683944.5024
     -1539.814       -1199.861
 -29527332.355 9 -22751678.69848  21058462.174    21058462.4784   21058471.8354
      2789.847        2173.903
 -18513243.865 9 -14404539.83947  23103220.028    23103220.6144   23103234.2054
     -2747.177       -2140.652
  -9016772.181 9  -7007442.41447  22616554.506    22616554.4434   22616565.2494
      3903.339        3041.558
 -25612352.712 9 -19931878.77448  23057468.840    23057468.7384   23057479.7264
     -1231.456        -959.585
 02  9 15  0  7 24.9990000  0  8  3 22 31 13 27  1  8  2            -0.000155503
 -26857776.499 9 -20290924.62648  21496492.796    21496493.2804   21496502.3074
     -1519.808       -1184.268
 -21013090.574 8 -16355979.11646  24159851.135    24159850.9564   24159863.4764
     -2345.871       -1827.943
 -35511261.345 9 -27653092.97748  19873859.417    19873859.5384   19873868.4424
      1077.573         839.667
 -29306904.647 9 -22518495.80148  21685401.255    21685402.2064   21685410.7074
     -1542.731       -1202.126
 -29541278.303 9 -22762545.65848  21055808.347    21055808.6434   21055817.9844
      2787.777        2172.292
 -18499506.034 9 -14393835.05847  23105834.352    23105834.8694   23105848.4874
     -2748.502       -2141.689
  -9036286.990 9  -7022648.74547  22612840.934    22612840.8804   22612851.6734
      3902.154        3040.626
 -25606194.361 9 -19927080.06947  23058640.760    23058640.6524   23058651.6604
     -1232.385        -960.299
 02  9 15  0  7 29.9990000  0  8  3 22 31 13 27  1  8  2            -0.000157838
 -26850172.692 9 -20284999.58648  21497939.746    21497940.2274   21497949.2494
     -1521.561       -1185.637
 -21001362.235 8 -16346840.15846  24162082.832    24162082.7794   24162095.3644
     -2345.353       -1827.550
 -35516641.447 9 -27657285.25948  19872835.574    19872835.7104   19872844.6304
      1074.638         837.381
 -29299185.471 9 -22512480.87048  21686870.203    21686871.1344   21686879.6094
     -1544.759       -1203.705
 -29555214.567 9 -22773405.07748  21053156.359    21053156.6514   21053165.9724
      2786.657        2171.419
 -18485762.082 9 -14383125.51247  23108449.838    23108450.3024   23108463.9434
     -2748.911       -2142.010
  -9055796.539 9  -7037850.97147  22609128.351    22609128.3524   22609139.0974
      3901.919        3040.438
 -25600032.015 9 -19922278.23447  23059813.421    23059813.2744   23059824.3644
     -1232.341        -960.261
 02  9 15  0  7 34.9990000  0  8  3 22 31 13 27  1  8  2            -0.000160174
 -26842558.485 9 -20279066.43948  21499388.658    21499389.1404   21499398.1874
     -1524.033       -1187.558
 -20989634.583 8 -16337701.72246  24164314.379    24164314.4624   24164327.0884
     -2345.677       -1827.805
 -35522005.334 9 -27661464.89848  19871814.810    19871814.9744   19871823.8924
      1071.009         834.551
 -29291454.578 9 -22506456.80148  21688341.368    21688342.3044   21688350.7334
     -1547.512       -1205.855
 -29569143.428 9 -22784258.72248  21050505.770    21050506.0694   21050515.3634
      2784.776        2169.951
 -18472014.462 9 -14372413.09347  23111066.036    23111066.4574   23111080.1114
     -2750.051       -2142.888
  -9075303.332 9  -7053051.06147  22605416.290    22605416.3104   22605427.0374
      3900.957        3039.702
 -25593868.065 9 -19917475.16047  23060986.361    23060986.1954   23060997.3484
     -1233.091        -960.853
 02  9 15  0  7 39.9990000  0  8  3 22 31 13 27  1  8  2            -0.000162510
 -26834934.234 9 -20273125.46448  21500839.488    21500839.9724   21500849.0444
     -1525.598       -1188.777
 -20977907.943 8 -16328564.07346  24166545.726    24166545.9184   24166558.6104
     -2345.002       -1827.270
 -35527353.284 9 -27665632.12648  19870797.105    19870797.2734   19870806.1954
      1068.271         832.424
 -29283712.332 9 -22500423.88748  21689814.700    21689815.6324   21689824.0094
     -1549.336       -1207.276
 -29583065.302 9 -22795106.92948  21047856.513    21047856.8134   21047866.0984
      2783.827        2169.216
 -18458263.508 9 -14361698.08247  23113682.865    23113683.2004   23113696.8904
     -2750.284       -2143.079
  -9094807.726 9  -7068249.25147  22601704.688    22601704.7304   22601715.4264
      3900.951        3039.678
 -25587702.870 9 -19912671.12647  23062159.508    23062159.3104   23062170.5334
     -1232.907        -960.711
 02  9 15  0  7 44.9990000  0  8  3 22 31 13 27  1  8  2            -0.000164847
 -26827299.313 9 -20267176.17148  21502292.366    21502292.8394   21502301.9404
     -1528.857       -1191.324
 -20966181.660 8 -16319426.70246  24168776.997    24168777.2844   24168790.0634
     -2346.057       -1828.098
 -35532684.648 9 -27669786.43548  19869782.551    19869782.7174   19869791.6484
      1063.826         828.951
 -29275958.094 9 -22494381.62348  21691290.306    21691291.2374   21691299.5774
     -1552.853       -1210.020
 -29596979.492 9 -22805949.14148  21045208.750    21045209.0294   21045218.2804
      2781.146        2167.117
 -18444508.589 9 -14350979.98947  23116300.427    23116300.7044   23116314.4334
     -2752.168       -2144.549
  -9114309.012 9  -7083445.05047  22597993.673    22597993.7374   22598004.4124
      3899.173        3038.308
 -25581535.792 9 -19907865.62447  23063332.984    23063332.7704   23063344.0494
     -1234.433        -961.889
 02  9 15  0  7 49.9990000  0  8  3 22 31 13 27  1  8  2            -0.000167182
 -26819652.097 9 -20261217.30748  21503747.586    21503748.0414   21503757.1564
     -1529.863       -1192.094
 -20954454.179 8 -16310288.40646  24171008.535    24171008.8424   24171021.7614
     -2344.798       -1827.115
 -35537997.820 9 -27673926.56348  19868771.448    19868771.6424   19868780.5584
      1061.642         827.260
 -29268190.236 9 -22488328.75648  21692768.500    21692769.4434   21692777.7504
     -1554.114       -1210.985
 -29610884.353 9 -22816784.09048  21042562.749    21042563.0144   21042572.2414
      2780.765        2166.828
 -18430748.092 9 -14340257.54747  23118919.023    23118919.2604   23118933.0314
     -2751.872       -2144.312
  -9133805.521 9  -7098637.11847  22594283.568    22594283.6584   22594294.3184
      3899.662        3038.686
 -25575365.196 9 -19903057.37647  23064507.126    23064506.8904   23064518.2234
     -1233.636        -961.257
 02  9 15  0  7 54.9990000  0  8  3 22 31 13 27  1  8  2            -0.000169520
 -26811996.591 9 -20255251.97948  21505204.370    21505204.8264   21505213.9564
     -1531.972       -1193.754
 -20942729.381 8 -16301152.21246  24173239.640    24173239.9074   24173252.9384
     -2344.723       -1827.055
 -35543296.794 9 -27678055.62148  19867763.063    19867763.2544   19867772.1854
      1058.347         824.679
 -29260412.768 9 -22482268.39448  21694248.552    21694249.4774   21694257.7574
     -1556.502       -1212.861
 -29624783.922 9 -22827614.91248  21039917.741    21039917.9974   21039927.2034
      2779.236        2165.640
 -18416986.009 9 -14329533.85947  23121537.918    23121538.1094   23121551.9144
     -2752.633       -2144.912
  -9153301.226 9  -7113828.55947  22590573.612    22590573.7444   22590584.3994
      3899.082        3038.246
 -25569195.051 9 -19898249.48147  23065681.171    23065680.9624   23065692.3064
     -1233.983        -961.551
 02  9 15  0  7 59.9990000  0  8  3 22 31 13 27  1  8  2            -0.000171858
 -26804330.439 9 -20249278.35648  21506663.193    21506663.6264   21506672.7924
     -1534.493       -1195.707
 -20931005.001 8 -16292016.35046  24175470.705    24175470.8854   24175484.0434
     -2345.043       -1827.301
 -35548579.196 9 -27682171.77148  19866757.820    19866758.0174   19866766.9624
      1054.599         821.768
 -29252623.325 9 -22476198.70248  21695730.882    21695731.7954   21695740.0564
     -1559.295       -1215.031
 -29638675.759 9 -22838439.71348  21037274.204    21037274.4594   21037283.6284
      2777.264        2164.099
 -18403220.004 9 -14318807.12247  23124157.528    23124157.6834   23124171.5624
     -2753.817       -2145.815
  -9172793.799 9  -7129017.55747  22586864.243    22586864.4014   22586875.0654
      3898.007        3037.413
 -25563023.025 9 -19893440.11547  23066855.595    23066855.4484   23066866.7384
     -1234.804        -962.180
 02  9 15  0  8  4.9990000  0  8  3 22 31 13 27  1  8  2            -0.000174195
 -26796652.004 9 -20243295.15848  21508124.340    21508124.7844   21508133.9674
     -1537.257       -1197.855
 -20919279.247 8 -16282879.41746  24177702.029    24177702.1354   24177715.4034
     -2345.617       -1827.748
 -35553843.370 9 -27686273.71448  19865756.051    19865756.2434   19865765.2024
      1050.686         818.718
 -29244820.247 9 -22470118.38948  21697215.807    21697216.6904   21697224.9774
     -1562.291       -1217.365
 -29652558.211 9 -22849257.19848  21034632.474    21034632.7134   21034641.8394
      2775.110        2162.428
 -18389448.422 9 -14308076.04247  23126778.204    23126778.3474   23126792.2654
     -2755.197       -2146.889
  -9192281.630 9  -7144202.85447  22583155.766    22583155.9484   22583166.6524
      3896.801        3036.471
 -25556847.455 9 -19888627.96947  23068030.752    23068030.6404   23068041.8444
     -1235.768        -962.942
 02  9 15  0  8  9.9990000  0  8  3 22 31 13 27  1  8  2            -0.000176530
 -26788960.580 9 -20237301.84048  21509587.962    21509588.4224   21509597.6204
     -1538.580       -1198.887
 -20907551.581 8 -16273740.99046  24179933.711    24179933.7644   24179947.0944
     -2344.749       -1827.074
 -35559088.602 9 -27690360.90648  19864757.868    19864758.0904   19864767.0584
      1048.160         816.752
 -29237002.825 9 -22464026.90248  21698703.456    21698704.3164   21698712.6214
     -1563.896       -1218.619
 -29666430.599 9 -22860066.84548  21031992.657    21031992.8684   21032001.9574
      2774.368        2161.842
 -18375670.565 9 -14297340.07047  23129400.074    23129400.1784   23129414.1864
     -2755.174       -2146.880
  -9211763.964 9  -7159383.87047  22579448.323    22579448.5354   22579459.2764
      3896.999        3036.623
 -25550667.648 9 -19883812.53247  23069206.748    23069206.6354   23069217.7614
     -1235.357        -962.620
 02  9 15  0  8 14.9990000  0  8  3 22 31 13 27  1  8  2            -0.000178868
 -26781261.678 9 -20231302.70048  21511053.003    21511053.4814   21511062.6994
     -1540.945       -1200.737
 -20895827.427 8 -16264605.29846  24182164.754    24182164.7634   24182178.0794
     -2344.919       -1827.211
 -35564320.455 9 -27694437.66348  19863762.229    19863762.4834   19863771.4634
      1044.613         813.989
 -29229176.664 9 -22457928.60148  21700192.755    21700193.5904   21700201.9494
     -1566.521       -1220.662
 -29680298.364 9 -22870872.88848  21029353.714    21029353.9094   21029362.9574
      2772.587        2160.457
 -18361891.977 9 -14286603.53647  23132022.088    23132022.1524   23132036.2284
     -2756.226       -2147.697
  -9231246.295 9  -7174564.88747  22575740.872    22575741.1314   22575751.8624
      3896.107        3035.935
 -25544489.102 9 -19878998.06647  23070382.513    23070382.4014   23070393.4594
     -1235.958        -963.084
 02  9 15  0  8 19.9990000  0  8  3 22 31 13 27  1  8  2            -0.000181205
 -26773550.259 9 -20225293.79948  21512520.453    21512520.9324   21512530.1584
     -1543.387       -1202.643
 -20884101.725 8 -16255468.39046  24184396.101    24184396.0364   24184409.3264
     -2345.169       -1827.399
 -35569533.812 9 -27698500.00648  19862770.131    19862770.3954   19862779.3894
      1040.986         811.149
 -29221336.667 9 -22451819.51948  21701684.660    21701685.4954   21701693.8944
     -1569.240       -1222.789
 -29694156.484 9 -22881671.41148  21026716.583    21026716.7774   21026725.7874
      2770.697        2158.984
 -18348107.613 9 -14275862.49847  23134645.182    23134645.2284   23134659.3254
     -2757.307       -2148.557
  -9250723.521 9  -7189741.92347  22572034.394    22572034.6984   22572045.4114
      3895.135        3035.161
 -25538306.758 9 -19874180.64147  23071558.995    23071558.9014   23071569.8884
     -1236.663        -963.647
 02  9 15  0  8 24.9990000  0  8  3 22 31 13 27  1  8  2            -0.000183543
 -26765828.113 9 -20219276.54648  21513989.930    21513990.4224   21513999.6554
     -1545.696       -1204.433
 -20872376.285 8 -16246331.68346  24186627.364    24186627.2254   24186640.5454
     -2345.307       -1827.508
 -35574730.477 9 -27702549.34948  19861781.239    19861781.4974   19861790.4854
      1037.463         808.414
 -29213484.632 9 -22445701.05548  21703178.845    21703179.6904   21703188.1314
     -1571.784       -1224.768
 -29708006.704 9 -22892463.78148  21024080.953    21024081.1414   21024090.1264
      2768.940        2157.616
 -18334319.274 9 -14265118.35747  23137269.045    23137269.0674   23137283.2064
     -2758.249       -2149.288
  -9270197.382 9  -7204916.34147  22568328.567    22568328.8984   22568339.6234
      3894.320        3034.530
 -25532122.387 9 -19869361.63747  23072735.858    23072735.7984   23072746.7354
     -1237.282        -964.123
 02  9 15  0  8 29.9990000  0  8  3 22 31 13 27  1  8  2            -0.000185879
 -26758093.323 9 -20213249.43348  21515461.809    21515462.2994   21515471.5734
     -1548.263       -1206.440
 -20860649.177 8 -16237193.68146  24188858.859    24188858.7444   24188872.0844
     -2345.551       -1827.700
 -35579908.507 9 -27706584.16648  19860795.875    19860796.1414   19860805.1334
      1033.707         805.480
 -29205618.624 9 -22439571.70548  21704675.677    21704676.5374   21704685.0194
     -1574.630       -1226.984
 -29721847.082 9 -22903248.47548  21021447.187    21021447.3734   21021456.3354
      2766.944        2156.053
 -18320525.013 9 -14254369.59547  23139894.049    23139894.0424   23139908.2364
     -2759.476       -2150.239
  -9289666.035 9  -7220086.69047  22564623.760    22564624.1034   22564634.8194
      3893.201        3033.649
 -25525934.047 9 -19864539.54747  23073913.488    23073913.4384   23073924.3504
     -1238.038        -964.700
 02  9 15  0  8 34.9990000  0  8  3 22 31 13 27  1  8  2            -0.000188214
 -26750346.594 9 -20207213.02648  21516935.961    21516936.4454   21516945.7434
     -1551.088       -1208.638
 -20848921.078 8 -16228054.90346  24191090.511    24191090.4784   24191103.8314
     -2346.284       -1828.274
 -35585068.629 9 -27710605.03548  19859813.953    19859814.2094   19859823.2004
      1029.687         802.351
 -29197739.353 9 -22433432.02148  21706175.036    21706175.9394   21706184.4134
     -1577.742       -1229.413
 -29735678.311 9 -22914026.05048  21018815.167    21018815.3434   21018824.2834
      2764.675        2154.285
 -18306725.541 9 -14243616.79247  23142520.025    23142520.0024   23142534.2454
     -2760.997       -2151.422
  -9309130.080 9  -7235253.46247  22560919.839    22560920.1854   22560930.8904
      3891.833        3032.590
 -25519742.441 9 -19859714.91647  23075091.749    23075091.6784   23075102.5974
     -1239.178        -965.588
 02  9 15  0  8 39.9990000  0  8  3 22 31 13 27  1  8  2            -0.000190551
 -26742589.736 9 -20201168.72448  21518412.030    21518412.5264   21518421.8424
     -1552.725       -1209.920
 -20837193.788 8 -16218916.74746  24193322.020    24193322.0814   24193335.4524
     -2345.765       -1827.865
 -35590212.605 9 -27714613.32148  19858835.087    19858835.3474   19858844.3374
      1026.846         800.137
 -29189848.635 9 -22427283.41748  21707676.572    21707677.5074   21707685.9974
     -1579.626       -1230.870
 -29749502.138 9 -22924797.85548  21016184.557    21016184.7324   21016193.6554
      2763.604        2153.452
 -18292922.697 9 -14232861.35347  23145146.632    23145146.6244   23145160.9014
     -2761.262       -2151.635
  -9328591.320 9  -7250418.05547  22557216.468    22557216.8034   22557227.5304
      3891.661        3032.457
 -25513549.395 9 -19854889.16447  23076270.261    23076270.2114   23076281.1264
     -1239.078        -965.511
 02  9 15  0  8 44.9990000  0  8  3 22 31 13 27  1  8  2            -0.000192888
 -26734824.839 9 -20195118.15648  21519889.637    21519890.1264   21519899.4594
     -1553.867       -1210.813
 -20825469.475 8 -16209780.92046  24195552.992    24195553.1124   24195566.4974
     -2344.663       -1827.011
 -35595342.548 9 -27718610.67548  19857858.880    19857859.1474   19857868.1344
      1024.514         798.314
 -29181948.552 9 -22421127.51148  21709179.925    21709180.8684   21709189.3524
     -1581.015       -1231.966
 -29763320.719 9 -22935565.56948  21013554.946    21013555.1214   21013564.0274
      2763.019        2152.994
 -18279118.545 9 -14222104.87947  23147773.504    23147773.4904   23147787.8014
     -2761.048       -2151.477
  -9348051.862 9  -7265582.08947  22553513.239    22553513.5594   22553524.2854
      3892.025        3032.732
 -25507356.968 9 -19850063.89747  23077448.654    23077448.5724   23077459.5594
     -1238.462        -965.040
 02  9 15  0  8 49.9990000  0  8  3 22 31 13 27  1  8  2            -0.000195226
 -26727049.747 9 -20189059.64648  21521369.201    21521369.6794   21521379.0134
     -1555.481       -1212.059
 -20813745.885 8 -16200645.65746  24197783.889    24197784.0484   24197797.4074
     -2344.076       -1826.551
 -35600456.286 9 -27722595.40048  19856885.761    19856886.0524   19856895.0184
      1021.694         796.124
 -29174036.961 9 -22414962.64348  21710685.476    21710686.4244   21710694.8924
     -1582.868       -1233.399
 -29777131.830 9 -22946327.46748  21010926.770    21010926.9494   21010935.8104
      2761.945        2152.165
 -18265310.958 9 -14211345.73447  23150401.025    23150401.0064   23150415.3334
     -2761.295       -2151.650
  -9367509.488 9  -7280743.85347  22549810.558    22549810.8464   22549821.6034
      3891.894        3032.625
 -25501162.978 9 -19845237.42547  23078627.307    23078627.2174   23078638.2574
     -1238.372        -964.948
 02  9 15  0  8 54.9990000  0  8  3 22 31 13 27  1  8  2            -0.000197565
 -26719263.602 9 -20182992.52048  21522850.873    21522851.3384   21522860.6584
     -1558.649       -1214.539
 -20802022.140 8 -16191510.26446  24200014.830    24200014.9914   24200028.3594
     -2345.060       -1827.317
 -35605552.894 9 -27726566.78248  19855915.893    19855916.2044   19855925.1594
      1017.314         792.707
 -29166113.011 9 -22408788.14048  21712193.387    21712194.3194   21712202.7884
     -1586.311       -1236.087
 -29790934.613 9 -22957082.86848  21008300.199    21008300.3484   21008309.1874
      2759.313        2150.106
 -18251499.063 9 -14200583.23547  23153029.355    23153029.3364   23153043.6834
     -2763.113       -2153.071
  -9386963.299 9  -7295902.65447  22546108.596    22546108.8724   22546119.6184
      3890.137        3031.263
 -25494966.567 9 -19840409.05947  23079806.412    23079806.2684   23079817.4314
     -1239.798        -966.085
 02  9 15  0  8 59.9990000  0  8  3 22 31 13 27  1  8  2            -0.000199901
 -26711463.713 9 -20176914.68948  21524335.158    21524335.6194   21524344.9164
     -1561.143       -1216.477
 -20790295.589 8 -16182372.69546  24202246.297    24202246.4874   24202259.8514
     -2345.413       -1827.594
 -35610629.767 9 -27730522.77848  19854949.789    19854950.1114   19854959.0714
      1013.605         789.816
 -29158174.001 9 -22402601.90548  21713704.160    21713705.0814   21713713.5494
     -1589.089       -1238.252
 -29804726.268 9 -22967829.60948  21005675.746    21005675.8764   21005684.6784
      2757.340        2148.571
 -18237680.165 9 -14189815.28347  23155659.005    23155658.9914   23155673.3624
     -2764.298       -2154.006
  -9406410.741 9  -7311056.49247  22542407.828    22542408.1134   22542418.8554
      3889.088        3030.465
 -25488765.033 9 -19835576.72047  23080986.417    23080986.2844   23080997.5384
     -1240.633        -966.734
 02  9 15  0  9  4.9990000  0  8  3 22 31 13 27  1  8  2            -0.000202235
 -26703649.760 9 -20170825.89248  21525822.115    21525822.5734   21525831.8614
     -1563.426       -1218.261
 -20778565.906 9 -16173232.68646  24204478.370    24204478.5814   24204491.9484
     -2345.506       -1827.670
 -35615686.510 9 -27734463.09148  19853987.520    19853987.8414   19853996.7884
      1010.082         787.070
 -29150219.642 9 -22396403.70448  21715217.833    21715218.7314   21715227.2484
     -1591.649       -1240.255
 -29818506.625 9 -22978567.53948  21003053.429    21003053.5574   21003062.3384
      2755.568        2147.181
 -18223853.969 9 -14179041.64847  23158290.049    23158290.0804   23158304.4084
     -2765.190       -2154.704
  -9425851.375 9  -7326205.01347  22538708.346    22538708.6604   22538719.3984
      3888.261        3029.809
 -25482558.067 9 -19830740.14047  23082167.435    23082167.3324   23082178.6814
     -1241.100        -967.088
 02  9 15  0  9  9.9990000  0  8  3 22 31 13 27  1  8  2            -0.000204572
 -26695828.273 9 -20164731.22648  21527310.519    21527310.9574   21527320.2324
     -1565.214       -1219.652
 -20766839.613 9 -16164095.31946  24206709.827    24206710.0464   24206723.3944
     -2345.106       -1827.356
 -35620729.686 9 -27738392.83548  19853027.845    19853028.1644   19853037.0914
      1007.119         784.769
 -29142256.448 9 -22390198.63148  21716733.175    21716734.0674   21716742.6174
     -1593.675       -1241.823
 -29832282.075 9 -22989301.64848  21000432.034    21000432.1564   21000440.9374
      2754.342        2146.243
 -18210027.016 9 -14168267.41447  23160921.262    23160921.3114   23160935.6194
     -2765.600       -2155.015
  -9445291.701 9  -7341353.31347  22535008.926    22535009.2584   22535019.9964
      3887.928        3029.549
 -25476352.203 9 -19825904.41447  23083348.230    23083348.2224   23083359.5864
     -1241.192        -967.156
 02  9 15  0  9 14.9990000  0  8  3 22 31 13 27  1  8  2            -0.000206908
 -26687996.690 9 -20158628.70148  21528800.847    21528801.2694   21528810.5194
     -1567.310       -1221.272
 -20755114.098 9 -16154958.54946  24208941.147    24208941.3964   24208954.6654
     -2345.029       -1827.299
 -35625756.704 9 -27742309.98648  19852071.235    19852071.5504   19852080.4764
      1003.828         782.202
 -29134281.822 9 -22383984.64748  21718250.685    21718251.5774   21718260.1554
     -1596.042       -1243.667
 -29846050.033 9 -23000029.91748  20997812.044    20997812.1834   20997820.9574
      2752.772        2145.019
 -18196196.719 9 -14157490.57147  23163553.133    23163553.1444   23163567.4684
     -2766.375       -2155.615
  -9464729.152 9  -7356499.35447  22531310.032    22531310.4114   22531321.1374
      3887.226        3028.991
 -25470144.823 9 -19821067.49947  23084529.366    23084529.4334   23084540.7774
     -1241.606        -967.492
 02  9 15  0  9 19.9990000  0  8  3 22 31 13 27  1  8  2            -0.000209246
 -26680154.715 9 -20152518.06948  21530293.150    21530293.5564   21530302.7834
     -1569.069       -1222.653
 -20743389.083 9 -16145822.16646  24211172.371    24211172.6494   24211185.8224
     -2344.557       -1826.928
 -35630767.248 9 -27746214.30548  19851117.751    19851118.0894   19851126.9934
      1000.846         779.885
 -29126295.527 9 -22377761.57148  21719770.422    21719771.3034   21719779.9204
     -1598.039       -1245.226
 -29859810.172 9 -23010752.09548  20995193.544    20995193.6964   20995202.4714
      2751.510        2144.030
 -18182362.800 9 -14146710.91847  23166185.697    23166185.6834   23166200.0074
     -2766.780       -2155.938
  -9484163.414 9  -7371642.91247  22527611.709    22527612.1434   22527622.8864
      3886.920        3028.766
 -25463935.669 9 -19816229.18447  23085710.882    23085711.0154   23085722.3074
     -1241.644        -967.519
 02  9 15  0  9 24.9990000  0  8  3 22 31 13 27  1  8  2            -0.000211583
 -26672302.450 9 -20146399.42248  21531787.412    21531787.8014   21531797.0004
     -1571.586       -1224.612
 -20731664.684 9 -16136686.25946  24213403.483    24213403.7694   24213416.8284
     -2344.952       -1827.239
 -35635761.440 9 -27750105.87848  19850167.362    19850167.7114   19850176.6244
       997.112         776.971
 -29118297.634 9 -22371529.45448  21721292.362    21721293.2494   21721301.8814
     -1600.817       -1247.388
 -29873562.618 9 -23021468.27448  20992576.511    20992576.6724   20992585.4474
      2749.539        2142.504
 -18168525.376 9 -14135928.53247  23168818.912    23168818.8904   23168833.2334
     -2767.925       -2156.818
  -9503594.488 9  -7386783.99447  22523913.979    22523914.5014   22523925.2494
      3885.894        3027.969
 -25457724.800 9 -19811389.54047  23086892.783    23086892.9484   23086904.1694
     -1242.440        -968.144
 02  9 15  0  9 29.9990000  0  8  3 22 31 13 27  1  8  2            -0.000213920
 -26664438.059 9 -20140271.32448  21533283.982    21533284.3574   21533293.5344
     -1573.898       -1226.415
 -20719938.993 9 -16127549.35446  24215634.875    24215635.1284   24215648.1144
     -2345.074       -1827.325
 -35640737.391 9 -27753983.23348  19849220.462    19849220.8144   19849229.7174
       993.566         774.212
 -29110286.305 9 -22365286.86548  21722816.856    21722817.7314   21722826.4044
     -1603.419       -1249.425
 -29887305.465 9 -23032176.97748  20989961.311    20989961.4874   20989970.2464
      2747.717        2141.071
 -18154682.557 9 -14125141.93647  23171453.167    23171453.1154   23171467.4854
     -2768.930       -2157.601
  -9523020.579 9  -7401921.18547  22520217.224    22520217.8174   22520228.5484
      3884.968        3027.253
 -25451510.353 9 -19806547.10147  23088075.362    23088075.5664   23088086.7024
     -1243.066        -968.627
 02  9 15  0  9 34.9990000  0  8  3 22 31 13 27  1  8  2            -0.000216256
 -26656561.856 9 -20134134.02848  21534782.779    21534783.1724   21534792.3054
     -1576.321       -1228.298
 -20708212.381 9 -16118411.74046  24217866.467    24217866.6804   24217879.5894
     -2345.336       -1827.529
 -35645695.428 9 -27757846.63648  19848276.978    19848277.3214   19848286.2184
       989.925         771.374
 -29102261.865 9 -22359034.06548  21724343.828    21724344.7174   21724353.4074
     -1606.088       -1251.498
 -29901039.060 9 -23042878.47048  20987347.873    20987348.0564   20987356.8164
      2745.756        2139.547
 -18140834.723 9 -14114351.44847  23174088.359    23174088.3054   23174102.6394
     -2769.956       -2158.397
  -9542441.992 9  -7417054.73447  22516521.397    22516522.0174   22516532.7494
      3883.982        3026.476
 -25445292.642 9 -19801702.12247  23089258.592    23089258.8094   23089269.8464
     -1243.735        -969.144
 02  9 15  0  9 39.9990000  0  8  3 22 31 13 27  1  8  2            -0.000218592
 -26648675.706 9 -20127988.97648  21536283.471    21536283.8774   21536292.9754
     -1577.994       -1229.603
 -20696486.657 9 -16109274.81746  24220097.871    24220098.0544   24220110.8744
     -2344.834       -1827.145
 -35650637.404 9 -27761697.52348  19847336.541    19847336.8804   19847345.7754
       987.035         769.119
 -29094226.185 9 -22352772.50448  21725872.944    21725873.8364   21725882.5464
     -1608.047       -1253.023
 -29914765.256 9 -23053574.19548  20984735.834    20984736.0374   20984744.8084
      2744.613        2138.658
 -18126983.701 9 -14103558.45547  23176724.156    23176724.0874   23176738.4074
     -2770.271       -2158.649
  -9561860.589 9  -7432186.09747  22512826.165    22512826.7774   22512837.4964
      3883.686        3026.250
 -25439073.527 9 -19796856.05247  23090442.118    23090442.3454   23090453.2704
     -1243.724        -969.125
 02  9 15  0  9 44.9990000  0  8  3 22 31 13 27  1  8  2            -0.000220928
 -26640779.393 9 -20121836.00048  21537786.114    21537786.5184   21537795.5904
     -1581.226       -1232.119
 -20684761.601 9 -16100138.40146  24222329.126    24222329.3214   24222342.0234
     -2345.918       -1827.990
 -35655563.116 9 -27765535.73648  19846399.184    19846399.5454   19846408.4284
       982.556         765.639
 -29086179.059 9 -22346502.02148  21727404.228    21727405.1474   21727413.8534
     -1611.506       -1255.725
 -29928483.728 9 -23064263.90648  20982125.267    20982125.4974   20982134.2674
      2741.884        2136.528
 -18113129.302 9 -14092762.83847  23179360.588    23179360.5294   23179374.8104
     -2772.135       -2160.090
  -9581276.138 9  -7447315.07847  22509131.546    22509132.1104   22509142.8284
      3881.899        3024.852
 -25432852.778 9 -19792008.70547  23091625.979    23091626.1864   23091637.0154
     -1245.259        -970.328
 02  9 15  0  9 49.9990000  0  8  3 22 31 13 27  1  8  2            -0.000223265
 -26632871.533 9 -20115674.03048  21539290.950    21539291.3484   21539300.3844
     -1583.035       -1233.522
 -20673035.894 9 -16091001.47746  24224560.474    24224560.7194   24224573.2814
     -2345.548       -1827.697
 -35660471.161 9 -27769360.18148  19845465.178    19845465.5734   19845474.4334
       979.529         763.277
 -29078119.100 9 -22340221.54148  21728937.958    21728938.8964   21728947.6214
     -1613.587       -1257.329
 -29942193.149 9 -23074946.56348  20979516.426    20979516.6594   20979525.4464
      2740.574        2135.526
 -18099270.137 9 -14081963.50747  23181997.936    23181997.8634   23182012.1374
     -2772.634       -2160.478
  -9600687.221 9  -7462440.57647  22505437.784    22505438.2894   22505448.9814
      3881.473        3024.524
 -25426629.023 9 -19787159.01447  23092810.416    23092810.5824   23092821.3634
     -1245.372        -970.417
 02  9 15  0  9 54.9990000  0  8  3 22 31 13 27  1  8  2            -0.000225601
 -26624952.526 9 -20109503.37748  21540797.897    21540798.3004   21540807.3034
     -1584.383       -1234.582
 -20661309.839 9 -16081864.28046  24226791.884    24226792.1664   24226804.5954
     -2344.787       -1827.110
 -35665361.922 9 -27773171.15948  19844534.473    19844534.8854   19844543.7304
       976.934         761.253
 -29070046.726 9 -22333931.38748  21730474.069    21730475.0174   21730483.7484
     -1615.166       -1258.565
 -29955893.942 9 -23085622.49348  20976909.217    20976909.4734   20976918.2744
      2739.732        2134.859
 -18085406.605 9 -14071160.78147  23184636.110    23184636.0514   23184650.2814
     -2772.619       -2160.478
  -9620094.167 9  -7477562.86047  22501744.819    22501745.2654   22501755.9504
      3881.531        3024.550
 -25420402.639 9 -19782307.28347  23093995.338    23093995.4574   23094006.2114
     -1244.981        -970.110
 02  9 15  0  9 59.9990000  0  8  3 22 31 13 27  1  8  2            -0.000227936
 -26617022.739 9 -20103324.32148  21542306.894    21542307.2984   21542316.2724
     -1586.970       -1236.598
 -20649583.864 9 -16072727.14746  24229023.298    24229023.5714   24229035.8994
     -2345.147       -1827.393
 -35670235.738 9 -27776968.94048  19843606.996    19843607.4304   19843616.2364
       973.131         758.293
 -29061962.276 9 -22327631.82248  21732012.479    21732013.4454   21732022.1544
     -1618.033       -1260.808
 -29969586.374 9 -23096291.90548  20974303.614    20974303.9034   20974312.7014
      2737.597        2133.191
 -18071539.056 9 -14060354.92247  23187275.027    23187275.0134   23187289.1884
     -2773.864       -2161.437
  -9639497.299 9  -7492682.16647  22498052.572    22498052.9524   22498063.6344
      3880.371        3023.663
 -25414173.956 9 -19777453.77047  23095180.664    23095180.7264   23095191.5094
     -1245.886        -970.825
 02  9 15  0 10  4.9990000  0  8  3 22 31 13 27  1  8  2            -0.000230272
 -26609081.318 9 -20097136.19448  21543818.099    21543818.5164   21543827.4624
     -1589.961       -1238.931
 -20637857.019 9 -16063589.33746  24231254.884    24231255.1434   24231267.3924
     -2345.968       -1828.030
 -35675091.743 9 -27780752.82848  19842682.921    19842683.3714   19842692.1414
       968.922         755.004
 -29053864.884 9 -22321322.16848  21733553.357    21733554.3234   21733563.0244
     -1621.281       -1263.339
 -29983269.489 9 -23106954.06248  20971699.785    20971700.0824   20971708.9054
      2735.113        2131.262
 -18057666.644 9 -14049545.26647  23189914.870    23189914.8914   23189929.0344
     -2775.494       -2162.717
  -9658895.771 9  -7507797.83947  22494361.211    22494361.5244   22494372.2214
      3878.755        3022.413
 -25407942.109 9 -19772597.78747  23096366.531    23096366.5794   23096377.4294
     -1247.180        -971.821
 02  9 15  0 10  9.9990000  0  8  3 22 31 13 27  1  8  2            -0.000232608
 -26601129.601 9 -20090940.05148  21545331.258    21545331.7004   21545340.6014
     -1591.817       -1240.383
 -20626130.688 9 -16054451.92646  24233486.375    24233486.6424   24233498.8064
     -2345.671       -1827.803
 -35679931.305 9 -27784523.90748  19841761.992    19841762.4394   19841771.1694
       965.818         752.586
 -29045755.873 9 -22315003.46348  21735096.436    21735097.4084   21735106.1034
     -1623.409       -1265.002
 -29996944.761 9 -23117610.10648  20969097.470    20969097.7804   20969106.6014
      2733.736        2130.167
 -18043790.724 9 -14038732.88047  23192555.357    23192555.4284   23192569.5394
     -2775.981       -2163.106
  -9678290.954 9  -7522910.95447  22490670.458    22490670.7314   22490681.4214
      3878.314        3022.054
 -25401708.434 9 -19767740.39447  23097552.706    23097552.7684   23097563.6894
     -1247.360        -971.962
 02  9 15  0 10 14.9990000  0  8  3 22 31 13 27  1  8  2            -0.000234944
 -26593167.939 9 -20084736.15748  21546846.317    21546846.7724   21546855.6554
     -1593.323       -1241.547
 -20614405.210 9 -16045315.17046  24235717.682    24235717.9564   24235730.0624
     -2345.008       -1827.283
 -35684754.717 9 -27788282.40748  19840844.135    19840844.5684   19840853.2624
       963.080         750.454
 -29037635.627 9 -22308676.00748  21736641.689    21736642.6454   21736651.3294
     -1625.155       -1266.342
 -30010612.426 9 -23128260.22648  20966496.588    20966496.9184   20966505.7394
      2732.687        2129.366
 -18029911.631 9 -14027918.02647  23195196.447    23195196.5474   23195210.6324
     -2776.135       -2163.221
  -9697683.147 9  -7538021.73647  22486980.264    22486980.4814   22486991.1824
      3878.173        3021.957
 -25395473.293 9 -19762881.86547  23098739.146    23098739.2484   23098750.2154
     -1247.151        -971.796
 02  9 15  0 10 19.9990000  0  8  3 22 31 13 27  1  8  2            -0.000237280
 -26585194.821 9 -20078523.33248  21548363.541    21548364.0174   21548372.8944
     -1595.470       -1243.234
 -20602679.061 9 -16036177.90346  24237949.134    24237949.3934   24237961.4804
     -2344.967       -1827.254
 -35689560.517 9 -27792027.17748  19839929.642    19839930.0694   19839938.7174
       959.715         747.827
 -29029502.654 9 -22302338.62448  21738189.353    21738190.3114   21738198.9934
     -1627.558       -1268.235
 -30024270.972 9 -23138903.24348  20963897.452    20963897.7894   20963906.6224
      2730.975        2128.024
 -18016027.870 9 -14017099.53247  23197838.428    23197838.5504   23197852.6254
     -2776.929       -2163.840
  -9717070.868 9  -7553129.02847  22483290.905    22483291.0924   22483301.8024
      3877.433        3021.370
 -25389235.156 9 -19758020.99847  23099926.159    23099926.3244   23099937.3384
     -1247.611        -972.165
 02  9 15  0 10 24.9990000  0  8  3 22 31 13 27  1  8  2            -0.000239614
 -26577209.185 9 -20072300.75748  21549883.159    21549883.6384   21549892.5314
     -1598.164       -1245.328
 -20590951.154 9 -16027039.26746  24240180.926    24240181.1854   24240193.2174
     -2345.549       -1827.703
 -35694347.593 9 -27795757.36248  19839018.710    19839019.1294   19839027.7094
       955.772         744.758
 -29021355.865 9 -22295990.48048  21739739.665    21739740.6014   21739749.2854
     -1630.471       -1270.501
 -30037919.344 9 -23149538.32748  20961300.266    20961300.5874   20961309.4424
      2728.773        2126.308
 -18002138.390 9 -14006276.57947  23200481.503    23200481.6614   23200495.7174
     -2778.231       -2164.851
  -9736452.990 9  -7568231.94847  22479602.608    22479602.7834   22479613.5034
      3876.124        3020.349
 -25382992.966 9 -19753156.95947  23101113.996    23101114.1894   23101125.2244
     -1248.575        -972.922
 02  9 15  0 10 29.9990000  0  8  3 22 31 13 27  1  8  2            -0.000241951
 -26569215.248 9 -20066071.71548  21551404.336    21551404.8254   21551413.7614
     -1599.520       -1246.379
 -20579225.704 9 -16017902.53946  24242412.269    24242412.5304   24242424.4824
     -2344.743       -1827.074
 -35699120.141 9 -27799476.22448  19838110.539    19838110.9244   19838119.4734
       953.157         742.720
 -29013199.476 9 -22289634.86148  21741291.791    21741292.6874   21741301.4084
     -1632.099       -1271.765
 -30051561.717 9 -23160168.73548  20958704.217    20958704.5224   20958713.4014
      2727.873        2125.613
 -17988247.383 9 -13995452.44847  23203124.883    23203125.0664   23203139.0704
     -2778.235       -2164.845
  -9755833.735 9  -7583333.81347  22475914.588    22475914.7354   22475925.4664
      3876.162        3020.378
 -25376750.909 9 -19748293.02947  23102301.840    23102302.0524   23102313.0874
     -1248.263        -972.674
 02  9 15  0 10 34.9990000  0  8  3 22 31 13 27  1  8  2            -0.000244287
 -26561211.405 9 -20059834.95948  21552927.388    21552927.8924   21552936.8714
     -1601.396       -1247.841
 -20567501.109 9 -16008766.48046  24244643.462    24244643.7014   24244655.5694
     -2344.502       -1826.884
 -35703876.582 9 -27803182.53848  19837205.444    19837205.8224   19837214.3094
       950.022         740.271
 -29005031.941 9 -22283270.56348  21742846.031    21742846.9024   21742855.6564
     -1634.252       -1273.439
 -30065196.510 9 -23170793.23448  20956109.601    20956109.8964   20956118.8084
      2726.462        2124.508
 -17974353.284 9 -13984625.88947  23205768.862    23205769.0814   23205783.0474
     -2778.747       -2165.261
  -9775211.425 9  -7598433.29547  22472227.133    22472227.2924   22472238.0484
      3875.637        3019.972
 -25370507.368 9 -19743427.94247  23103490.023    23103490.2104   23103501.2324
     -1248.470        -972.842
 02  9 15  0 10 39.9990000  0  8  3 22 31 13 27  1  8  2            -0.000246623
 -26553196.249 9 -20053589.38148  21554452.598    21554453.1284   21554462.1544
     -1604.966       -1250.627
 -20555775.942 9 -15999629.98746  24246874.745    24246874.9574   24246886.8344
     -2345.941       -1828.005
 -35708615.507 9 -27806875.19948  19836303.689    19836304.0334   19836312.4784
       945.244         736.555
 -28996851.797 9 -22276896.43248  21744402.644    21744403.4964   21744412.3204
     -1638.084       -1276.427
 -30078822.202 9 -23181410.64248  20953516.705    20953516.9904   20953525.9534
      2723.323        2122.061
 -17960454.666 9 -13973795.81947  23208413.705    23208413.9364   23208427.8384
     -2780.981       -2166.997
  -9794584.720 9  -7613529.34447  22468540.509    22468540.6704   22468551.4154
      3873.455        3018.279
 -25364260.954 9 -19738560.60947  23104678.767    23104678.9254   23104689.9384
     -1250.379        -974.324
 02  9 15  0 10 44.9990000  0  8  3 22 31 13 27  1  8  2            -0.000248954
 -26545167.391 9 -20047333.13648  21555980.435    21555980.9634   21555990.0354
     -1606.901       -1252.135
 -20544047.787 9 -15990491.16846  24249106.613    24249106.7594   24249118.6774
     -2345.735       -1827.846
 -35713334.498 9 -27810552.33048  19835405.725    19835406.0404   19835414.4414
       942.047         734.059
 -28988656.649 9 -22270510.62248  21745962.101    21745962.9624   21745971.8424
     -1640.307       -1278.159
 -30092436.410 9 -23192019.10648  20950925.994    20950926.2694   20950935.2774
      2721.847        2120.918
 -17946549.169 9 -13962960.38547  23211059.880    23211060.1084   23211073.9204
     -2781.555       -2167.437
  -9813951.112 9  -7628620.02447  22464855.206    22464855.3764   22464866.1284
      3872.826        3017.781
 -25358009.251 9 -19733689.15447  23105868.534    23105868.6764   23105879.6294
     -1250.630        -974.519
 02  9 15  0 10 49.9990000  0  8  3 22 31 13 27  1  8  2            -0.000251289
 -26537128.194 9 -20041068.82748  21557510.254    21557510.7634   21557519.8804
     -1609.303       -1254.004
 -20532320.094 9 -15981352.70946  24251338.388    24251338.4634   24251350.4434
     -2345.963       -1828.018
 -35718036.911 9 -27814216.54448  19834510.878    19834511.1834   19834519.5714
       938.402         731.222
 -28980449.891 9 -22264115.75948  21747523.777    21747524.6654   21747533.5844
     -1642.948       -1280.211
 -30106042.576 9 -23202621.30148  20948336.813    20948337.0914   20948346.1254
      2719.867        2119.371
 -17932640.128 9 -13952122.18847  23213706.724    23213706.9614   23213720.6784
     -2782.593       -2168.254
  -9833313.924 9  -7643707.91547  22461170.571    22461170.7644   22461181.5044
      3871.818        3016.995
 -25351755.606 9 -19728816.17548  23107058.654    23107058.7724   23107069.6824
     -1251.351        -975.087
 02  9 15  0 10 54.9990000  0  8  3 22 31 13 27  1  8  2            -0.000253624
 -26529079.829 9 -20034797.37648  21559041.820    21559042.3104   21559051.4634
     -1611.034       -1255.353
 -20520593.955 8 -15972215.46046  24253569.854    24253569.8434   24253581.8854
     -2345.529       -1827.693
 -35722723.894 9 -27817868.73048  19833618.953    19833619.2654   19833627.6414
       935.434         728.901
 -28972232.680 9 -22257712.74948  21749087.456    21749088.3734   21749097.3104
     -1644.915       -1281.750
 -30119641.754 9 -23213218.04948  20945748.961    20945749.2454   20945758.3104
      2718.583        2118.368
 -17918728.733 9 -13941282.16947  23216353.997    23216354.2704   23216367.9064
     -2782.946       -2168.511
  -9852674.425 9  -7658793.99547  22457486.375    22457486.5834   22457497.3514
      3871.478        3016.727
 -25345501.181 9 -19723942.58847  23108248.917    23108249.0214   23108259.8784
     -1251.360        -975.080
 02  9 15  0 10 59.9990000  0  8  3 22 31 13 27  1  8  2            -0.000255959
 -26521021.179 9 -20028517.90848  21560575.351    21560575.8014   21560584.9944
     -1612.676       -1256.638
 -20508868.228 8 -15963078.53446  24255801.201    24255801.1544   24255813.1944
     -2345.014       -1827.280
 -35727394.330 9 -27821508.01748  19832730.178    19832730.4924   19832738.8764
       932.516         726.621
 -28964003.887 9 -22251300.70948  21750653.356    21750654.2824   21750663.2444
     -1646.812       -1283.233
 -30133232.817 9 -23223808.48148  20943162.644    20943162.9354   20943172.0344
      2717.376        2117.436
 -17904813.889 9 -13930439.44946  23219001.942    23219002.2164   23219015.7834
     -2783.213       -2168.727
  -9872031.421 9  -7673877.35847  22453802.835    22453803.0824   22453813.8354
      3871.160        3016.485
 -25339244.848 9 -19719067.51847  23109439.530    23109439.6314   23109450.4294
     -1251.348        -975.078
 02  9 15  0 11  4.9990000  0  8  3 22 31 13 27  1  8  2            -0.000258295
 -26512952.712 9 -20022230.79948  21562110.752    21562111.1644   21562120.3934
     -1614.307       -1257.895
 -20497143.363 8 -15953942.27946  24258032.368    24258032.3114   24258044.3664
     -2344.471       -1826.859
 -35732048.699 9 -27825134.79248  19831844.461    19831844.7914   19831853.1704
       929.618         724.378
 -28955763.993 9 -22244880.02048  21752221.371    21752222.3134   21752231.2834
     -1648.751       -1284.738
 -30146816.195 9 -23234392.92448  20940577.796    20940578.1054   20940587.2194
      2716.162        2116.494
 -17890896.027 9 -13919594.38746  23221650.461    23221650.7574   23221664.2504
     -2783.480       -2168.950
  -9891385.344 9  -7688958.31347  22450119.900    22450120.1684   22450130.9234
      3870.879        3016.268
 -25332987.049 9 -19714191.30747  23110630.418    23110630.5104   23110641.2384
     -1251.341        -975.070
 02  9 15  0 11  9.9990000  0  8  3 22 31 13 27  1  8  2            -0.000260631
 -26504872.300 9 -20015934.37248  21563648.420    21563648.8244   21563658.0634
     -1617.418       -1260.328
 -20485417.251 8 -15944805.05246  24260263.741    24260263.7144   24260275.8054
     -2345.469       -1827.637
 -35736684.795 9 -27828747.32848  19830962.227    19830962.5684   19830970.9364
       925.279         720.999
 -28947510.887 9 -22238449.03248  21753791.909    21753792.8384   21753801.8274
     -1652.079       -1287.334
 -30160389.771 9 -23244969.72248  20937994.811    20937995.1154   20938004.2674
      2713.479        2114.394
 -17876973.030 9 -13908745.31047  23224299.948    23224300.2534   23224313.6454
     -2785.250       -2170.315
  -9910733.975 9  -7704035.15247  22446437.983    22446438.2614   22446448.9974
      3869.123        3014.900
 -25326725.630 9 -19709312.27347  23111821.995    23111822.0504   23111832.7644
     -1252.780        -976.180
 02  9 15  0 11 14.9990000  0  8  3 22 31 13 27  1  8  2            -0.000262966
 -26496782.083 9 -20009630.30848  21565187.957    21565188.3324   21565197.5904
     -1619.201       -1261.707
 -20473692.038 8 -15935668.53646  24262494.899    24262494.9174   24262507.0594
     -2345.047       -1827.306
 -35741304.808 9 -27832347.32848  19830083.054    19830083.4024   19830091.7954
       922.221         718.611
 -28939246.650 9 -22232009.37048  21755364.561    21755365.4744   21755374.4504
     -1654.113       -1288.917
 -30173955.694 9 -23255540.55848  20935413.280    20935413.5854   20935422.7644
      2712.116        2113.332
 -17863047.061 9 -13897893.92146  23226949.983    23226950.3094   23226963.6144
     -2785.672       -2170.648
  -9930079.533 9  -7719109.58747  22442756.659    22442756.9124   22442767.6684
      3868.680        3014.535
 -25320462.739 9 -19704432.09847  23113013.844    23113013.8284   23113024.5554
     -1252.870        -976.272
 02  9 15  0 11 19.9990000  0  8  3 22 31 13 27  1  8  2            -0.000265302
 -26488681.442 9 -20003318.11848  21566729.477    21566729.8234   21566739.1024
     -1621.201       -1263.274
 -20461967.021 8 -15926532.17146  24264725.968    24264726.0454   24264738.2434
     -2345.091       -1827.342
 -35745908.073 9 -27835934.28148  19829207.095    19829207.4384   19829215.8144
       918.956         716.062
 -28930970.677 9 -22225560.56948  21756939.435    21756940.3334   21756949.2764
     -1656.385       -1290.698
 -30187513.173 9 -23266104.82048  20932833.346    20932833.6494   20932842.8774
      2710.533        2112.106
 -17849117.476 9 -13887039.71146  23229600.698    23229601.0704   23229614.2944
     -2786.293       -2171.138
  -9949421.380 9  -7734181.14147  22439076.041    22439076.2884   22439087.0544
      3868.025        3014.047
 -25314197.739 9 -19699550.28847  23114206.035    23114205.9814   23114216.7544
     -1253.230        -976.531
 02  9 15  0 11 24.9990000  0  8  3 22 31 13 27  1  8  2            -0.000267637
 -26480568.455 9 -19996996.31648  21568273.331    21568273.6644   21568282.9684
     -1623.734       -1265.246
 -20450240.361 8 -15917394.52446  24266957.380    24266957.5464   24266969.7124
     -2345.453       -1827.624
 -35750492.667 9 -27839506.68748  19828334.703    19828335.0334   19828343.3994
       915.116         713.077
 -28922681.079 9 -22219101.14748  21758516.897    21758517.7984   21758526.6764
     -1659.190       -1292.873
 -30201060.442 9 -23276661.12548  20930255.335    20930255.6764   20930264.9254
      2708.429        2110.462
 -17835182.353 9 -13876181.17846  23232252.494    23232252.8424   23232266.0384
     -2787.499       -2172.093
  -9968757.580 9  -7749248.28547  22435396.489    22435396.7054   22435407.5194
      3866.800        3013.091
 -25307928.714 9 -19694665.33847  23115398.960    23115398.8804   23115409.7304
     -1254.112        -977.218
 02  9 15  0 11 29.9990000  0  8  3 22 31 13 27  1  8  2            -0.000269972
 -26472445.696 9 -19990666.89648  21569819.028    21569819.3754   21569828.6774
     -1625.440       -1266.575
 -20438514.599 8 -15908257.57946  24269188.665    24269188.8994   24269201.0174
     -2345.014       -1827.283
 -35755061.193 9 -27843066.57548  19827465.370    19827465.6794   19827474.0534
       912.190         710.803
 -28914380.452 9 -22212633.12748  21760096.460    21760097.3794   21760106.1724
     -1661.147       -1294.401
 -30214600.001 9 -23287211.42248  20927678.799    20927679.1774   20927688.4394
      2707.127        2109.448
 -17821244.281 9 -13865320.36746  23234904.848    23234905.1674   23234918.3024
     -2787.814       -2172.325
  -9988090.622 9  -7764312.97147  22431717.542    22431717.7434   22431728.5734
      3866.416        3012.790
 -25301658.188 9 -19689779.23347  23116592.122    23116592.0424   23116602.9944
     -1254.179        -977.276
 02  9 15  0 11 34.9990000  0  8  3 22 31 13 27  1  8  2            -0.000272308
 -26464311.909 9 -19984328.88248  21571366.826    21571367.1874   21571376.4704
     -1628.172       -1268.703
 -20426788.415 8 -15899120.29846  24271420.051    24271420.3254   24271432.4294
     -2345.646       -1827.779
 -35759612.341 9 -27846612.91648  19826599.346    19826599.6454   19826608.0024
       908.165         707.654
 -28906067.524 9 -22206155.52048  21761678.372    21761679.2984   21761688.0264
     -1664.121       -1296.719
 -30228130.537 9 -23297754.68548  20925104.006    20925104.3904   20925113.6694
      2704.774        2107.611
 -17807301.985 9 -13854456.24946  23237558.019    23237558.3314   23237571.3634
     -2789.194       -2173.390
 -10007419.277 9  -7779374.24047  22428039.427    22428039.6114   22428050.4544
      3865.019        3011.705
 -25295384.922 9 -19684890.98247  23117785.758    23117785.7284   23117796.7824
     -1255.242        -978.109
 02  9 15  0 11 39.9990000  0  8  3 22 31 13 27  1  8  2            -0.000274642
 -26456167.153 9 -19977982.31748  21572916.713    21572917.0854   21572926.3654
     -1629.989       -1270.122
 -20415061.928 8 -15889982.78346  24273651.508    24273651.8164   24273663.8904
     -2345.289       -1827.495
 -35764146.199 9 -27850145.78448  19825736.597    19825736.9084   19825745.2454
       905.086         705.264
 -28897742.348 9 -22199668.37048  21763262.616    21763263.5304   21763272.2234
     -1666.194       -1298.333
 -30241652.103 9 -23308290.95748  20922530.934    20922531.3124   20922540.6114
      2703.385        2106.531
 -17793355.571 9 -13843588.93546  23240211.981    23240212.2564   23240225.2294
     -2789.640       -2173.723
 -10026743.565 9  -7794432.10947  22424362.125    22424362.2994   22424373.1804
      3864.533        3011.329
 -25289108.995 9 -19680000.66347  23118979.900    23118979.9344   23118991.0924
     -1255.424        -978.261
 02  9 15  0 11 44.9990000  0  8  3 22 31 13 27  1  8  2            -0.000276977
 -26448012.211 9 -19971627.81648  21574468.547    21574468.9174   21574478.1984
     -1632.029       -1271.708
 -20403335.918 8 -15880845.63646  24275882.907    24275883.2244   24275895.2754
     -2345.225       -1827.446
 -35768663.554 9 -27853665.79448  19824877.000    19824877.2914   19824885.6394
       901.840         702.732
 -28889405.712 9 -22193172.29348  21764849.038    21764849.9404   21764858.6284
     -1668.490       -1300.115
 -30255165.489 9 -23318820.86548  20919959.412    20919959.8094   20919969.1124
      2701.755        2105.266
 -17779405.817 9 -13832719.01346  23242866.581    23242866.8134   23242879.7244
     -2790.303       -2174.234
 -10046064.264 9  -7809487.17947  22420685.518    22420685.6684   22420696.5734
      3863.793        3010.737
 -25282831.179 9 -19675108.87047  23120174.423    23120174.5174   23120185.7504
     -1255.719        -978.480
 02  9 15  0 11 49.9990000  0  8  3 22 31 13 27  1  8  2            -0.000279313
 -26439847.788 9 -19965265.92848  21576022.180    21576022.5584   21576031.8124
     -1633.693       -1273.010
 -20391611.070 8 -15871709.39146  24278114.127    24278114.4214   24278126.4314
     -2344.718       -1827.052
 -35773165.084 9 -27857173.47248  19824020.404    19824020.6884   19824029.0374
       898.855         700.398
 -28881058.299 9 -22186667.81748  21766437.485    21766438.4054   21766447.1054
     -1670.450       -1301.658
 -30268671.383 9 -23329344.92848  20917389.312    20917389.7294   20917399.0334
      2700.433        2104.230
 -17765453.436 9 -13821847.04446  23245521.695    23245521.8684   23245534.7474
     -2790.579       -2174.496
 -10065382.112 9  -7824540.03147  22417009.447    22417009.5984   22417020.4994
      3863.454        3010.476
 -25276552.160 9 -19670216.13047  23121369.208    23121369.3814   23121380.6374
     -1255.766        -978.514
 02  9 15  0 11 54.9990000  0  8  3 22 31 13 27  1  8  2            -0.000281649
 -26431674.091 9 -19958896.81248  21577577.598    21577577.9684   21577587.1894
     -1635.539       -1274.449
 -20379887.551 8 -15862574.18546  24280345.098    24280345.3524   24280357.3474
     -2344.462       -1826.855
 -35777650.990 9 -27860668.97848  19823166.738    19823167.0494   19823175.4074
       895.772         698.001
 -28872700.310 9 -22180155.10648  21768027.946    21768028.8664   21768037.6254
     -1672.480       -1303.222
 -30282169.969 9 -23339863.30048  20914820.608    20914821.0284   20914830.3564
      2699.017        2103.128
 -17751498.612 9 -13810973.19046  23248177.249    23248177.4064   23248190.2304
     -2791.077       -2174.860
 -10084697.188 9  -7839590.71647  22413333.887    22413334.0384   22413344.9694
      3862.918        3010.052
 -25270272.124 9 -19665322.60648  23122564.274    23122564.4604   23122575.7114
     -1255.948        -978.657
 02  9 15  0 11 59.9990000  0  8  3 22 31 13 27  1  8  2            -0.000283983
 -26423487.033 9 -19952517.28448  21579135.558    21579135.9174   21579145.1014
     -1638.489       -1276.749
 -20368161.227 8 -15853436.79546  24282576.627    24282576.8094   24282588.7884
     -2345.271       -1827.479
 -35782117.100 9 -27864149.05048  19822316.826    19822317.1744   19822325.5404
       891.509         694.675
 -28864327.676 9 -22173630.98448  21769621.182    21769622.1004   21769630.9524
     -1675.768       -1305.799
 -30295657.019 9 -23350372.67748  20912254.112    20912254.5434   20912263.8694
      2696.421        2101.101
 -17737537.254 9 -13800094.21746  23250834.050    23250834.1854   23250846.9474
     -2792.698       -2176.132
 -10104005.347 9  -7854636.01747  22409659.622    22409659.7924   22409670.7474
      3861.248        3008.755
 -25263986.960 9 -19660425.08248  23123760.344    23123760.5234   23123771.7604
     -1257.293        -979.710
 02  9 15  0 12  4.9990000  0  8  3 22 31 13 27  1  8  2            -0.000286317
 -26415288.657 9 -19946128.93548  21580695.675    21580695.9974   21580705.1744
     -1641.112       -1278.799
 -20356434.247 8 -15844298.89946  24284808.279    24284808.3974   24284820.3824
     -2345.801       -1827.896
 -35786565.524 9 -27867615.35348  19821470.290    19821470.6764   19821479.0274
       887.621         691.645
 -28855942.480 9 -22167097.08248  21771216.795    21771217.7244   21771226.6724
     -1678.597       -1307.995
 -30309134.671 9 -23360874.73448  20909689.396    20909689.8154   20909699.1714
      2694.185        2099.355
 -17723571.436 9 -13789211.76846  23253491.702    23253491.7764   23253504.5574
     -2793.912       -2177.062
 -10123308.722 9  -7869677.58747  22405986.277    22405986.4684   22405997.4264
      3859.912        3007.707
 -25257698.695 9 -19655525.13348  23124957.041    23124957.1974   23124968.4034
     -1258.255        -980.461
 02  9 15  0 12  9.9990000  0  8  3 22 31 13 27  1  8  2            -0.000288649
 -26407077.738 9 -19939730.82048  21582258.161    21582258.4724   21582267.6334
     -1643.046       -1280.291
 -20344705.319 9 -15835159.49246  24287040.308    24287040.3784   24287052.3434
     -2345.601       -1827.731
 -35790995.038 9 -27871066.92248  19820627.384    19820627.7774   19820636.1404
       884.413         689.158
 -28847543.497 9 -22160552.42948  21772815.023    21772815.9554   21772825.0204
     -1680.803       -1309.712
 -30322601.675 9 -23371368.49248  20907126.693    20907127.1134   20907136.4944
      2692.604        2098.135
 -17709599.921 9 -13778324.90046  23256150.424    23256150.4354   23256163.2434
     -2794.470       -2177.504
 -10142606.031 9  -7884714.43647  22402314.103    22402314.2954   22402325.2454
      3859.275        3007.239
 -25251406.130 9 -19650621.83748  23126154.575    23126154.6834   23126165.8594
     -1258.541        -980.672
 02  9 15  0 12 14.9990000  0  8  3 22 31 13 27  1  8  2            -0.000290983
 -26398858.243 9 -19933326.01948  21583822.271    21583822.5774   21583831.7334
     -1644.733       -1281.612
 -20332978.395 9 -15826021.63446  24289271.943    24289271.9934   24289283.8904
     -2345.167       -1827.400
 -35795409.554 9 -27874506.79448  19819787.338    19819787.7384   19819796.0974
       881.406         686.806
 -28839134.655 9 -22154000.10048  21774415.132    21774416.0774   21774425.2414
     -1682.725       -1311.216
 -30336061.905 9 -23381856.97248  20904565.282    20904565.7144   20904575.1144
      2691.329        2097.131
 -17695626.661 9 -13767436.67546  23258809.441    23258809.4934   23258822.2484
     -2794.794       -2177.763
 -10161901.228 9  -7899749.63147  22398642.330    22398642.5364   22398653.4964
      3858.882        3006.919
 -25245113.199 9 -19645718.25448  23127352.176    23127352.2494   23127363.3824
     -1258.591        -980.728
 02  9 15  0 12 19.9990000  0  8  3 22 31 13 27  1  8  2            -0.000293318
 -26390629.315 9 -19926913.86748  21585388.152    21585388.4804   21585397.6234
     -1647.065       -1283.430
 -20321252.570 9 -15816884.63446  24291503.375    24291503.4024   24291515.2214
     -2345.381       -1827.568
 -35799808.203 9 -27877934.31048  19818950.319    19818950.7144   19818959.0654
       877.808         684.007
 -28830715.117 9 -22147439.43648  21776017.286    21776018.2444   21776027.4714
     -1685.309       -1313.225
 -30349514.566 9 -23392339.55348  20902005.326    20902005.7504   20902015.1814
      2689.345        2095.591
 -17681650.788 9 -13756546.39546  23261468.937    23261469.0344   23261481.7584
     -2795.742       -2178.490
 -10181193.451 9  -7914782.51147  22394971.117    22394971.3284   22394982.2994
      3857.862        3006.124
 -25238819.004 9 -19640813.68347  23128550.005    23128550.0364   23128561.1544
     -1259.244        -981.229
 02  9 15  0 12 24.9990000  0  8  3 22 31 13 27  1  8  2            -0.000295652
 -26382390.510 9 -19920494.02248  21586955.902    21586956.2484   21586965.3994
     -1648.294       -1284.388
 -20309527.405 9 -15807748.14646  24293734.692    24293734.6664   24293746.4214
     -2344.524       -1826.900
 -35804190.571 9 -27881349.13248  19818116.400    19818116.7974   19818125.1484
       875.314         682.055
 -28822284.431 9 -22140870.08448  21777621.571    21777622.5454   21777631.8204
     -1686.774       -1314.364
 -30362959.129 9 -23402815.82848  20899446.930    20899447.3464   20899456.7814
      2688.471        2094.910
 -17667671.874 9 -13745653.76146  23264129.014    23264129.1164   23264141.8624
     -2795.634       -2178.409
 -10200482.195 9  -7929812.67647  22391300.568    22391300.7734   22391311.7794
      3857.901        3006.153
 -25232523.112 9 -19635907.79847  23129748.132    23129748.1364   23129759.2304
     -1258.861        -980.928
 02  9 15  0 12 29.9990000  0  8  3 22 31 13 27  1  8  2            -0.000297987
 -26374141.920 9 -19914066.55648  21588525.507    21588525.8904   21588535.0544
     -1650.865       -1286.387
 -20297803.049 9 -15798612.29146  24295965.855    24295965.7734   24295977.4434
     -2344.943       -1827.222
 -35808556.701 9 -27884751.30948  19817285.577    19817285.9624   19817294.3104
       871.421         679.021
 -28813842.702 9 -22134292.12448  21779227.996    21779228.9754   21779238.2484
     -1689.632       -1316.595
 -30376395.715 9 -23413285.88648  20896890.071    20896890.4694   20896899.9004
      2686.247        2093.173
 -17653690.051 9 -13734758.84146  23266789.646    23266789.7964   23266802.5524
     -2796.841       -2179.345
 -10219767.554 9  -7944840.21447  22387630.650    22387630.8714   22387641.9114
      3856.609        3005.143
 -25226225.589 9 -19631000.63547  23130946.538    23130946.5114   23130957.6194
     -1259.868        -981.715
 02  9 15  0 12 34.9990000  0  8  3 22 31 13 27  1  8  2            -0.000300324
 -26365885.124 9 -19907632.68748  21590096.664    21590097.0804   21590106.2494
     -1651.958       -1287.237
 -20286080.956 9 -15789478.19046  24298196.554    24298196.4534   24298208.0154
     -2343.968       -1826.469
 -35812908.177 9 -27888142.06048  19816457.545    19816457.9214   19816466.2654
       869.047         677.178
 -28805391.496 9 -22127706.76948  21780836.235    21780837.2064   21780846.4564
     -1690.967       -1317.630
 -30389825.842 9 -23423750.91548  20894334.440    20894334.8174   20894344.2544
      2685.488        2092.593
 -17639706.833 9 -13723862.86747  23269450.560    23269450.7114   23269463.4854
     -2796.533       -2179.103
 -10239051.024 9  -7959866.26947  22383961.083    22383961.3254   22383972.3884
      3856.761        3005.272
 -25219927.998 9 -19626093.43447  23132144.919    23132144.8964   23132156.0174
     -1259.296        -981.263
 02  9 15  0 12 39.9990000  0  8  3 22 31 13 27  1  8  2            -0.000302661
 -26357617.977 9 -19901190.75748  21591669.798    21591670.2454   21591679.4254
     -1654.524       -1289.238
 -20274359.123 9 -15780344.29846  24300427.149    24300427.0434   24300438.5404
     -2344.432       -1826.826
 -35817242.862 9 -27891519.73548  19815632.719    19815633.0784   19815641.4244
       865.195         674.186
 -28796928.674 9 -22121112.37148  21782446.703    21782447.6514   21782456.8454
     -1693.780       -1319.829
 -30403247.362 9 -23434209.23348  20891780.461    20891780.8104   20891790.2204
      2683.294        2090.878
 -17625720.120 9 -13712964.14947  23272112.153    23272112.3324   23272125.1064
     -2797.791       -2180.102
 -10258330.471 9  -7974889.19647  22380292.268    22380292.5534   22380303.6344
      3855.488        3004.282
 -25213628.223 9 -19621184.51747  23133343.698    23133343.6764   23133354.8244
     -1260.242        -981.998
 02  9 15  0 12 44.9990000  0  8  3 22 31 13 27  1  8  2            -0.000304995
 -26349336.855 9 -19894737.93348  21593245.596    21593246.0674   21593255.2614
     -1656.817       -1291.021
 -20262633.824 9 -15771207.70346  24302658.387    24302658.3194   24302669.7454
     -2344.548       -1826.920
 -35821557.124 9 -27894881.48548  19814811.788    19814812.1174   19814820.4614
       861.627         671.403
 -28788450.621 9 -22114506.09948  21784060.062    21784060.9984   21784070.1104
     -1696.295       -1321.781
 -30416656.629 9 -23444658.00448  20889228.807    20889229.1304   20889238.5374
      2681.336        2089.361
 -17611726.311 9 -13702059.88946  23274775.109    23274775.2844   23274788.0544
     -2798.617       -2180.736
 -10277602.389 9  -7989906.25247  22376624.897    22376625.2214   22376636.3344
      3854.474        3003.480
 -25207322.623 9 -19616271.07447  23134543.580    23134543.5664   23134554.7424
     -1260.858        -982.470
 02  9 15  0 12 49.9990000  0  8  3 22 31 13 27  1  8  2            -0.000307331
 -26341047.748 9 -19888278.89348  21594822.903    21594823.4164   21594832.6144
     -1658.926       -1292.676
 -20250911.013 9 -15762073.04046  24304889.181    24304889.1124   24304900.4904
     -2344.673       -1827.024
 -35825856.936 9 -27898231.98048  19813993.602    19813993.9154   19814002.2584
       858.198         668.718
 -28779963.324 9 -22107892.62248  21785675.180    21785676.0814   21785685.1294
     -1698.695       -1323.655
 -30430059.665 9 -23455101.91948  20886678.311    20886678.6054   20886688.0174
      2679.547        2087.955
 -17597731.377 9 -13691154.76847  23277438.266    23277438.4194   23277451.1994
     -2799.394       -2181.349
 -10296872.628 9  -8004921.99347  22372957.855    22372958.2134   22372969.3444
      3853.587        3002.788
 -25201017.170 9 -19611357.73847  23135743.428    23135743.4284   23135754.6314
     -1261.378        -982.893
 02  9 15  0 12 54.9990000  0  8  3 22 31 13 27  1  8  2            -0.000309666
 -26332746.390 9 -19881810.30448  21596402.558    21596403.0974   21596412.3114
     -1661.614       -1294.756
 -20239186.538 9 -15752937.07446  24307120.282    24307120.2274   24307131.5434
     -2345.199       -1827.424
 -35830138.030 9 -27901567.89548  19813178.990    19813179.2674   19813187.6204
       854.214         665.631
 -28771462.506 9 -22101268.61748  21787292.848    21787293.7394   21787302.7234
     -1701.623       -1325.922
 -30443452.106 9 -23465537.57748  20884129.788    20884130.0954   20884139.5114
      2677.226        2086.152
 -17583731.076 9 -13680245.46246  23280102.409    23280102.6274   23280115.3784
     -2800.710       -2182.376
 -10316136.867 9  -8019933.07247  22369292.003    22369292.3314   22369303.5004
      3852.122        3001.660
 -25194707.578 9 -19606441.18347  23136944.041    23136944.0724   23136955.3024
     -1262.442        -983.700
 02  9 15  0 12 59.9990000  0  9 11  3 22 31 13 27  1  8  2         -0.000312001
  -4096207.273 8  -2891347.93545  24371732.065    24371732.3755   24371746.0114
      3898.534        3037.813
 -26324435.243 9 -19875334.08348  21597984.086    21597984.6364   21597993.8504
     -1663.677       -1296.368
 -20227462.745 9 -15743801.64946  24309351.225    24309351.1784   24309362.4614
     -2345.203       -1827.428
 -35834402.854 9 -27904891.12348  19812367.462    19812367.7174   19812376.0834
       850.862         663.004
 -28762950.628 9 -22094635.98948  21788912.609    21788913.5104   21788922.4444
     -1703.953       -1327.758
 -30456836.455 9 -23475966.92748  20881582.800    20881583.1174   20881592.5374
      2675.473        2084.782
 -17569727.842 9 -13669333.85647  23282767.098    23282767.3714   23282780.1564
     -2801.411       -2182.913
 -10335397.597 9  -8034941.40847  22365626.823    22365627.1214   22365638.3274
      3851.355        3001.058
 -25188396.314 9 -19601523.32547  23138144.972    23138145.0404   23138156.2844
     -1262.891        -984.062
 02  9 15  0 13  4.9990000  0  9 11  3 22 31 13 27  1  8  2         -0.000314337
  -4115703.664 8  -2906539.87455  24368021.889    24368022.2305   24368035.8525
      3899.290        3038.397
 -26316114.666 9 -19868850.52148  21599567.422    21599567.9734   21599577.2154
     -1665.255       -1297.602
 -20215740.011 9 -15734667.05346  24311581.958    24311581.9474   24311593.2324
     -2344.619       -1826.976
 -35838651.784 9 -27908201.97548  19811558.950    19811559.1974   19811567.5664
       848.028         660.795
 -28754428.064 9 -22087995.03648  21790534.407    21790535.3184   21790544.2014
     -1705.775       -1329.170
 -30470212.980 9 -23486390.18848  20879037.290    20879037.6344   20879047.0664
      2674.251        2083.835
 -17555722.047 9 -13658420.27947  23285432.288    23285432.6144   23285445.4104
     -2801.602       -2183.060
 -10354655.124 9  -8049947.24447  22361962.257    22361962.5134   22361973.7644
      3851.021        3000.786
 -25182083.712 9 -19596604.41847  23139346.180    23139346.3174   23139357.5134
     -1262.835        -984.022
 02  9 15  0 13  9.9990000  0  9 11  3 22 31 13 27  1  8  2         -0.000316671
  -4135199.471 8  -2921731.35545  24364311.826    24364312.1974   24364325.8244
      3899.524        3038.574
 -26307782.176 9 -19862357.67548  21601153.025    21601153.5674   21601162.8404
     -1667.308       -1299.198
 -20204015.802 9 -15725531.31046  24313812.962    24313813.0094   24313824.2564
     -2344.606       -1826.967
 -35842882.259 9 -27911498.44348  19810753.937    19810754.1844   19810762.5784
       844.602         658.129
 -28745892.324 9 -22081343.81448  21792158.716    21792159.6174   21792168.4754
     -1708.095       -1330.980
 -30483579.179 9 -23496805.39448  20876493.753    20876494.1254   20876503.5594
      2672.495        2082.461
 -17541711.199 9 -13647502.74846  23288098.461    23288098.7924   23288111.6254
     -2802.343       -2183.649
 -10373906.977 9  -8064948.66947  22358298.758    22358298.9864   22358310.2794
      3850.184        3000.140
 -25175767.314 9 -19591682.54947  23140548.156    23140548.3224   23140559.4624
     -1263.286        -984.380
 02  9 15  0 13 14.9990000  0  9 11  3 22 31 13 27  1  8  2         -0.000319006
  -4154697.154 8  -2936924.29645  24360601.417    24360601.7734   24360615.4584
      3900.305        3039.184
 -26299440.203 9 -19855857.44048  21602740.460    21602740.9824   21602750.2774
     -1668.778       -1300.344
 -20192292.616 9 -15716396.35546  24316043.802    24316043.8564   24316055.0854
     -2344.010       -1826.501
 -35847096.748 9 -27914782.45348  19809951.955    19809952.2074   19809960.6154
       841.869         655.997
 -28737345.833 9 -22074684.21448  21793785.075    21793785.9454   21793794.7904
     -1709.803       -1332.307
 -30496937.514 9 -23507214.48148  20873951.728    20873952.1324   20873961.5334
      2671.359        2081.572
 -17527697.726 9 -13636583.16147  23290765.156    23290765.4774   23290778.3604
     -2802.377       -2183.678
 -10393155.535 9  -8079947.51747  22354635.876    22354636.0854   22354647.4204
      3849.984        2999.982
 -25169449.480 9 -19586759.55747  23141750.428    23141750.5884   23141761.7094
     -1263.117        -984.248
 02  9 15  0 13 19.9990000  0  8 11  3 31 13 27  1  8  2            -0.000321343
  -4174197.672 8  -2952119.44745  24356890.480    24356890.8174   24356904.5274
      3900.443        3039.297
 -26291089.789 9 -19849350.62448  21604329.502    21604329.9994   21604339.3184
     -1670.933       -1302.023
 -35851296.268 9 -27918054.80648  19809152.818    19809153.0884   19809161.4994
       838.424         653.319
 -28728789.651 9 -22068017.06748  21795413.268    21795414.1204   21795422.9634
     -1712.176       -1334.162
 -30510288.965 9 -23517618.20548  20871411.007    20871411.4554   20871420.8204
      2669.508        2080.135
 -17513682.677 9 -13625662.37546  23293432.128    23293432.4444   23293445.3854
     -2803.179       -2184.280
 -10412401.843 9  -8094944.62247  22350973.408    22350973.6174   22350984.9644
      3849.101        2999.296
 -25163131.263 9 -19581836.28147  23142952.789    23142952.9434   23142964.0104
     -1263.653        -984.665
 02  9 15  0 13 24.9990000  0  8 11  3 31 13 27  1  8  2            -0.000323678
  -4193697.663 8  -2967314.19345  24353179.696    24353180.0114   24353193.7114
      3899.746        3038.747
 -26282727.553 9 -19842834.59148  21605920.806    21605921.2834   21605930.6044
     -1673.876       -1304.320
 -35855477.420 9 -27921312.84148  19808357.168    19808357.4714   19808365.8764
       834.161         649.989
 -28720220.408 9 -22061339.74048  21797043.928    21797044.7674   21797053.6094
     -1715.378       -1336.661
 -30523630.153 9 -23528013.92648  20868872.270    20868872.7204   20868882.0724
      2666.860        2078.069
 -17499662.664 9 -13614737.71246  23296100.057    23296100.3804   23296113.3694
     -2804.752       -2185.521
 -10431642.515 9  -8109937.32747  22347312.010    22347312.2134   22347323.6064
      3847.405        2997.979
 -25156809.282 9 -19576910.05847  23144155.891    23144156.0264   23144167.0564
     -1264.989        -985.715
 02  9 15  0 13 29.9990000  0  8 11  3 31 13 27  1  8  2            -0.000326013
  -4213198.532 8  -2982509.62845  24349468.823    24349469.0954   24349482.7544
      3900.176        3039.092
 -26274354.945 9 -19836310.49048  21607514.049    21607514.5184   21607523.8504
     -1675.633       -1305.692
 -35859641.704 9 -27924557.73648  19807564.742    19807565.0474   19807573.4504
       831.101         647.611
 -28711639.568 9 -22054653.38148  21798676.800    21798677.6064   21798686.4484
     -1717.402       -1338.235
 -30536962.508 9 -23538402.76948  20866335.206    20866335.6684   20866344.9804
      2665.400        2076.929
 -17485639.169 9 -13603810.33147  23298768.642    23298768.9834   23298782.0634
     -2805.128       -2185.821
 -10450879.001 9  -8124926.77047  22343651.404    22343651.6154   22343663.0254
      3846.803        2997.491
 -25150484.969 9 -19571982.02847  23145359.441    23145359.5344   23145370.5194
     -1265.152        -985.830
 02  9 15  0 13 34.9990000  0  8 11  3 31 13 27  1  8  2            -0.000328348
  -4232701.180 8  -2997706.45545  24345757.634    24345757.8864   24345771.4824
      3900.590        3039.412
 -26265972.848 9 -19829778.98248  21609109.085    21609109.5604   21609118.9014
     -1677.452       -1307.109
 -35863789.967 9 -27927790.14748  19806775.361    19806775.6844   19806784.0714
       827.965         645.166
 -28703047.980 9 -22047958.64548  21800311.693    21800312.4854   21800321.3474
     -1719.462       -1339.841
 -30550286.876 9 -23548785.38248  20863799.656    20863800.1174   20863809.4204
      2663.898        2075.758
 -17471613.096 9 -13592880.94947  23301437.731    23301438.0964   23301451.2234
     -2805.545       -2186.149
 -10470112.144 9  -8139913.61447  22339991.445    22339991.6624   22340003.0844
      3846.231        2997.051
 -25144159.214 9 -19567052.86147  23146563.255    23146563.2974   23146574.2714
     -1265.363        -986.001
 02  9 15  0 13 39.9990000  0  8 11  3 31 13 27  1  8  2            -0.000330685
  -4252206.958 8  -3012905.71345  24342045.803    24342046.0704   24342059.6214
      3902.265        3040.715
 -26257582.661 9 -19823241.17448  21610705.633    21610706.1194   21610715.4904
     -1678.040       -1307.564
 -35867923.602 9 -27931011.15848  19805988.769    19805989.0984   19805997.4694
       826.045         643.662
 -28694447.058 9 -22041256.64348  21801948.354    21801949.1504   21801958.0244
     -1720.310       -1340.497
 -30563604.656 9 -23559162.86948  20861265.363    20861265.8104   20861275.1094
      2663.580        2075.507
 -17457585.788 9 -13581950.60546  23304107.066    23304107.4304   23304120.5744
     -2804.777       -2185.540
 -10489343.287 9  -8154898.89247  22336331.892    22336332.0894   22336343.5384
      3846.881        2997.560
 -25137833.370 9 -19562123.63447  23147767.073    23147767.0734   23147778.0314
     -1264.362        -985.227
 02  9 15  0 13 44.9990000  0  8 11  3 31 13 27  1  8  2            -0.000333022
  -4271713.383 8  -3028105.48545  24338333.830    24338334.1124   24338347.6294
      3899.827        3038.814
 -26249181.904 9 -19816695.12648  21612304.191    21612304.6844   21612314.0784
     -1682.708       -1311.204
 -35872040.119 9 -27934218.82548  19805205.436    19805205.7534   19805214.1324
       820.048         639.000
 -28685834.413 9 -22034545.49648  21803587.213    21803588.0554   21803596.9384
     -1725.236       -1344.346
 -30576913.387 9 -23569533.29448  20858732.792    20858733.2264   20858742.5194
      2659.223        2072.116
 -17443554.838 9 -13571017.40346  23306777.138    23306777.4504   23306790.6334
     -2808.065       -2188.083
 -10508569.921 9  -8169880.65747  22332673.194    22332673.3834   22332684.8494
      3843.387        2994.835
 -25131504.997 9 -19557192.44147  23148971.344    23148971.3104   23148982.2554
     -1267.447        -987.613
 02  9 15  0 13 49.9990000  0  8 11  3 31 13 27  1  8  2            -0.000335358
  -4291218.959 8  -3043304.58745  24334621.966    24334622.2794   24334635.8014
      3901.820        3040.366
 -26240769.088 9 -19810139.69548  21613905.039    21613905.5374   21613914.9694
     -1682.973       -1311.404
 -35876138.024 9 -27937411.99548  19804425.653    19804425.9534   19804434.3284
       818.518         637.811
 -28677208.469 9 -22027823.98748  21805228.628    21805229.5114   21805238.3924
     -1725.716       -1344.709
 -30590211.524 9 -23579895.47148  20856202.232    20856202.6594   20856211.9464
      2659.270        2072.159
 -17429518.740 9 -13560080.19546  23309448.194    23309448.4314   23309461.6844
     -2806.946       -2187.227
 -10527790.554 9  -8184857.75247  22329015.645    22329015.8194   22329027.2934
      3844.347        2995.598
 -25125172.593 9 -19552258.09947  23150176.349    23150176.2994   23150187.2514
     -1266.034        -986.525
 02  9 15  0 13 54.9990000  0  8 11  3 31 13 27  1  8  2            -0.000337694
  -4310725.159 8  -3058504.16445  24330909.960    24330910.3084   24330923.8264
      3902.140        3040.619
 -26232345.765 9 -19803576.07048  21615507.887    21615508.4024   21615517.8524
     -1684.880       -1312.886
 -35880218.821 9 -27940591.83448  19803649.116    19803649.3974   19803657.7784
       815.319         635.323
 -28668570.752 9 -22021093.30348  21806872.311    21806873.2354   21806882.0764
     -1727.847       -1346.369
 -30603500.603 9 -23590250.59448  20853673.413    20853673.8284   20853683.0844
      2657.630        2070.882
 -17415479.038 9 -13549140.21246  23312119.928    23312120.0724   23312133.4184
     -2807.448       -2187.624
 -10547006.725 9  -8199831.37447  22325358.933    22325359.0874   22325370.5724
      3843.648        2995.050
 -25118837.645 9 -19547321.79747  23151381.829    23151381.7554   23151392.7144
     -1266.374        -986.780
 02  9 15  0 13 59.9990000  0  8 11  3 31 13 27  1  8  2            -0.000340030
  -4330233.276 8  -3073705.24645  24327197.573    24327197.9644   24327211.4504
      3901.632        3040.226
 -26223913.243 9 -19797005.27448  21617112.499    21617113.0104   21617122.5064
     -1687.495       -1314.926
 -35884283.840 9 -27943759.37548  19802875.560    19802875.8684   19802884.2174
       811.379         632.240
 -28659922.569 9 -22014354.46748  21808517.985    21808518.9244   21808527.7584
     -1730.766       -1348.644
 -30616781.877 9 -23600599.63148  20851146.077    20851146.4764   20851155.7224
      2655.318        2069.079
 -17401437.029 9 -13538198.40046  23314792.069    23314792.1764   23314805.5734
     -2808.690       -2188.587
 -10566219.690 9  -8214802.48247  22321702.833    22321702.9904   22321714.4514
      3842.241        2993.939
 -25112501.498 9 -19542384.53947  23152587.501    23152587.4584   23152598.4014
     -1267.417        -987.602
 02  9 15  0 14  4.9990000  0  8 11  3 31 13 27  1  8  2            -0.000342366
  -4349742.787 8  -3088907.42145  24323484.895    24323485.3484   24323498.8534
      3902.393        3040.817
 -26215471.011 9 -19790426.91348  21618718.980    21618719.4904   21618729.0034
     -1689.078       -1316.164
 -35888332.554 9 -27946914.21748  19802105.111    19802105.4244   19802113.7674
       808.426         629.943
 -28651263.462 9 -22007607.11948  21810165.759    21810166.6924   21810175.5264
     -1732.583       -1350.059
 -30630054.849 9 -23610942.19948  20848620.327    20848620.7034   20848629.9284
      2653.979        2068.036
 -17387392.201 9 -13527254.39246  23317464.718    23317464.8124   23317478.2584
     -2808.927       -2188.762
 -10585429.004 9  -8229770.76247  22318047.430    22318047.5764   22318059.0124
      3841.865        2993.660
 -25106163.607 9 -19537445.93547  23153793.496    23153793.4814   23153804.4264
     -1267.426        -987.596
 02  9 15  0 14  9.9990000  0  8 11  3 31 13 27  1  8  2            -0.000344703
  -4369252.708 8  -3104109.91845  24319772.123    24319772.6424   24319786.2204
      3901.784        3040.340
 -26207018.142 9 -19783840.26448  21620327.484    21620327.9964   21620337.5384
     -1691.720       -1318.223
 -35892364.030 9 -27950055.61748  19801337.922    19801338.2664   19801346.5954
       804.466         626.849
 -28642592.518 9 -22000850.54348  21811815.798    21811816.7304   21811825.5574
     -1735.473       -1352.314
 -30643318.539 9 -23621277.53048  20846096.324    20846096.6994   20846105.9164
      2651.591        2066.173
 -17373343.642 9 -13516307.49146  23320138.011    23320138.1334   23320151.6664
     -2810.175       -2189.750
 -10604633.658 9  -8244735.40247  22314392.928    22314393.0794   22314404.4634
      3840.388        2992.513
 -25099823.061 9 -19532505.25547  23154999.988    23155000.0144   23155010.9574
     -1268.449        -988.397
 02  9 15  0 14 14.9990000  0  8 11  3 31 13 27  1  8  2            -0.000347039
  -4388763.977 8  -3119313.46145  24316059.102    24316059.7034   24316073.3114
      3901.694        3040.278
 -26198555.532 9 -19777246.02248  21621937.843    21621938.3564   21621947.9074
     -1694.166       -1320.122
 -35896379.140 9 -27953184.27248  19800573.848    19800574.2214   19800582.5404
       800.724         623.939
 -28633910.555 9 -21994085.38548  21813467.928    21813468.8674   21813477.6684
     -1738.166       -1354.413
 -30656573.792 9 -23631606.29048  20843573.917    20843574.2794   20843583.5104
      2649.448        2064.508
 -17359292.226 9 -13505358.35646  23322811.828    23322811.9894   23322825.5604
     -2811.240       -2190.571
 -10623834.535 9  -8259697.10347  22310739.154    22310739.2794   22310750.6454
      3839.152        2991.531
 -25093480.717 9 -19527563.17047  23156206.848    23156206.9064   23156217.8154
     -1269.279        -989.040
 02  9 15  0 14 19.9990000  0  8 11  3 31 13 27  1  8  2            -0.000349375
  -4408274.884 8  -3134516.72645  24312346.171    24312346.7994   24312360.4814
      3902.269        3040.718
 -26190081.523 9 -19770642.89748  21623550.381    21623550.8924   21623560.4574
     -1695.822       -1321.425
 -35900376.269 9 -27956298.91248  19799813.215    19799813.5894   19799821.8934
       797.754         621.618
 -28625215.979 9 -21987310.39848  21815122.488    21815123.4214   21815132.1914
     -1740.050       -1355.886
 -30669819.011 9 -23641927.22848  20841053.415    20841053.7644   20841063.0034
      2648.033        2063.404
 -17345236.317 9 -13494405.72346  23325486.473    23325486.7014   23325500.3434
     -2811.484       -2190.762
 -10643029.981 9  -8274654.57847  22307086.423    22307086.4994   22307097.8424
      3838.711        2991.202
 -25087134.914 9 -19522618.38747  23157414.421    23157414.4804   23157425.3504
     -1269.387        -989.141
 02  9 15  0 14 24.9990000  0  8 11  3 31 13 27  1  8  2            -0.000351710
  -4427785.457 8  -3149719.72045  24308633.288    24308633.9514   24308647.7374
      3901.647        3040.230
 -26181596.167 9 -19764030.93748  21625165.104    21625165.5914   21625175.1584
     -1698.611       -1323.596
 -35904355.419 9 -27959399.54348  19799055.988    19799056.3794   19799064.6724
       793.629         618.411
 -28616508.838 9 -21980525.61848  21816779.439    21816780.3504   21816789.1174
     -1743.089       -1358.251
 -30683054.169 9 -23652240.32948  20838534.818    20838535.1604   20838544.4284
      2645.503        2061.429
 -17331175.973 9 -13483449.61946  23328161.998    23328162.2914   23328175.9524
     -2812.950       -2191.916
 -10662220.011 9  -8289607.82347  22303434.701    22303434.7464   22303446.0684
      3837.096        2989.941
 -25080785.694 9 -19517670.94447  23158622.650    23158622.7014   23158633.5184
     -1270.606        -990.090
 02  9 15  0 14 29.9990000  0  8 11  3 31 13 27  1  8  2            -0.000354044
  -4447295.458 8  -3164922.27045  24304920.529    24304921.2434   24304935.1174
      3902.030        3040.537
 -26173099.296 9 -19757410.00648  21626782.004    21626782.4944   21626792.0774
     -1700.467       -1325.037
 -35908316.395 9 -27962486.01248  19798302.224    19798302.6264   19798310.9014
       790.472         615.955
 -28607788.915 9 -21973730.88048  21818438.814    21818439.7064   21818448.4754
     -1745.193       -1359.898
 -30696279.054 9 -23662545.42548  20836018.162    20836018.5014   20836027.7964
      2643.934        2060.211
 -17317111.001 9 -13472489.93246  23330838.397    23330838.7804   23330852.4324
     -2813.377       -2192.236
 -10681404.425 9  -8304556.70347  22299784.022    22299784.0474   22299795.3704
      3836.411        2989.413
 -25074432.862 9 -19512720.68147  23159831.584    23159831.6334   23159842.3744
     -1270.863        -990.275
 02  9 15  0 14 34.9990000  0  8 11  3 31 13 27  1  8  2            -0.000356377
  -4466805.640 8  -3180124.96845  24301207.785    24301208.5294   24301222.4814
      3902.160        3040.640
 -26164591.645 9 -19750780.66648  21628400.979    21628401.4584   21628411.0504
     -1702.504       -1326.636
 -35912259.955 9 -27965558.91048  19797551.786    19797552.1844   19797560.4484
       787.055         613.282
 -28599056.992 9 -21966926.79148  21820100.463    21820101.3374   21820110.1284
     -1747.464       -1361.675
 -30709494.455 9 -23672843.12648  20833503.312    20833503.6674   20833512.9754
      2642.121        2058.784
 -17303042.159 9 -13461527.22146  23333515.565    23333515.9854   23333529.6744
     -2814.046       -2192.770
 -10700583.961 9  -8319501.76247  22296134.261    22296134.2904   22296145.6074
      3835.541        2988.720
 -25068077.158 9 -19507768.17747  23161041.089    23161041.1114   23161051.7864
     -1271.315        -990.645
 02  9 15  0 14 39.9990000  0  8 11  3 31 13 27  1  8  2            -0.000358712
  -4486318.454 8  -3195329.70945  24297494.558    24297495.3864   24297509.2944
      3902.549        3040.938
 -26156075.739 9 -19744144.89848  21630021.528    21630021.9944   21630031.6094
     -1704.338       -1328.044
 -35916188.590 9 -27968620.18748  19796804.181    19796804.5874   19796812.8204
       783.876         610.811
 -28590315.555 9 -21960115.29848  21821763.916    21821764.7794   21821773.5744
     -1749.560       -1363.287
 -30722702.766 9 -23683135.31048  20830989.811    20830990.1874   20830999.5004
      2640.531        2057.568
 -17288971.972 9 -13450563.45646  23336193.039    23336193.4354   23336207.1914
     -2814.492       -2193.098
 -10719760.974 9  -8334444.87047  22292484.994    22292485.0064   22292496.3114
      3834.867        2988.211
 -25061721.070 9 -19502815.38547  23162250.680    23162250.6444   23162261.2764
     -1271.597        -990.853
 02  9 15  0 14 44.9990000  0  8 11  3 31 13 27  1  8  2            -0.000361046
  -4505830.347 8  -3210533.73745  24293781.518    24293782.3994   24293796.2954
      3902.428        3040.850
 -26147548.034 9 -19737499.93348  21631644.310    21631644.7774   21631654.4204
     -1706.523       -1329.765
 -35920098.757 9 -27971667.06448  19796060.075    19796060.5014   19796068.7194
       780.393         608.100
 -28581561.078 9 -21953293.63448  21823429.830    21823430.6934   21823439.5014
     -1751.989       -1365.188
 -30735900.537 9 -23693419.28048  20828478.326    20828478.7184   20828488.0474
      2638.571        2056.021
 -17274896.864 9 -13439595.86546  23338871.476    23338871.8384   23338885.6504
     -2815.304       -2193.736
 -10738932.015 9  -8349383.30947  22288836.852    22288836.8514   22288848.1614
      3833.855        2987.412
 -25055361.055 9 -19497859.52147  23163460.998    23163460.9454   23163471.5104
     -1272.167        -991.295
 02  9 15  0 14 49.9990000  0  8 11  3 31 13 27  1  8  2            -0.000363379
  -4525341.650 8  -3225737.30545  24290068.555    24290069.4674   24290083.4154
      3901.823        3040.375
 -26139008.783 9 -19730845.97748  21633269.263    21633269.7544   21633279.4154
     -1709.360       -1331.970
 -35923990.696 9 -27974699.74248  19795319.451    19795319.8904   19795328.0774
       776.204         604.836
 -28572793.844 9 -21946462.03048  21825098.163    21825099.0184   21825107.8304
     -1755.079       -1367.596
 -30749087.945 9 -23703695.17748  20825968.825    20825969.2254   20825978.5674
      2635.994        2054.021
 -17260817.152 9 -13428624.69146  23341550.829    23341551.1274   23341564.9454
     -2816.756       -2194.864
 -10758097.331 9  -8364317.30747  22285189.805    22285189.7974   22285201.1114
      3832.191        2986.110
 -25048997.377 9 -19492900.81547  23164672.002    23164671.9344   23164682.4534
     -1273.440        -992.289
 02  9 15  0 14 54.9990000  0  8 11  3 31 13 27  1  8  2            -0.000365712
  -4544854.239 8  -3240941.87845  24286355.321    24286356.2454   24286370.3244
      3903.487        3041.676
 -26130460.012 9 -19724184.60248  21634896.021    21634896.5374   21634906.2234
     -1709.923       -1332.402
 -35927866.450 9 -27977719.80748  19794581.928    19794582.3584   19794590.5154
       774.310         603.361
 -28564015.866 9 -21939622.05648  21826768.530    21826769.3904   21826778.2104
     -1755.864       -1368.199
 -30762266.965 9 -23713964.53748  20823460.904    20823461.3244   20823470.6944
      2635.667        2053.767
 -17246734.819 9 -13417651.45046  23344230.686    23344230.9394   23344244.7384
     -2815.944       -2194.227
 -10777258.903 9  -8379248.37247  22281543.482    22281543.4564   22281554.7854
      3832.768        2986.560
 -25042632.013 9 -19487940.79047  23165883.321    23165883.2534   23165893.7184
     -1272.406        -991.483
 02  9 15  0 14 59.9990000  0  8 11  3 31 13 27  1  8  2            -0.000368046
  -4564369.089 8  -3256148.20545  24282641.655    24282642.5824   24282656.8114
      3903.100        3041.360
 -26121902.632 9 -19717516.52048  21636524.416    21636524.9644   21636534.6534
     -1712.431       -1334.358
 -35931726.879 9 -27980727.92448  19793847.326    19793847.7384   19793855.8794
       770.444         600.353
 -28555228.056 9 -21932774.41848  21828440.776    21828441.6294   21828450.4794
     -1758.632       -1370.367
 -30775438.594 9 -23724228.13248  20820954.397    20820954.8244   20820964.2214
      2633.365        2051.970
 -17232650.801 9 -13406676.91847  23346910.868    23346911.0564   23346924.8544
     -2817.073       -2195.115
 -10796417.686 9  -8394177.26947  22277897.697    22277897.6534   22277908.9934
      3831.417        2985.515
 -25036265.891 9 -19482980.17847  23167094.764    23167094.6964   23167105.1284
     -1273.335        -992.201
 02  9 15  0 15  4.9990000  0  8 11  3 31 13 27  1  8  2            -0.000370379
  -4583883.573 8  -3271354.25245  24278928.082    24278928.9944   24278943.3124
      3902.906        3041.218
 -26113334.121 9 -19710839.76548  21638154.953    21638155.5194   21638165.2134
     -1714.808       -1336.200
 -35935569.478 9 -27983722.15348  19793116.119    19793116.5194   19793124.6244
       766.746         597.470
 -28546427.898 9 -21925917.15448  21830115.356    21830116.2144   21830125.1104
     -1761.278       -1372.424
 -30788600.199 9 -23734483.91748  20818449.780    20818450.2264   20818459.6664
      2631.211        2050.291
 -17218562.571 9 -13395699.08947  23349591.852    23349591.9704   23349605.7664
     -2818.079       -2195.904
 -10815571.109 9  -8409101.98547  22274252.915    22274252.8594   22274264.2034
      3830.185        2984.555
 -25029896.481 9 -19478016.99747  23168306.834    23168306.7844   23168317.1564
     -1274.192        -992.880
 02  9 15  0 15  9.9990000  0  8 11  3 31 13 27  1  8  2            -0.000372714
  -4603401.609 8  -3286563.06245  24275213.860    24275214.7714   24275229.1184
      3903.466        3041.656
 -26104758.386 9 -19704157.37948  21639786.878    21639787.4594   21639797.1464
     -1716.378       -1337.428
 -35939398.145 9 -27986705.52948  19792387.548    19792387.9414   19792396.0414
       763.834         595.198
 -28537619.294 9 -21919053.31548  21831791.549    21831792.4104   21831801.3524
     -1763.051       -1373.808
 -30801755.686 9 -23744734.93848  20815946.327    20815946.8034   20815956.2624
      2629.868        2049.245
 -17204474.015 9 -13384721.00946  23352272.893    23352272.9404   23352286.7534
     -2818.272       -2196.049
 -10834723.007 9  -8424025.52347  22270608.402    22270608.3534   22270619.6994
      3829.747        2984.216
 -25023527.658 9 -19473054.27947  23169518.782    23169518.7334   23169529.0684
     -1274.192        -992.863
 02  9 15  0 15 14.9990000  0  8 11  3 31 13 27  1  8  2            -0.000375048
  -4622918.494 8  -3301770.97745  24271499.904    24271500.7414   24271515.1414
      3903.695        3041.823
 -26096170.763 9 -19697465.72848  21641421.084    21641421.6764   21641431.3374
     -1718.250       -1338.894
 -35943208.195 9 -27989674.38948  19791662.515    19791662.9024   19791670.9894
       760.595         592.677
 -28528797.559 9 -21912179.24648  21833470.253    21833471.1154   21833480.0834
     -1765.216       -1375.484
 -30814900.328 9 -23754977.51048  20813444.926    20813445.4334   20813454.9254
      2628.219        2047.960
 -17190380.501 9 -13373739.07347  23354954.845    23354954.8924   23354968.6914
     -2818.735       -2196.409
 -10853868.679 9  -8438944.20647  22266965.069    22266965.0574   22266976.4034
      3829.015        2983.643
 -25017154.745 9 -19468088.37147  23170731.507    23170731.4424   23170741.7614
     -1274.525        -993.116
 02  9 15  0 15 19.9990000  0  8 11  3 31 13 27  1  8  2            -0.000377382
  -4642436.311 8  -3316979.62045  24267785.812    24267786.5114   24267801.0364
      3903.065        3041.337
 -26087573.308 9 -19690766.41448  21643057.176    21643057.7394   21643067.4104
     -1721.057       -1341.084
 -35947001.684 9 -27992630.34548  19790940.635    19790941.0084   19790949.0964
       756.462         589.449
 -28519964.732 9 -21905296.53148  21835151.075    21835151.9534   21835160.9344
     -1768.250       -1377.861
 -30828036.203 9 -23765213.24448  20810945.206    20810945.7374   20810955.2484
      2625.608        2045.919
 -17176284.066 9 -13362754.85146  23357637.328    23357637.3754   23357651.1824
     -2820.169       -2197.532
 -10873010.181 9  -8453859.63147  22263322.522    22263322.5394   22263333.8974
      3827.364        2982.351
 -25010779.780 9 -19463120.87847  23171944.609    23171944.5334   23171954.8344
     -1275.752        -994.100
 02  9 15  0 15 24.9990000  0  8 11  3 31 13 27  1  8  2            -0.000379716
  -4661953.891 8  -3332188.08445  24264071.766    24264072.3354   24264086.9084
      3903.422        3041.618
 -26078964.916 9 -19684058.57548  21644695.334    21644695.8834   21644705.5624
     -1722.908       -1342.534
 -35950777.493 9 -27995572.53548  19790222.107    19790222.4794   19790230.5704
       753.274         586.965
 -28511119.739 9 -21898404.33548  21836834.239    21836835.1164   21836844.1034
     -1770.332       -1379.482
 -30841162.149 9 -23775441.24848  20808447.385    20808447.9394   20808457.4774
      2623.994        2044.669
 -17162183.613 9 -13351767.50346  23360320.559    23360320.6144   23360334.4234
     -2820.622       -2197.882
 -10892146.392 9  -8468770.94247  22259680.968    22259681.0194   22259692.4144
      3826.627        2981.779
 -25004401.674 9 -19458150.92447  23173158.292    23173158.2214   23173168.5084
     -1276.045        -994.319
 02  9 15  0 15 29.9990000  0  8 11  3 31 13 27  1  8  2            -0.000382049
  -4681471.366 8  -3347396.46345  24260357.726    24260358.1664   24260372.8194
      3903.908        3041.997
 -26070345.755 9 -19677342.35448  21646335.519    21646336.0664   21646345.7404
     -1724.478       -1343.749
 -35954535.803 9 -27998501.08348  19789506.885    19789507.2614   19789515.3824
       750.312         584.660
 -28502262.757 9 -21891502.79348  21838519.710    21838520.5704   21838529.5544
     -1772.162       -1380.910
 -30854278.374 9 -23785661.67348  20805951.422    20805952.0184   20805961.5554
      2622.593        2043.569
 -17148079.326 9 -13340777.17246  23363004.491    23363004.5694   23363018.4164
     -2820.832       -2198.039
 -10911277.451 9  -8483678.24047  22256040.386    22256040.4944   22256051.8864
      3826.154        2981.410
 -24998020.562 9 -19453178.64547  23174372.529    23174372.4914   23174382.7494
     -1276.079        -994.343
 02  9 15  0 15 34.9990000  0  8 11  3 31 13 27  1  8  2            -0.000384382
  -4700989.412 8  -3362605.28845  24256643.569    24256643.9064   24256658.5924
      3903.237        3041.473
 -26061716.445 9 -19670618.22248  21647977.600    21647978.1694   21647987.8444
     -1727.376       -1346.018
 -35958277.176 9 -28001416.43348  19788794.863    19788795.2624   19788803.4194
       746.074         581.353
 -28493394.445 9 -21884592.42148  21840207.355    21840208.1854   21840217.1814
     -1775.300       -1383.356
 -30867385.464 9 -23795874.98848  20803457.218    20803457.8024   20803467.3464
      2619.894        2041.477
 -17133971.813 9 -13329784.33646  23365689.018    23365689.1184   23365702.9884
     -2822.346       -2199.227
 -10930403.996 9  -8498582.01247  22252400.691    22252400.8314   22252412.2314
      3824.401        2980.049
 -24991637.068 9 -19448204.49547  23175587.209    23175587.1924   23175597.4574
     -1277.423        -995.413
 02  9 15  0 15 39.9990000  0  8 11  3 31 13 27  1  8  2            -0.000386714
  -4720506.686 8  -3377813.50845  24252929.577    24252929.7564   24252944.5084
      3903.792        3041.906
 -26053075.737 9 -19663885.21148  21649621.848    21649622.4584   21649632.1074
     -1728.847       -1347.152
 -35962000.409 9 -28004317.65248  19788086.306    19788086.7224   19788094.9124
       743.263         579.170
 -28484513.515 9 -21877672.22648  21841897.378    21841898.1754   21841907.2104
     -1777.003       -1384.677
 -30880482.072 9 -23806080.12848  20800965.023    20800965.6184   20800975.1524
      2618.618        2040.475
 -17119859.859 9 -13318788.03047  23368374.376    23368374.5224   23368388.4384
     -2822.365       -2199.247
 -10949524.747 9  -8513481.27847  22248762.105    22248762.2584   22248773.6544
      3824.028        2979.753
 -24985249.966 9 -19443227.53147  23176802.583    23176802.5884   23176812.8634
     -1277.335        -995.334
 02  9 15  0 15 44.9990000  0  8 11  3 31 13 27  1  8  2            -0.000389047
  -4740026.180 8  -3393023.46245  24249215.168    24249215.2264   24249230.0044
      3904.546        3042.495
 -26044426.630 9 -19657145.64948  21651267.694    21651268.3584   21651277.9564
     -1730.237       -1348.243
 -35965708.482 9 -28007207.05948  19787380.625    19787381.0724   19787389.2744
       740.541         577.039
 -28475622.975 9 -21870744.53348  21843589.205    21843589.9734   21843599.0914
     -1778.629       -1385.950
 -30893571.242 9 -23816279.47448  20798474.254    20798474.8124   20798484.3814
      2617.428        2039.554
 -17105746.409 9 -13307790.55946  23371060.054    23371060.2344   23371074.1594
     -2822.382       -2199.254
 -10968642.717 9  -8528378.37347  22245124.053    22245124.2084   22245135.6284
      3823.794        2979.574
 -24978862.193 9 -19438250.05547  23178018.098    23178018.0964   23178028.3974
     -1277.130        -995.163
 02  9 15  0 15 49.9990000  0  8 11  3 31 13 27  1  8  2            -0.000391381
  -4759547.910 8  -3408235.15245  24245500.288    24245500.3054   24245515.1104
      3904.667        3042.587
 -26035769.186 9 -19650399.59248  21652915.119    21652915.8354   21652925.3854
     -1732.213       -1349.773
 -35969401.424 9 -28010084.67548  19786677.835    19786678.3174   19786686.5144
       737.187         574.433
 -28466722.875 9 -21863809.40348  21845282.814    21845283.5854   21845292.7884
     -1780.880       -1387.688
 -30906653.073 9 -23826473.10148  20795984.875    20795985.4244   20795994.9704
      2615.636        2038.159
 -17091631.559 9 -13296791.99546  23373746.002    23373746.2214   23373760.1514
     -2823.006       -2199.747
 -10987757.900 9  -8543273.29347  22241486.529    22241486.6894   22241498.1284
      3822.903        2978.875
 -24972473.814 9 -19433272.09447  23179233.741    23179233.7484   23179244.0614
     -1277.647        -995.567
 02  9 15  0 15 54.9990000  0  8 11  3 31 13 27  1  8  2            -0.000393715
  -4779069.809 8  -3423446.98245  24241785.356    24241785.4054   24241800.1874
      3904.562        3042.506
 -26027101.353 9 -19643645.43648  21654564.540    21654565.2864   21654574.7954
     -1734.427       -1351.502
 -35973077.202 9 -28012948.91348  19785978.345    19785978.8294   19785987.0304
       733.619         571.650
 -28457811.169 9 -21856865.22648  21846978.612    21846979.3924   21846988.6924
     -1783.339       -1389.612
 -30919725.398 9 -23836659.31648  20793497.298    20793497.8304   20793507.3904
      2613.599        2036.568
 -17077513.254 9 -13285790.73446  23376432.613    23376432.8694   23376446.7774
     -2823.871       -2200.409
 -11006868.116 9  -8558164.34647  22237849.963    22237850.1144   22237861.5994
      3821.771        2977.994
 -24966082.771 9 -19428292.06747  23180449.885    23180449.9074   23180460.1974
     -1278.240        -996.031
 02  9 15  0 15 59.9990000  0  8 11  3 31 13 27  1  8  2            -0.000396049
  -4798591.565 8  -3438658.70245  24238070.416    24238070.5574   24238085.2774
      3904.369        3042.357
 -26018422.804 9 -19636882.93348  21656216.025    21656216.7694   21656226.2374
     -1736.754       -1353.306
 -35976735.467 9 -28015799.50148  19785282.217    19785282.6724   19785290.8794
       729.914         568.772
 -28448887.536 9 -21849911.75548  21848676.651    21848677.4834   21848686.8604
     -1785.908       -1391.612
 -30932787.887 9 -23846837.87548  20791011.615    20791012.1124   20791021.6624
      2611.446        2034.898
 -17063391.172 9 -13274786.53046  23379119.950    23379120.2214   23379134.1194
     -2824.770       -2201.119
 -11025973.166 9  -8573051.38147  22234214.377    22234214.5294   22234226.0404
      3820.557        2977.056
 -24959688.711 9 -19423309.68147  23181666.602    23181666.6424   23181676.9804
     -1279.114        -996.707
 02  9 15  0 16  4.9990000  0  8 11  3 31 13 27  1  8  2            -0.000398382
  -4818113.983 8  -3453870.93845  24234355.258    24234355.5544   24234370.2514
      3904.103        3042.153
 -26009734.382 9 -19630112.73548  21657869.395    21657870.1384   21657879.5594
     -1739.108       -1355.156
 -35980377.094 9 -28018637.12148  19784589.288    19784589.6864   19784597.9064
       726.224         565.879
 -28439952.862 9 -21842949.67948  21850376.805    21850377.6764   21850387.1174
     -1788.468       -1393.608
 -30945841.429 9 -23857009.45848  20788527.632    20788528.1164   20788537.6684
      2609.273        2033.201
 -17049266.160 9 -13263780.05346  23381807.849    23381808.1324   23381822.0204
     -2825.716       -2201.860
 -11045073.890 9  -8587935.03647  22230579.609    22230579.7794   22230591.2964
      3819.332        2976.098
 -24953292.500 9 -19418325.62447  23182883.767    23182883.7764   23182894.1124
     -1279.857        -997.298
 02  9 15  0 16  9.9990000  0  8 11  3 31 13 27  1  8  2            -0.000400715
  -4837635.639 8  -3469082.59245  24230640.217    24230640.6184   24230655.4054
      3905.742        3043.433
 -26001034.679 9 -19623333.74948  21659524.911    21659525.6514   21659535.0414
     -1739.613       -1355.538
 -35984000.659 9 -28021460.67448  19783899.781    19783900.1264   19783908.3584
       724.380         564.455
 -28431005.714 9 -21835977.88648  21852079.354    21852080.2504   21852089.7124
     -1789.217       -1394.200
 -30958884.491 9 -23867172.87748  20786045.651    20786046.0984   20786055.6584
      2608.963        2032.964
 -17035136.853 9 -13252770.22146  23384496.560    23384496.8364   23384510.7254
     -2824.795       -2201.120
 -11064168.806 9  -8602814.16947  22226945.933    22226946.1114   22226957.6514
      3819.892        2976.534
 -24946892.690 9 -19413338.76547  23184101.594    23184101.6024   23184111.9524
     -1278.876        -996.526
 02  9 15  0 16 14.9990000  0  8 11  3 31 13 27  1  8  2            -0.000403050
  -4857160.996 8  -3484297.11345  24226924.463    24226924.9154   24226939.8594
      3905.318        3043.095
 -25992328.196 9 -19616549.48048  21661181.714    21661182.4434   21661191.8204
     -1742.072       -1357.462
 -35987610.585 9 -28024273.59448  19783212.859    19783213.1714   19783221.4204
       720.495         561.420
 -28422050.578 9 -21828999.86648  21853783.434    21853784.3294   21853793.8104
     -1791.929       -1396.302
 -30971921.605 9 -23877331.65948  20783564.791    20783565.2114   20783574.7824
      2606.607        2031.122
 -17021007.681 9 -13241760.50246  23387185.235    23387185.5464   23387199.4154
     -2825.960       -2202.047
 -11083262.398 9  -8617692.26547  22223312.505    22223312.6954   22223324.2764
      3818.514        2975.458
 -24940493.783 9 -19408352.60847  23185319.281    23185319.2694   23185329.6154
     -1279.762        -997.210
 02  9 15  0 16 19.9990000  0  8 11  3 31 13 27  1  8  2            -0.000405385
  -4876687.499 8  -3499512.53445  24223208.451    24223208.9694   24223224.0534
      3905.139        3042.956
 -25983612.386 9 -19609757.95048  21662840.290    21662841.0044   21662850.3894
     -1744.352       -1359.226
 -35991204.383 9 -28027073.95848  19782528.995    19782529.2804   19782537.5474
       716.873         558.610
 -28413084.909 9 -21822013.64148  21855489.530    21855490.4204   21855499.9074
     -1794.447       -1398.264
 -30984950.170 9 -23887483.77948  20781085.535    20781085.9524   20781095.5324
      2604.509        2029.494
 -17006876.126 9 -13230748.92646  23389874.350    23389874.6864   23389888.5554
     -2826.770       -2202.683
 -11102352.100 9  -8632567.33247  22219679.828    22219680.0314   22219691.6044
      3817.328        2974.532
 -24934093.212 9 -19403365.16047  23186537.285    23186537.2644   23186547.6154
     -1280.517        -997.805
 02  9 15  0 16 24.9990000  0  8 11  3 31 13 27  1  8  2            -0.000407718
  -4896211.380 8  -3514725.90645  24219492.918    24219493.5304   24219508.6984
      3905.530        3043.255
 -25974883.551 9 -19602956.26448  21664501.347    21664502.0624   21664511.4304
     -1746.034       -1360.552
 -35994778.309 9 -28029858.83248  19781848.879    19781849.1784   19781857.4594
       713.846         556.238
 -28404105.031 9 -21815016.34948  21857198.331    21857199.1964   21857208.7074
     -1796.326       -1399.734
 -30997966.579 9 -23897626.42948  20778608.584    20778609.0064   20778618.5864
      2602.994        2028.305
 -16992738.531 9 -13219732.63646  23392564.624    23392564.9914   23392578.8404
     -2827.115       -2202.948
 -11121434.193 9  -8647436.47747  22216048.637    22216048.8234   22216060.3864
      3816.753        2974.083
 -24927687.295 9 -19398373.53447  23187756.296    23187756.2764   23187766.6514
     -1280.662        -997.925
 02  9 15  0 16 29.9990000  0  8 11  3 31 13 27  1  8  2            -0.000410051
  -4915736.764 8  -3529940.43945  24215777.068    24215777.8364   24215792.9964
      3904.648        3042.575
 -25966145.794 9 -19596147.62548  21666164.100    21666164.8214   21666174.1734
     -1748.954       -1362.825
 -35998336.478 9 -28032631.42248  19781171.770    19781172.0764   19781180.3754
       709.538         552.890
 -28395115.015 9 -21808011.14748  21858909.068    21858909.9184   21858919.4434
     -1799.534       -1402.229
 -31010974.835 9 -23907762.72348  20776133.156    20776133.6274   20776143.1944
      2600.199        2026.131
 -16978598.955 9 -13208714.80246  23395255.263    23395255.6784   23395269.5154
     -2828.612       -2204.117
 -11140512.774 9  -8662302.88547  22212418.127    22212418.2654   22212429.8084
      3814.885        2972.631
 -24921280.088 9 -19393380.91347  23188975.532    23188975.5144   23188985.9074
     -1282.115        -999.058
 02  9 15  0 16 34.9990000  0  8 11  3 31 13 27  1  8  2            -0.000412385
  -4935262.877 8  -3545155.54645  24212061.157    24212062.0194   24212077.1894
      3905.101        3042.925
 -25957398.409 9 -19589331.48648  21667828.700    21667829.4134   21667838.7674
     -1750.603       -1364.109
 -36001878.156 9 -28035391.16748  19780497.797    19780498.1224   19780506.4304
       706.510         550.518
 -28386114.184 9 -21800997.52848  21860621.877    21860622.7044   21860632.2284
     -1801.437       -1403.718
 -31023974.148 9 -23917892.04948  20773659.430    20773659.9304   20773669.4914
      2598.672        2024.935
 -16964456.693 9 -13197694.88146  23397946.408    23397946.9104   23397960.7494
     -2828.892       -2204.327
 -11159587.062 9  -8677165.94247  22208788.436    22208788.5414   22208800.0754
      3814.275        2972.167
 -24914870.897 9 -19388386.74647  23190195.139    23190195.1274   23190205.5384
     -1282.232        -999.141
 02  9 15  0 16 39.9990000  0  8 11  3 31 13 27  1  8  2            -0.000414719
  -4954790.510 8  -3560371.84245  24208345.004    24208345.9144   24208361.0874
      3905.687        3043.385
 -25948642.171 9 -19582508.45148  21669494.994    21669495.6884   21669505.0544
     -1752.149       -1365.310
 -36005404.141 9 -28038138.68248  19779826.821    19779827.1654   19779835.4774
       703.654         548.298
 -28377103.340 9 -21793976.09848  21862336.597    21862337.4164   21862346.9174
     -1803.157       -1405.057
 -31036965.290 9 -23928015.01248  20771187.264    20771187.8064   20771197.3484
      2597.320        2023.885
 -16950312.573 9 -13186673.50446  23400637.948    23400638.4884   23400652.3414
     -2829.029       -2204.437
 -11178657.861 9  -8692026.28647  22205159.405    22205159.4774   22205170.9724
      3813.832        2971.816
 -24908460.470 9 -19383391.61347  23191414.982    23191414.9604   23191425.4264
     -1282.219        -999.135
 02  9 15  0 16 44.9990000  0  8 11  3 31 13 27  1  8  2            -0.000417053
  -4974317.519 8  -3575587.65745  24204629.013    24204629.9704   24204645.1514
      3905.565        3043.288
 -25939875.022 9 -19575676.91748  21671163.355    21671164.0434   21671173.4144
     -1754.323       -1366.997
 -36008912.342 9 -28040872.33848  19779159.242    19779159.5724   19779167.9004
       700.068         545.511
 -28368080.366 9 -21786945.21848  21864053.642    21864054.4644   21864063.9064
     -1805.621       -1406.969
 -31049946.271 9 -23938130.06148  20768717.048    20768717.6114   20768727.1394
      2595.256        2022.277
 -16936164.500 9 -13175649.05046  23403330.248    23403330.8054   23403344.6884
     -2829.830       -2205.053
 -11197723.022 9  -8706882.23447  22201531.424    22201531.4804   22201542.9874
      3812.712        2970.958
 -24902046.749 9 -19378393.91847  23192635.445    23192635.4634   23192645.9564
     -1282.845        -999.615
 02  9 15  0 16 49.9990000  0  8 11  3 31 13 27  1  8  2            -0.000419388
  -4993846.622 8  -3590805.10045  24200912.656    24200913.6594   24200928.7734
      3905.511        3043.246
 -25931099.658 9 -19568838.97448  21672833.283    21672833.9484   21672843.3334
     -1756.380       -1368.602
 -36012405.428 9 -28043594.21748  19778494.543    19778494.8674   19778503.2074
       696.632         542.831
 -28359047.974 9 -21779906.99648  21865772.490    21865773.3044   21865782.6754
     -1807.886       -1408.732
 -31062919.716 9 -23948239.23148  20766248.296    20766248.8714   20766258.3554
      2593.372        2020.806
 -16922015.148 9 -13164623.60946  23406022.805    23406023.3574   23406037.3034
     -2830.465       -2205.548
 -11216785.258 9  -8721735.89747  22197903.978    22197904.0494   22197915.5414
      3811.694        2970.143
 -24895632.372 9 -19373395.71047  23193856.041    23193856.0844   23193866.5964
     -1283.397       -1000.041
 02  9 15  0 16 54.9990000  0  8 11  3 31 13 27  1  8  2            -0.000421724
  -5013378.366 8  -3606024.60245  24197195.849    24197196.8544   24197211.8714
      3906.317        3043.876
 -25922316.639 9 -19561995.07148  21674504.666    21674505.3084   21674514.7054
     -1757.683       -1369.622
 -36015883.997 9 -28046304.78748  19777832.599    19777832.9174   19777841.2774
       693.959         540.752
 -28350006.732 9 -21772861.87148  21867493.043    21867493.8224   21867503.1334
     -1809.419       -1409.935
 -31075886.119 9 -23958342.91748  20763780.880    20763781.4614   20763790.9254
      2592.154        2019.866
 -16907865.101 9 -13153597.61646  23408715.513    23408716.0654   23408730.0504
     -2830.397       -2205.505
 -11235845.102 9  -8736587.70747  22194276.988    22194277.0694   22194288.5754
      3811.482        2969.981
 -24889217.935 9 -19368397.45947  23195076.686    23195076.7364   23195087.2564
     -1283.208        -999.899
 02  9 15  0 16 59.9990000  0  8 11  3 31 13 27  1  8  2            -0.000424058
  -5032908.010 8  -3621242.45745  24193479.490    24193480.4624   24193495.4204
      3905.143        3042.962
 -25913521.238 9 -19555141.51248  21676178.395    21676179.0414   21676188.4124
     -1760.942       -1372.161
 -36019343.274 9 -28049000.32648  19777174.307    19777174.6414   19777183.0134
       689.316         537.120
 -28340951.927 9 -21765806.17948  21869216.145    21869216.9294   21869226.2034
     -1812.949       -1412.687
 -31088840.802 9 -23968437.47148  20761315.719    20761316.2864   20761325.7104
      2589.034        2017.422
 -16893709.650 9 -13142567.40546  23411409.242    23411409.7654   23411423.8164
     -2832.255       -2206.946
 -11254897.776 9  -8751433.92547  22190651.360    22190651.4474   22190662.9714
      3809.239        2968.233
 -24882798.713 9 -19363395.46847  23196298.263    23196298.3154   23196308.8284
     -1284.939       -1001.245
 02  9 15  0 17  4.9990000  0  8 11  3 31 13 27  1  8  2            -0.000426392
  -5052438.117 8  -3636460.68345  24189763.062    24189764.0084   24189778.9064
      3906.574        3044.076
 -25904716.060 9 -19548280.33848  21677853.981    21677854.6224   21677863.9774
     -1761.529       -1372.620
 -36022785.919 9 -28051682.90248  19776519.202    19776519.5024   19776527.9124
       687.359         535.604
 -28331886.186 9 -21758741.97248  21870941.309    21870942.1004   21870951.3394
     -1813.781       -1413.334
 -31101786.320 9 -23978524.88248  20758852.302    20758852.8454   20758862.2494
      2588.559        2017.063
 -16879551.372 9 -13131535.01347  23414103.515    23414104.0214   23414118.1244
     -2831.435       -2206.304
 -11273945.953 9  -8766276.63747  22187026.579    22187026.6644   22187038.2114
      3809.729        2968.618
 -24876377.301 9 -19358391.77047  23197520.283    23197520.2824   23197530.8214
     -1284.001       -1000.526
 02  9 15  0 17  9.9990000  0  8 11  3 31 13 27  1  8  2            -0.000428728
  -5071970.326 8  -3651680.54645  24186046.244    24186047.1544   24186061.9984
      3906.006        3043.634
 -25895902.774 9 -19541412.84248  21679531.128    21679531.7614   21679541.0874
     -1764.132       -1374.655
 -36026213.521 9 -28054353.75048  19775866.970    19775867.2474   19775875.6774
       683.370         532.488
 -28322811.135 9 -21751670.50348  21872668.219    21872669.0304   21872678.2584
     -1816.583       -1415.523
 -31114724.288 9 -23988606.40348  20756390.320    20756390.8314   20756400.2334
      2586.075        2015.120
 -16865391.958 9 -13120501.72747  23416798.008    23416798.4924   23416812.6454
     -2832.655       -2207.265
 -11292991.259 9  -8781117.09947  22183402.343    22183402.4314   22183414.0144
      3808.153        2967.383
 -24869955.329 9 -19353387.64047  23198742.397    23198742.3354   23198752.9154
     -1285.064       -1001.358
 02  9 15  0 17 14.9990000  0  8 11  3 31 13 27  1  8  2            -0.000431062
  -5091501.817 8  -3666899.85845  24182329.538    24182330.4004   24182345.2154
      3907.366        3044.693
 -25887078.561 9 -19534536.83548  21681210.360    21681210.9884   21681220.2664
     -1764.820       -1375.186
 -36029623.274 9 -28057010.69748  19775218.101    19775218.3784   19775226.8334
       681.285         530.869
 -28313723.921 9 -21744589.56748  21874397.448    21874398.2694   21874407.4904
     -1817.525       -1416.258
 -31127651.865 9 -23998679.83548  20753930.314    20753930.7844   20753940.1944
      2585.476        2014.653
 -16851228.575 9 -13109465.33747  23419493.265    23419493.7484   23419507.9214
     -2831.986       -2206.746
 -11312030.843 9  -8795953.12547  22179779.200    22179779.2804   22179790.9014
      3808.489        2967.657
 -24863529.943 9 -19348380.86147  23199965.139    23199965.0514   23199975.6544
     -1284.276       -1000.731
 02  9 15  0 17 19.9990000  0  8 11  3 31 13 27  1  8  2            -0.000433396
  -5111032.054 8  -3682118.18745  24178613.023    24178613.8824   24178628.6584
      3905.267        3043.057
 -25878242.924 9 -19527651.92148  21682891.771    21682892.3814   21682901.6394
     -1768.877       -1378.351
 -36033014.682 9 -28059653.34348  19774572.724    19774572.9974   19774581.4944
       675.859         526.633
 -28304624.119 9 -21737498.81348  21876129.074    21876129.9004   21876139.1244
     -1821.829       -1419.616
 -31140568.638 9 -24008744.83748  20751472.351    20751472.7834   20751482.2174
      2581.560        2011.594
 -16837060.750 9 -13098425.49847  23422189.381    23422189.8274   23422204.0124
     -2834.627       -2208.789
 -11331064.192 9  -8810784.27347  22176157.255    22176157.3274   22176168.9484
      3805.490        2965.322
 -24857100.695 9 -19343371.05547  23201188.602    23201188.4974   23201199.1254
     -1286.856       -1002.747
 02  9 15  0 17 24.9990000  0  8 11  3 31 13 27  1  8  2            -0.000435730
  -5130563.813 8  -3697337.69745  24174896.224    24174897.0814   24174911.8414
      3906.440        3043.972
 -25869398.717 9 -19520760.33348  21684574.799    21684575.3974   21684584.6454
     -1769.773       -1379.045
 -36036390.549 9 -28062283.88348  19773930.304    19773930.5804   19773939.0934
       673.571         524.860
 -28295514.539 9 -21730400.45348  21877862.541    21877863.3564   21877872.6224
     -1822.940       -1420.477
 -31153477.284 9 -24018803.51248  20749015.915    20749016.3274   20749025.7844
      2580.755        2010.973
 -16822891.309 9 -13087384.39047  23424885.806    23424886.2324   23424900.4404
     -2834.077       -2208.379
 -11350094.092 9  -8825612.74447  22172535.971    22172536.0254   22172547.6604
      3805.616        2965.407
 -24850670.377 9 -19338360.42147  23202412.239    23202412.1294   23202422.8154
     -1286.194       -1002.229
 02  9 15  0 17 29.9990000  0  8 11  3 31 13 27  1  8  2            -0.000438065
  -5150097.278 8  -3712558.54045  24171179.148    24171179.9944   24171194.7034
      3906.884        3044.323
 -25860546.072 9 -19513862.17748  21686259.418    21686260.0194   21686269.2704
     -1771.308       -1380.241
 -36039751.065 9 -28064902.46348  19773290.798    19773291.0944   19773299.6144
       670.640         522.572
 -28286395.346 9 -21723294.60748  21879597.809    21879598.6404   21879607.9734
     -1824.736       -1421.869
 -31166378.020 9 -24028856.02648  20746560.975    20746561.3894   20746570.8704
      2579.337        2009.875
 -16808720.399 9 -13076342.13947  23427582.520    23427582.9444   23427597.1374
     -2834.252       -2208.495
 -11369120.694 9  -8840438.64947  22168915.318    22168915.3524   22168926.9924
      3805.085        2965.004
 -24844239.123 9 -19333349.06947  23203636.030    23203635.9564   23203646.6804
     -1286.265       -1002.276
 02  9 15  0 17 34.9990000  0  9 11  3 31 13 27  1  8 28  2         -0.000440400
  -5169630.218 8  -3727778.96845  24167462.213    24167463.0174   24167477.6974
      3907.414        3044.729
 -25851682.803 9 -19506955.73848  21687946.060    21687946.6594   21687955.9274
     -1772.862       -1381.448
 -36043094.013 9 -28067507.35548  19772654.632    19772654.9474   19772663.4884
       667.687         520.278
 -28277264.374 9 -21716179.57248  21881335.297    21881336.1704   21881345.5634
     -1826.533       -1423.269
 -31179268.612 9 -24038900.63648  20744107.992    20744108.3824   20744117.8764
      2577.824        2008.692
 -16794545.831 9 -13065297.03547  23430279.937    23430280.3204   23430294.5284
     -2834.420       -2208.630
 -11388141.754 9  -8855260.23347  22165295.732    22165295.7454   22165307.3654
      3804.533        2964.569
  -4191159.64018  -3239887.42555  24557652.655    24557653.2785   24557667.5595
      3351.564        2611.600
 -24837804.730 9 -19328335.26047  23204860.383    23204860.3624   23204871.1384
     -1286.284       -1002.302
 02  9 15  0 17 39.9990000  0  9 11  3 31 13 27  1  8 28  2         -0.000442734
  -5189162.467 8  -3742998.86445  24163745.415    24163746.1794   24163760.8144
      3906.368        3043.916
 -25842808.831 9 -19500040.96248  21689634.734    21689635.3424   21689644.6344
     -1775.884       -1383.805
 -36046419.320 9 -28070098.49948  19772021.852    19772022.1614   19772030.7064
       663.280         516.847
 -28268121.527 9 -21709055.28948  21883075.051    21883075.9594   21883085.4144
     -1829.753       -1425.784
 -31192148.938 9 -24048937.24748  20741656.958    20741657.3484   20741666.8424
      2574.928        2006.437
 -16780367.538 9 -13054249.03446  23432978.042    23432978.4034   23432992.6134
     -2836.099       -2209.945
 -11407157.183 9  -8870077.42947  22161677.199    22161677.2244   22161688.8364
      3802.529        2963.011
  -4207911.609 8  -3252940.87045  24554464.829    24554465.4874   24554479.8024
      3350.059        2610.426
 -24831367.127 9 -19323318.94447  23206085.331    23206085.3864   23206096.1994
     -1287.852       -1003.525
 02  9 15  0 17 44.9990000  0  9 11  3 31 13 27  1  8 28  2         -0.000445069
  -5208696.332 8  -3758220.02745  24160028.302    24160029.0484   24160043.6304
      3906.657        3044.142
 -25833926.363 9 -19493119.56448  21691325.030    21691325.6474   21691334.9534
     -1777.650       -1385.184
 -36049729.154 9 -28072677.58548  19771392.012    19771392.3074   19771400.8614
       660.110         514.365
 -28258968.995 9 -21701923.45748  21884816.670    21884817.6154   21884827.1214
     -1831.752       -1427.342
 -31205021.191 9 -24058967.56548  20739207.461    20739207.8384   20739217.3404
      2573.246        2005.114
 -16766187.723 9 -13043199.84846  23435676.432    23435676.7424   23435691.0204
     -2836.536       -2210.289
 -11426169.085 9  -8884891.88047  22158059.337    22158059.3724   22158070.9614
      3801.782        2962.427
  -4224663.078 8  -3265993.92245  24551277.091    24551277.7594   24551292.1754
      3349.944        2610.341
 -24824928.496 9 -19318301.82647  23207310.487    23207310.5894   23207321.4684
     -1288.123       -1003.733
 02  9 15  0 17 49.9990000  0  9 11  3 31 13 27  1  8 28  2         -0.000447403
  -5228229.336 8  -3773440.52045  24156311.359    24156312.0934   24156326.6344
      3906.781        3044.237
 -25825033.034 9 -19486189.70048  21693017.399    21693018.0304   21693027.3284
     -1779.438       -1386.578
 -36053021.139 9 -28075242.76848  19770765.577    19770765.8564   19770774.4164
       656.921         511.884
 -28249804.416 9 -21694782.24248  21886560.610    21886561.5904   21886571.1184
     -1833.787       -1428.922
 -31217883.029 9 -24068989.77048  20736759.929    20736760.3044   20736769.8264
      2571.542        2003.796
 -16752004.052 9 -13032147.66747  23438375.539    23438375.8384   23438390.1404
     -2836.789       -2210.494
 -11445175.196 9  -8899701.82647  22154442.591    22154442.6374   22154454.1854
      3801.001        2961.810
  -4241411.527 9  -3279044.62045  24548089.930    24548090.6344   24548105.1254
      3349.715        2610.158
 -24818486.462 9 -19313282.06947  23208536.299    23208536.4594   23208547.3934
     -1288.395       -1003.950
 02  9 15  0 17 54.9990000  0  9 11  3 31 13 27  1  8 28  2         -0.000449737
  -5247763.152 8  -3788661.64645  24152594.254    24152594.9924   24152609.4214
      3907.244        3044.603
 -25816130.493 9 -19479252.65848  21694711.549    21694712.1724   21694721.4554
     -1781.054       -1387.838
 -36056296.938 9 -28077795.33348  19770142.231    19770142.4874   19770151.0564
       653.907         509.528
 -28240629.462 9 -21687632.93748  21888306.573    21888307.5604   21888317.1004
     -1835.636       -1430.371
 -31230736.048 9 -24079005.10148  20734314.077    20734314.4554   20734323.9984
      2569.988        2002.575
 -16737818.156 9 -13021093.75146  23441075.051    23441075.3234   23441089.6784
     -2837.076       -2210.710
 -11464177.136 9  -8914508.51147  22150826.622    22150826.6834   22150838.2084
      3800.378        2961.311
  -4258158.708 9  -3292094.34645  24544903.062    24544903.7704   24544918.2964
      3349.709        2610.158
 -24812042.685 9 -19308260.95347  23209762.471    23209762.6824   23209773.6614
     -1288.520       -1004.038
 02  9 15  0 17 59.9990000  0  9 11  3 31 13 27  1  8 28  2         -0.000452072
  -5267298.990 8  -3803884.33345  24148876.756    24148877.4874   24148891.8084
      3906.518        3044.027
 -25807220.011 9 -19472309.42548  21696407.216    21696407.8174   21696417.0884
     -1783.739       -1389.934
 -36059557.823 9 -28080336.27748  19769521.721    19769521.9544   19769530.5184
       649.847         506.366
 -28231445.429 9 -21680476.55748  21890054.283    21890055.2624   21890064.8174
     -1838.560       -1432.643
 -31243581.495 9 -24089014.53248  20731869.642    20731870.0354   20731879.6044
      2567.374        2000.548
 -16723631.358 9 -13010039.11046  23443774.740    23443775.0264   23443789.3934
     -2838.313       -2211.668
 -11483176.132 9  -8929312.89647  22147211.218    22147211.2714   22147222.7814
      3798.707        2960.026
  -4274905.869 9  -3305144.04645  24541716.215    24541716.9274   24541731.4624
      3348.632        2609.320
 -24805598.431 9 -19303239.45347  23210988.774    23210988.9934   23211000.0004
     -1289.759       -1005.019
 02  9 15  0 18  4.9990000  0  9 11  3 31 13 27  1  8 28  2         -0.000454405
  -5286831.901 8  -3819104.74245  24145159.824    24145160.5094   24145174.7494
      3906.368        3043.917
 -25798296.633 9 -19465356.14848  21698105.332    21698105.9224   21698115.1764
     -1785.932       -1391.641
 -36062798.825 9 -28082861.73148  19768904.997    19768905.2004   19768913.7794
       646.242         503.566
 -28222247.293 9 -21673309.19048  21891804.686    21891805.6444   21891815.2144
     -1841.013       -1434.548
 -31256414.458 9 -24099014.23648  20729427.573    20729427.9774   20729437.5864
      2565.271        1998.906
 -16709438.645 9 -12998979.87746  23446475.545    23446475.8144   23446490.2484
     -2839.083       -2212.264
 -11502167.236 9  -8944111.14447  22143597.308    22143597.3794   22143608.8624
      3797.505        2959.085
  -4291648.022 9  -3318189.85145  24538530.323    24538530.9924   24538545.4924
      3347.975        2608.808
 -24799148.714 9 -19298213.70947  23212216.131    23212216.3564   23212227.3854
     -1290.422       -1005.523
 02  9 15  0 18  9.9990000  0  9 11  3 31 13 27  1  8 28  2         -0.000456738
  -5306365.085 8  -3834325.36345  24141442.804    24141443.4614   24141457.6384
      3906.850        3044.292
 -25789363.625 9 -19458395.36448  21699805.273    21699805.8574   21699815.0814
     -1787.317       -1392.716
 -36066023.188 9 -28085374.22048  19768291.406    19768291.6214   19768300.1914
       643.454         501.393
 -28213038.399 9 -21666133.43648  21893557.129    21893558.0884   21893567.6384
     -1842.611       -1435.801
 -31269238.139 9 -24109006.70648  20726987.273    20726987.6904   20726997.3094
      2563.950        1997.877
 -16695243.303 9 -12987918.58346  23449176.816    23449177.1024   23449191.5454
     -2839.157       -2212.341
 -11521153.692 9  -8958905.76847  22139984.288    22139984.3534   22139995.8254
      3797.127        2958.806
  -4308388.397 9  -3331234.26845  24535344.769    24535345.3814   24535359.7964
      3348.117        2608.916
 -24792696.787 9 -19293186.23947  23213443.913    23213444.1474   23213455.2274
     -1290.344       -1005.471
 02  9 15  0 18 14.9990000  0  9 11  3 31 13 27  1  8 28  2         -0.000459072
  -5325898.708 8  -3849546.33145  24137725.699    24137726.3484   24137740.4524
      3906.812        3044.264
 -25780421.106 9 -19451427.16648  21701507.015    21701507.5894   21701516.7994
     -1789.423       -1394.355
 -36069231.038 9 -28087873.84348  19767680.952    19767681.1704   19767689.7744
       639.943         498.655
 -28203818.833 9 -21658949.36948  21895311.620    21895312.5804   21895322.0724
     -1844.946       -1437.622
 -31282052.595 9 -24118991.99048  20724548.717    20724549.1634   20724558.8224
      2561.909        1996.299
 -16681045.437 9 -12976855.33246  23451878.547    23451878.8604   23451893.3134
     -2839.723       -2212.758
 -11540135.568 9  -8973696.81947  22136372.137    22136372.2064   22136383.6654
      3796.014        2957.911
  -4325127.161 9  -3344277.43445  24532159.529    24532160.1254   24532174.3794
      3347.622        2608.536
 -24786242.766 9 -19288157.13847  23214672.109    23214672.3154   23214683.4554
     -1290.937       -1005.919
 02  9 15  0 18 19.9990000  0  9 11  3 31 13 27  1  8 28  2         -0.000461405
  -5345432.776 8  -3864767.64445  24134008.512    24134009.1694   24134023.2044
      3907.620        3044.892
 -25771469.165 9 -19444451.63248  21703210.538    21703211.1154   21703220.2774
     -1790.604       -1395.275
 -36072422.426 9 -28090360.63848  19767073.635    19767073.8704   19767082.4704
       637.390         496.671
 -28194588.666 9 -21651757.03548  21897068.130    21897069.0834   21897078.4864
     -1846.335       -1438.707
 -31294857.887 9 -24128970.12948  20722111.916    20722112.3834   20722122.0524
      2560.801        1995.429
 -16666845.132 9 -12965790.17346  23454580.713    23454581.0924   23454595.5524
     -2839.578       -2212.653
 -11559112.921 9  -8988484.34847  22132760.851    22132760.9294   22132772.3684
      3795.825        2957.776
  -4341864.332 9  -3357319.35345  24528974.582    24528975.1754   24528989.2374
      3348.043        2608.857
 -24779786.701 9 -19283126.44047  23215900.683    23215900.8644   23215912.0734
     -1290.663       -1005.715
 02  9 15  0 18 24.9990000  0  9 11  3 31 13 27  1  8 28  2         -0.000463740
  -5364969.403 8  -3879990.95445  24130290.813    24130291.4884   24130305.4884
      3907.466        3044.767
 -25762509.955 9 -19437470.43448  21704915.436    21704916.0274   21704925.1494
     -1792.649       -1396.871
 -36075599.508 9 -28092836.28548  19766469.060    19766469.3004   19766477.8794
       633.906         493.948
 -28185350.060 9 -21644558.12448  21898826.260    21898827.1914   21898836.5054
     -1848.617       -1440.480
 -31307656.211 9 -24138942.84248  20719676.462    20719676.9324   20719686.6024
      2558.782        1993.854
 -16652644.577 9 -12954724.82246  23457282.912    23457283.3834   23457297.8704
     -2840.202       -2213.141
 -11578087.929 9  -9003270.04847  22129150.018    22129150.0984   22129161.5044
      3794.734        2956.925
  -4358602.064 9  -3370361.70745  24525789.538    24525790.0954   24525804.0004
      3347.510        2608.441
 -24773330.742 9 -19278095.83247  23217129.210    23217129.4024   23217140.6694
     -1291.279       -1006.191
 02  9 15  0 18 29.9990000  0  9 11  3 31 13 27  1  8 28  2         -0.000466074
  -5384505.048 8  -3895213.49845  24126573.288    24126574.0084   24126587.9394
      3907.057        3044.453
 -25753539.938 9 -19430480.81148  21706622.393    21706622.9844   21706632.0754
     -1795.078       -1398.770
 -36078758.751 9 -28095298.02748  19765867.883    19765868.1034   19765876.7054
       630.081         490.972
 -28176099.457 9 -21637349.86248  21900586.670    21900587.5744   21900596.8004
     -1851.317       -1442.585
 -31320443.912 9 -24148907.27548  20717243.029    20717243.4974   20717253.1824
      2556.418        1992.011
 -16638440.186 9 -12943656.48246  23459985.840    23459986.3864   23460000.8864
     -2841.245       -2213.959
 -11597056.972 9  -9018051.09647  22125540.306    22125540.3784   22125551.7844
      3793.259        2955.765
  -4375336.770 9  -3383401.70045  24522605.088    24522605.5804   24522619.3394
      3346.664        2607.782
 -24766871.331 9 -19273062.52447  23218358.390    23218358.5854   23218369.9114
     -1292.184       -1006.900
 02  9 15  0 18 34.9990000  0  9 11  3 31 13 27  1  8 28  2         -0.000468409
  -5404041.273 8  -3910436.48945  24122855.655    24122856.4284   24122870.2854
      3907.140        3044.514
 -25744560.728 9 -19423484.02948  21708331.107    21708331.6984   21708340.7474
     -1796.918       -1400.191
 -36081901.729 9 -28097747.09648  19765269.788    19765270.0154   19765278.5994
       626.806         488.417
 -28166838.484 9 -21630133.51348  21902349.041    21902349.9324   21902359.0664
     -1853.398       -1444.200
 -31333222.594 9 -24158864.68448  20714811.317    20714811.7754   20714821.4764
      2554.595        1990.592
 -16624233.588 9 -12932586.42446  23462689.210    23462689.8084   23462704.3234
     -2841.722       -2214.323
 -11616021.591 9  -9032828.69847  22121931.419    22121931.4944   22121942.9164
      3792.373        2955.104
  -4392070.088 9  -3396440.60545  24519420.873    24519421.3044   24519434.9684
      3346.365        2607.548
 -24760410.071 9 -19268027.78147  23219587.933    23219588.1484   23219599.4994
     -1292.570       -1007.195
 02  9 15  0 18 39.9990000  0  9 11  3 31 13 27  1  8 28  2         -0.000470743
  -5423577.641 8  -3925659.59545  24119138.017    24119138.8214   24119152.6294
      3907.091        3044.479
 -25735571.863 9 -19416479.71948  21710041.644    21710042.2244   21710051.2824
     -1799.022       -1401.837
 -36085028.021 9 -28100183.16448  19764674.872    19764675.0944   19764683.6854
       623.321         485.704
 -28157566.676 9 -21622908.73548  21904113.454    21904114.3174   21904123.3864
     -1855.720       -1446.008
 -31345991.888 9 -24168814.77048  20712381.395    20712381.8374   20712391.5464
      2552.531        1988.975
 -16610024.395 9 -12921514.33946  23465393.087    23465393.7374   23465408.2164
     -2842.389       -2214.865
 -11634981.431 9  -9047602.57547  22118323.434    22118323.5264   22118334.9574
      3791.255        2954.222
  -4408801.534 9  -3409478.04945  24516236.989    24516237.3774   24516250.9714
      3345.835        2607.136
 -24753946.523 9 -19262991.24147  23220817.901    23220818.1024   23220829.5014
     -1293.220       -1007.709
 02  9 15  0 18 44.9990000  0  9 11  3 31 13 27  1  8 28  2         -0.000473077
  -5443113.584 9  -3940882.36045  24115420.462    24115421.2674   24115435.0334
      3906.408        3043.945
 -25726572.803 9 -19409467.47148  21711754.128    21711754.6754   21711763.7554
     -1801.549       -1403.817
 -36088137.093 9 -28102605.81348  19764083.214    19764083.4444   19764092.0314
       619.373         482.625
 -28148283.567 9 -21615675.14848  21905879.995    21905880.8214   21905889.8924
     -1858.467       -1448.149
 -31358751.221 9 -24178757.10148  20709953.352    20709953.7994   20709963.5414
      2550.061        1987.056
 -16595812.015 9 -12910439.78746  23468097.620    23468098.2704   23468112.7524
     -2843.524       -2215.720
 -11653935.918 9  -9062372.28447  22114716.466    22114716.5804   22114728.0034
      3789.709        2953.009
  -4425530.644 9  -3422513.67445  24513053.521    24513053.9084   24513067.4534
      3344.927        2606.430
 -24747480.140 9 -19257952.51547  23222048.407    23222048.6044   23222060.0344
     -1294.273       -1008.534
 02  9 15  0 18 49.9990000  0  9 11  3 31 13 27  1  8 28  2         -0.000475412
  -5462650.966 8  -3956106.25246  24111702.639    24111703.4114   24111717.1414
      3907.558        3044.838
 -25717565.391 9 -19402448.71348  21713468.181    21713468.7254   21713477.8244
     -1802.388       -1404.461
 -36091230.734 9 -28105016.43848  19763494.498    19763494.7224   19763503.3174
       617.101         480.849
 -28138990.955 9 -21608434.15748  21907648.314    21907649.1404   21907658.2314
     -1859.550       -1449.005
 -31371502.362 9 -24188693.04348  20707526.875    20707527.3154   20707537.0884
      2549.223        1986.402
 -16581598.311 9 -12899364.19246  23470802.432    23470803.0544   23470817.5264
     -2842.943       -2215.288
 -11672886.896 9  -9077139.25547  22111110.177    22111110.2944   22111121.7214
      3789.786        2953.057
  -4442259.128 9  -3435548.81246  24509870.175    24509870.5514   24509884.0734
      3345.555        2606.919
 -24741012.749 9 -19252912.99347  23223279.108    23223279.2944   23223290.7744
     -1293.626       -1008.024
 02  9 15  0 18 54.9990000  0  9 11  3 31 13 27  1  8 28  2         -0.000477746
  -5482188.063 8  -3971329.92546  24107984.861    24107985.6204   24107999.3064
      3908.156        3045.311
 -25708547.999 9 -19395422.18448  21715184.134    21715184.6814   21715193.7874
     -1803.726       -1405.504
 -36094307.368 9 -28107413.81648  19762908.989    19762909.2424   19762917.8344
       614.340         478.703
 -28129687.214 9 -21601184.51048  21909418.731    21909419.5984   21909428.7064
     -1861.099       -1450.205
 -31384243.685 9 -24198621.33748  20705102.275    20705102.7034   20705112.5064
      2547.952        1985.409
 -16567381.645 9 -12888286.28946  23473507.825    23473508.4104   23473522.9014
     -2842.848       -2215.205
 -11691832.715 9  -9091902.21047  22107504.869    22107504.9744   22107516.4284
      3789.454        2952.808
  -4458985.419 9  -3448582.24546  24506687.240    24506687.6554   24506701.1144
      3345.816        2607.120
 -24734542.699 9 -19247871.40847  23224510.283    23224510.5074   23224522.0214
     -1293.509       -1007.930
 02  9 15  0 18 59.9990000  0  9 11  3 31 13 27  1  8 28  2         -0.000480081
  -5501725.427 8  -3986553.80345  24104267.042    24104267.7704   24104281.4264
      3906.703        3044.178
 -25699521.145 9 -19388388.27748  21716901.896    21716902.4484   21716911.5314
     -1807.088       -1408.122
 -36097367.424 9 -28109798.26648  19762326.631    19762326.8984   19762335.5044
       609.575         474.987
 -28120372.854 9 -21593926.56948  21911191.187    21911192.0584   21911201.2034
     -1864.693       -1453.009
 -31396975.566 9 -24208542.27748  20702679.459    20702679.8964   20702689.7044
      2544.568        1982.775
 -16553162.517 9 -12877206.47846  23476213.670    23476214.2154   23476228.6994
     -2844.839       -2216.759
 -11710773.717 9  -9106661.40847  22103900.469    22103900.5734   22103912.0414
      3786.985        2950.885
  -4475710.026 9  -3461614.36846  24503504.632    24503505.0754   24503518.4974
      3343.927        2605.652
 -24728070.470 9 -19242828.11847  23225741.901    23225742.1154   23225753.6564
     -1295.457       -1009.450
 02  9 15  0 19  4.9990000  0  9 11  3 31 13 27  1  8 28  2         -0.000482414
  -5521261.593 8  -4001776.74245  24100549.458    24100550.1144   24100563.7854
      3906.650        3044.137
 -25690483.413 9 -19381345.89748  21718621.729    21718622.2754   21718631.3564
     -1809.100       -1409.687
 -36100409.492 9 -28112168.70848  19761747.707    19761747.9904   19761756.6034
       606.154         472.320
 -28111046.515 9 -21586659.29948  21912965.927    21912966.8054   21912976.0094
     -1866.928       -1454.752
 -31409696.722 9 -24218454.85848  20700258.694    20700259.1324   20700268.9574
      2542.581        1981.222
 -16538939.509 9 -12866123.64246  23478920.216    23478920.7484   23478935.2424
     -2845.457       -2217.232
 -11729708.576 9  -9121415.82347  22100297.258    22100297.3424   22100308.8394
      3785.929        2950.070
  -4492431.502 9  -3474644.05746  24500322.659    24500323.0974   24500336.4604
      3343.507        2605.315
 -24721594.655 9 -19237782.03447  23226974.188    23226974.4294   23226985.9764
     -1295.960       -1009.840
 02  9 15  0 19  9.9990000  0  9 11  3 31 13 27  1  8 28  2         -0.000484748
  -5540797.759 8  -4016999.68645  24096831.886    24096832.4664   24096846.1464
      3907.317        3044.657
 -25681436.065 9 -19374296.02048  21720343.397    21720343.9484   21720352.9994
     -1810.370       -1410.681
 -36103434.869 9 -28114526.14648  19761171.981    19761172.2574   19761180.8724
       603.485         470.251
 -28101709.389 9 -21579383.63548  21914742.711    21914743.6134   21914752.8684
     -1868.453       -1455.934
 -31422408.334 9 -24228360.00548  20697839.762    20697840.1814   20697850.0194
      2541.328        1980.257
 -16524713.944 9 -12855038.80146  23481627.220    23481627.7924   23481642.2634
     -2845.284       -2217.105
 -11748638.436 9  -9136166.35047  22096694.999    22096695.0904   22096706.5724
      3785.599        2949.813
  -4509151.077 9  -3487672.26946  24497141.027    24497141.4624   24497154.8004
      3343.803        2605.554
 -24715116.505 9 -19232734.12747  23228206.932    23228207.1814   23228218.7504
     -1295.830       -1009.723
 02  9 15  0 19 14.9990000  0  9 11  3 31 13 27  1  8 28  2         -0.000487082
  -5560334.747 9  -4032223.27245  24093114.165    24093114.6774   24093128.3584
      3907.575        3044.852
 -25672379.933 9 -19367239.29748  21722066.765    21722067.2864   21722076.3214
     -1811.976       -1411.930
 -36106444.364 9 -28116871.19648  19760599.294    19760599.5504   19760608.1544
       600.432         467.868
 -28092362.349 9 -21572100.23948  21916521.399    21916522.3214   21916531.6314
     -1870.263       -1457.346
 -31435111.246 9 -24238258.36248  20695422.481    20695422.9014   20695432.7164
      2539.725        1979.011
 -16510486.591 9 -12843952.57346  23484334.552    23484335.1564   23484349.6184
     -2845.599       -2217.339
 -11767564.193 9  -9150913.66747  22093093.517    22093093.6134   22093105.0904
      3784.909        2949.278
  -4525869.607 9  -3500699.66346  24493959.582    24493960.0004   24493973.3594
      3343.753        2605.519
 -24708636.859 9 -19227685.04947  23229439.944    23229440.2214   23229451.7904
     -1295.967       -1009.855
 02  9 15  0 19 19.9990000  0  9 11  3 31 13 27  1  8 28  2         -0.000489416
  -5579870.833 8  -4047446.16145  24089396.612    24089397.0384   24089410.7464
      3907.398        3044.718
 -25663313.289 9 -19360174.38748  21723792.132    21723792.6294   21723801.6364
     -1814.122       -1413.608
 -36109436.223 9 -28119202.51148  19760029.933    19760030.2034   19760038.7984
       596.875         465.096
 -28083003.662 9 -21564807.76548  21918302.327    21918303.2584   21918312.6004
     -1872.643       -1459.199
 -31447803.632 9 -24248148.52748  20693007.192    20693007.6084   20693017.4254
      2537.595        1977.348
 -16496255.785 9 -12832863.66446  23487042.544    23487043.1994   23487057.6304
     -2846.259       -2217.858
 -11786484.104 9  -9165656.42747  22089493.138    22089493.2274   22089504.7374
      3783.716        2948.338
  -4542585.346 9  -3513724.87945  24490778.658    24490779.0794   24490792.4854
      3343.123        2605.026
 -24702153.953 9 -19222633.44547  23230673.579    23230673.8844   23230685.4624
     -1296.630       -1010.362
 02  9 15  0 19 24.9990000  0  9 11  3 31 13 27  1  8 28  2         -0.000491747
  -5599403.317 8  -4062666.23945  24085679.715    24085680.0804   24085693.8284
      3907.035        3044.434
 -25654233.516 9 -19353099.24648  21725520.012    21725520.4734   21725529.4724
     -1816.425       -1415.397
 -36112407.791 9 -28121518.01548  19759464.444    19759464.7274   19759473.2934
       593.121         462.178
 -28073630.688 9 -21557504.14948  21920085.992    21920086.9144   21920096.2834
     -1875.150       -1461.155
 -31460482.871 9 -24258028.44848  20690594.398    20690594.8164   20690604.6274
      2535.275        1975.540
 -16482018.851 9 -12821769.95646  23489751.715    23489752.4134   23489766.8204
     -2847.142       -2218.542
 -11805395.515 9  -9180392.57247  22085894.366    22085894.4614   22085905.9974
      3782.323        2947.259
  -4559295.611 9  -3526745.82545  24487598.759    24487599.1474   24487612.6594
      3342.356        2604.424
 -24695665.157 9 -19217577.23947  23231908.366    23231908.6684   23231920.2744
     -1297.482       -1011.022
 02  9 15  0 19 29.9990000  0  9 11  3 31 13 27  1  8 28  2         -0.000494080
  -5618939.062 8  -4077888.86045  24081962.169    24081962.4854   24081976.2774
      3906.990        3044.403
 -25645147.441 9 -19346019.19148  21727249.085    21727249.5164   21727258.5024
     -1818.330       -1416.878
 -36115365.993 9 -28123823.09848  19758901.496    19758901.7834   19758910.3334
       589.829         459.608
 -28064250.253 9 -21550194.73448  21921871.072    21921871.9814   21921881.3834
     -1877.301       -1462.816
 -31473155.832 9 -24267903.46948  20688182.797    20688183.2224   20688193.0174
      2533.366        1974.052
 -16467782.643 9 -12810676.84246  23492460.721    23492461.4704   23492475.8784
     -2847.647       -2218.921
 -11824305.255 9  -9195127.42047  22082295.897    22082296.0334   22082307.5684
      3781.345        2946.504
  -4576007.305 8  -3539767.88645  24484418.583    24484418.9654   24484432.5214
      3342.080        2604.211
 -24689177.292 9 -19212521.76947  23233143.003    23233143.2854   23233154.8974
     -1297.968       -1011.399
 02  9 15  0 19 34.9990000  0  9 11  3 31 13 27  1  8 28  2         -0.000496413
  -5638474.548 8  -4093111.27545  24078244.662    24078244.9364   24078258.7204
      3906.945        3044.366
 -25636051.586 9 -19338931.51148  21728980.011    21728980.4264   21728989.4004
     -1820.314       -1418.430
 -36118307.250 9 -28126114.97448  19758341.787    19758342.0584   19758350.6034
       586.428         456.949
 -28054858.919 9 -21542876.81848  21923658.204    21923659.1174   21923668.5664
     -1879.511       -1464.553
 -31485818.938 9 -24277770.81248  20685773.066    20685773.5004   20685783.2904
      2531.366        1972.488
 -16453543.665 9 -12799581.55846  23495170.257    23495171.0394   23495185.4704
     -2848.162       -2219.339
 -11843209.811 9  -9209858.22147  22078698.409    22078698.5914   22078710.1144
      3780.292        2945.667
  -4592716.879 8  -3552788.29145  24481238.804    24481239.1674   24481252.7714
      3341.593        2603.826
 -24682686.861 9 -19207464.29347  23234378.152    23234378.4104   23234390.0234
     -1298.478       -1011.799
 02  9 15  0 19 39.9990000  0  9 11  3 31 13 27  1  8 28  2         -0.000498747
  -5658011.371 9  -4108334.73445  24074526.892    24074527.1674   24074540.8894
      3907.763        3044.998
 -25626947.618 9 -19331837.51548  21730712.474    21730712.8804   21730721.8514
     -1821.316       -1419.204
 -36121233.247 9 -28128394.97048  19757784.983    19757785.2354   19757793.7614
       583.962         455.038
 -28045458.330 9 -21535551.69548  21925447.094    21925448.0164   21925457.4944
     -1880.761       -1465.523
 -31498473.902 9 -24287631.82148  20683364.895    20683365.3284   20683375.1114
      2530.354        1971.711
 -16439303.593 9 -12788485.41546  23497880.006    23497880.8254   23497895.2554
     -2847.863       -2219.102
 -11862110.846 9  -9224586.28347  22075101.602    22075101.8164   22075113.3354
      3780.173        2945.590
  -4609426.002 8  -3565808.34645  24478059.103    24478059.4584   24478073.0694
      3342.082        2604.211
 -24676195.543 9 -19202406.12747  23235613.474    23235613.7064   23235625.3364
     -1298.074       -1011.487
 02  9 15  0 19 44.9990000  0  9 11  3 31 13 27  1  8 28  2         -0.000501082
  -5677549.978 9  -4123559.58145  24070808.802    24070809.0564   24070822.7294
      3908.041        3045.218
 -25617835.924 9 -19324737.50248  21732446.406    21732446.7964   21732455.7404
     -1822.905       -1420.444
 -36124144.382 9 -28130663.38748  19757231.000    19757231.2454   19757239.7644
       580.943         452.685
 -28036048.897 9 -21528219.67648  21927237.664    21927238.6044   21927248.0994
     -1882.560       -1466.922
 -31511121.066 9 -24297486.75248  20680958.196    20680958.6684   20680968.4314
      2528.765        1970.471
 -16425062.859 9 -12777388.74646  23500589.886    23500590.7364   23500605.1624
     -2848.050       -2219.257
 -11881008.708 9  -9239311.87547  22071505.394    22071505.6574   22071517.1504
      3779.504        2945.068
  -4626135.062 8  -3578828.34945  24474879.380    24474879.7694   24474893.3504
      3341.977        2604.128
 -24669703.712 9 -19197347.56047  23236848.901    23236849.0894   23236860.7434
     -1298.199       -1011.584
 02  9 15  0 19 49.9990000  0  9 11  3 31 13 27  1  8 28  2         -0.000503414
  -5697085.352 8  -4138781.91845  24067091.326    24067091.5594   24067105.1524
      3906.551        3044.055
 -25608711.541 9 -19317627.59348  21734182.756    21734183.1174   21734192.0634
     -1826.343       -1423.120
 -36127035.668 9 -28132916.33048  19756680.811    19756681.0304   19756689.5274
       576.073         448.887
 -28026625.658 9 -21520876.89748  21929030.841    21929031.8034   21929041.2974
     -1886.208       -1469.774
 -31523755.466 9 -24307331.72548  20678553.926    20678554.4324   20678564.1824
      2525.281        1967.746
 -16410816.466 9 -12766287.68546  23503300.838    23503301.7434   23503316.1344
     -2850.013       -2220.786
 -11899898.379 9  -9254031.07947  22067910.754    22067911.0604   22067922.5214
      3776.959        2943.088
  -4642839.080 9  -3591844.42345  24471700.604    24471701.0394   24471714.5794
      3340.125        2602.685
 -24663206.362 9 -19192284.70847  23238085.355    23238085.5104   23238097.1944
     -1300.196       -1013.134
 02  9 15  0 19 54.9990000  0  9 11  3 31 13 27  1  8 28  2         -0.000505749
  -5716622.114 8  -4154005.33845  24063373.576    24063373.8204   24063387.3494
      3907.341        3044.675
 -25599579.116 9 -19310511.42348  21735920.629    21735920.9744   21735929.8934
     -1827.435       -1423.975
 -36129911.746 9 -28135157.42748  19756133.510    19756133.7264   19756142.1924
       573.567         446.935
 -28017193.239 9 -21513526.97448  21930825.760    21930826.7484   21930836.2154
     -1887.514       -1470.783
 -31536381.671 9 -24317170.32548  20676151.227    20676151.7454   20676161.4844
      2524.185        1966.896
 -16396569.061 9 -12755185.85046  23506011.987    23506012.9524   23506027.2814
     -2849.737       -2220.568
 -11918784.512 9  -9268747.52847  22064316.796    22064317.1114   22064328.5564
      3776.778        2942.945
  -4659542.663 8  -3604860.16445  24468521.930    24468522.3744   24468535.8674
      3340.580        2603.046
 -24656708.145 9 -19187221.16747  23239321.943    23239322.0994   23239333.8124
     -1299.839       -1012.865
 02  9 15  0 19 59.9990000  0  9 11  3 31 13 27  1  8 28  2         -0.000508084
  -5736160.589 8  -4169230.08245  24059655.497    24059655.7464   24059669.2404
      3908.066        3045.240
 -25590439.035 9 -19303389.28548  21737659.972    21737660.2844   21737669.1774
     -1828.605       -1424.880
 -36132772.977 9 -28137386.95848  19755589.025    19755589.2504   19755597.6804
       570.929         444.886
 -28007752.016 9 -21506170.18148  21932622.364    21932623.3544   21932632.8004
     -1888.959       -1471.917
 -31549000.082 9 -24327002.84748  20673750.032    20673750.5544   20673760.2774
      2522.940        1965.931
 -16382321.045 9 -12744083.51446  23508723.273    23508724.2874   23508738.5504
     -2849.494       -2220.367
 -11937667.401 9  -9283461.45447  22060723.460    22060723.8014   22060735.2094
      3776.478        2942.701
  -4676246.194 8  -3617875.86945  24465343.270    24465343.7224   24465357.2134
      3340.836        2603.242
 -24650209.433 9 -19182157.24147  23240558.607    23240558.7774   23240570.5234
     -1299.588       -1012.659
 02  9 15  0 20  4.9990000  0  9 11  3 31 13 27  1  8 28  2         -0.000510416
  -5755697.453 8  -4184453.57145  24055937.679    24055937.9574   24055951.4424
      3906.405        3043.946
 -25581288.003 9 -19296258.61548  21739401.376    21739401.6634   21739410.5454
     -1832.145       -1427.629
 -36135616.097 9 -28139602.36948  19755047.973    19755048.2474   19755056.6214
       565.978         441.028
 -27998298.716 9 -21498803.98248  21934421.264    21934422.2724   21934431.6884
     -1892.703       -1474.823
 -31561607.354 9 -24336826.68748  20671350.961    20671351.4814   20671361.1744
      2519.387        1963.161
 -16368069.102 9 -12732978.12446  23511435.359    23511436.3634   23511450.5684
     -2851.626       -2222.042
 -11956543.804 9  -9298170.32147  22057131.366    22057131.7324   22057143.0794
      3773.823        2940.645
  -4692946.361 8  -3630888.94045  24462165.244    24462165.7174   24462179.2764
      3338.828        2601.676
 -24643706.916 9 -19177090.35047  23241795.992    23241796.1524   23241807.9714
     -1301.715       -1014.312
 02  9 15  0 20  9.9990000  0  9 11  3 31 13 27  1  8 28  2         -0.000512751
  -5775235.081 8  -4199677.65345  24052219.689    24052219.9824   24052233.5324
      3907.387        3044.709
 -25572128.376 9 -19289121.24448  21741144.388    21741144.6614   21741153.5624
     -1832.986       -1428.303
 -36138443.409 9 -28141805.46448  19754509.968    19754510.2344   19754518.5794
       563.684         439.225
 -27988835.702 9 -21491430.20748  21936222.025    21936223.0364   21936232.4144
     -1893.770       -1475.681
 -31574205.880 9 -24346643.71348  20668953.552    20668954.0624   20668963.7394
      2518.534        1962.486
 -16353815.578 9 -12721871.49746  23514147.768    23514148.7534   23514162.8644
     -2851.051       -2221.592
 -11975416.053 9  -9312875.95947  22053540.108    22053540.4694   22053551.7414
      3773.894        2940.682
  -4709645.505 8  -3643901.22146  24458987.403    24458987.9044   24459001.5614
      3339.555        2602.239
 -24637202.939 9 -19172022.32547  23243033.656    23243033.7974   23243045.6634
     -1301.129       -1013.871
 02  9 15  0 20 14.9990000  0  9 11  3 31 13 27  1  8 28  2         -0.000515085
  -5794772.355 8  -4214901.46045  24048501.743    24048502.1114   24048515.7024
      3907.701        3044.956
 -25562959.026 9 -19281976.30448  21742889.245    21742889.4994   21742898.4194
     -1834.558       -1429.524
 -36141253.800 9 -28143995.37448  19753975.189    19753975.4534   19753983.7494
       560.672         436.891
 -27979361.808 9 -21484047.96248  21938024.879    21938025.8434   21938035.2124
     -1895.571       -1477.073
 -31586794.420 9 -24356452.95948  20666558.049    20666558.5344   20666568.2214
      2516.914        1961.230
 -16339559.388 9 -12710762.79746  23516860.702    23516861.6254   23516875.6924
     -2851.214       -2221.726
 -11994283.006 9  -9327577.47347  22049949.861    22049950.1984   22049961.4104
      3773.214        2940.164
  -4726342.506 9  -3656911.83946  24455809.993    24455810.5264   24455824.2904
      3339.491        2602.199
 -24630696.364 9 -19166952.28247  23244271.815    23244271.9454   23244283.8464
     -1301.260       -1013.961
 02  9 15  0 20 19.9990000  0  9 11  3 31 13 27  1  8 28  2         -0.000517420
  -5814312.066 8  -4230127.17345  24044783.355    24044783.8034   24044797.3954
      3908.126        3045.292
 -25553782.775 9 -19274825.98148  21744635.407    21744635.6544   21744644.6094
     -1835.964       -1430.623
 -36144050.121 9 -28146174.32348  19753443.117    19753443.3494   19753451.5914
       557.804         434.651
 -27969879.869 9 -21476659.45148  21939829.246    21939830.1774   21939839.5144
     -1897.231       -1478.360
 -31599375.874 9 -24366256.67648  20664163.900    20664164.3474   20664174.0384
      2515.418        1960.065
 -16325303.346 9 -12699654.22046  23519573.603    23519574.4944   23519588.4824
     -2851.249       -2221.761
 -12013147.504 9  -9342277.05647  22046360.104    22046360.4094   22046371.5604
      3772.646        2939.717
  -4743040.167 9  -3669922.97645  24452632.490    24452633.0274   24452646.9244
      3339.562        2602.252
 -24624190.020 9 -19161882.41747  23245509.927    23245510.0444   23245521.9554
     -1301.223       -1013.932
 02  9 15  0 20 24.9990000  0  9 11  3 31 13 27  1  8 28  2         -0.000519755
  -5833849.809 8  -4245351.35045  24041065.353    24041065.8544   24041079.4804
      3907.229        3044.587
 -25544595.286 9 -19267666.90948  21746383.712    21746383.9524   21746392.9174
     -1838.770       -1432.808
 -36146827.960 9 -28148338.86648  19752914.549    19752914.7554   19752922.9654
       553.565         431.355
 -27960385.597 9 -21469261.32748  21941635.960    21941636.8894   21941646.1604
     -1900.229       -1480.684
 -31611945.853 9 -24376051.45748  20661771.930    20661772.3574   20661782.0344
      2512.578        1957.855
 -16311043.119 9 -12688542.37446  23522287.301    23522288.1494   23522302.0854
     -2852.642       -2222.834
 -12032005.089 9  -9356971.26347  22042771.675    22042771.9204   22042783.0344
      3770.726        2938.231
  -4759734.127 9  -3682931.22946  24449455.735    24449456.2884   24449470.2264
      3338.277        2601.247
 -24617679.564 9 -19156809.34147  23246748.819    23246748.9414   23246760.8654
     -1302.637       -1015.039
 02  9 15  0 20 29.9990000  0  9 11  3 31 13 27  1  8 28  2         -0.000522089
  -5853388.003 8  -4260575.88945  24037347.255    24037347.8124   24037361.4504
      3907.486        3044.793
 -25535399.029 9 -19260500.99948  21748133.687    21748133.9174   21748142.9184
     -1840.322       -1434.012
 -36149589.811 9 -28150490.95748  19752389.011    19752389.2134   19752397.3794
       550.591         429.037
 -27950881.426 9 -21461855.48948  21943444.567    21943445.4984   21943454.7024
     -1901.996       -1482.071
 -31624506.780 9 -24385839.18948  20659381.675    20659382.0954   20659391.7654
      2510.973        1956.603
 -16296781.156 9 -12677429.16846  23525001.335    23525002.1214   23525016.0484
     -2852.808       -2222.961
 -12050858.213 9  -9371661.98347  22039184.070    22039184.2534   22039195.3684
      3770.026        2937.680
  -4776426.868 9  -3695938.54346  24446279.258    24446279.8144   24446293.7524
      3338.204        2601.191
 -24611167.435 9 -19151734.96547  23247988.045    23247988.1694   23248000.0824
     -1302.762       -1015.122
 02  9 15  0 20 34.9990000  0  9 11  3 31 13 27  1  8 28  2         -0.000524424
  -5872926.517 8  -4275800.67445  24033629.093    24033629.7154   24033643.3604
      3907.402        3044.724
 -25526193.850 9 -19253328.13748  21749885.374    21749885.5884   21749894.6014
     -1842.319       -1435.566
 -36152335.543 9 -28152630.48348  19751866.532    19751866.7314   19751874.8624
       547.147         426.350
 -27941367.187 9 -21454441.79848  21945255.121    21945256.0454   21945265.1984
     -1904.243       -1483.828
 -31637058.493 9 -24395619.73548  20656993.172    20656993.5974   20657003.2454
      2508.945        1955.026
 -16282517.313 9 -12666314.50746  23527715.722    23527716.4494   23527730.3734
     -2853.369       -2223.398
 -12069706.735 9  -9386349.11947  22035597.312    22035597.4734   22035608.5814
      3768.932        2936.814
  -4793118.250 9  -3708944.79846  24443103.049    24443103.5894   24443117.5264
      3337.734        2600.822
 -24604653.488 9 -19146659.16147  23249227.625    23249227.7484   23249239.6494
     -1303.367       -1015.608
 02  9 15  0 20 39.9990000  0  9 11  3 31 13 27  1  8 28  2         -0.000526761
  -5892467.060 8  -4291027.03745  24029910.558    24029911.2314   24029924.8914
      3907.801        3045.033
 -25516981.506 9 -19246149.68748  21751638.423    21751638.6144   21751647.6544
     -1843.755       -1436.690
 -36155066.833 9 -28154758.74948  19751346.774    19751346.9854   19751355.0864
       544.236         424.077
 -27931844.669 9 -21447021.64848  21947067.266    21947068.1884   21947077.2814
     -1905.897       -1485.116
 -31649602.740 9 -24405394.45948  20654606.105    20654606.5004   20654616.1314
      2507.409        1953.823
 -16268253.366 9 -12655199.76246  23530430.092    23530430.8034   23530444.6614
     -2853.398       -2223.422
 -12088552.429 9  -9401034.06447  22032011.075    22032011.2244   22032022.3334
      3768.318        2936.357
  -4809809.976 9  -3721951.31345  24439926.763    24439927.3004   24439941.1654
      3337.803        2600.880
 -24598139.432 9 -19141583.28147  23250467.214    23250467.3564   23250479.2334
     -1303.382       -1015.614
 02  9 15  0 20 44.9990000  0  9 11  3 31 13 27  1  8 28  2         -0.000529093
  -5912000.555 8  -4306247.89945  24026193.380    24026194.1314   24026207.7894
      3906.786        3044.242
 -25507752.923 9 -19238958.58548  21753394.550    21753394.7384   21753403.7974
     -1846.534       -1438.861
 -36157774.649 9 -28156868.73848  19750831.484    19750831.6844   19750839.7804
       540.039         420.807
 -27922304.806 9 -21439587.99748  21948882.725    21948883.6124   21948892.6754
     -1908.904       -1487.461
 -31662130.414 9 -24415156.28048  20652222.188    20652222.5824   20652232.1874
      2504.595        1951.628
 -16253980.221 9 -12644077.85646  23533146.170    23533146.8884   23533160.7164
     -2854.759       -2224.490
 -12107386.201 9  -9415709.71247  22028427.098    22028427.2374   22028438.3574
      3766.382        2934.846
  -4826492.948 9  -3734951.00046  24436752.140    24436752.6134   24436766.4314
      3336.506        2599.870
 -24591616.219 9 -19136500.25847  23251708.543    23251708.6844   23251720.5334
     -1304.756       -1016.706
 02  9 15  0 20 49.9990000  0  9 11  3 31 13 27  1  8 28  2         -0.000531425
  -5931535.364 8  -4321469.79045  24022475.965    24022476.8034   24022490.4224
      3907.467        3044.778
 -25498516.520 9 -19231761.39048  21755152.153    21755152.3354   21755161.4424
     -1847.669       -1439.735
 -36160467.416 9 -28158966.99448  19750319.048    19750319.2724   19750327.3344
       537.423         418.779
 -27912756.005 9 -21432147.38248  21950699.880    21950700.7334   21950709.7794
     -1910.279       -1488.516
 -31674649.860 9 -24424911.68748  20649839.834    20649840.2224   20649849.7854
      2503.330        1950.654
 -16239706.299 9 -12632955.33746  23535862.377    23535863.1504   23535876.9414
     -2854.537       -2224.319
 -12126216.429 9  -9430382.59747  22024843.762    22024843.9084   22024855.0564
      3766.093        2934.621
  -4843175.606 9  -3747950.44246  24433577.514    24433577.9884   24433591.7744
      3336.895        2600.169
 -24585092.221 9 -19131416.62747  23252950.030    23252950.1794   23252961.9764
     -1304.479       -1016.474
 02  9 15  0 20 54.9990000  0  9 11  3 31 13 27  1  8 28  2         -0.000533759
  -5951071.201 8  -4336692.47745  24018758.385    24018759.2954   24018772.8514
      3907.004        3044.410
 -25489272.009 9 -19224557.88548  21756911.273    21756911.4744   21756920.6274
     -1850.048       -1441.607
 -36163144.830 9 -28161053.29048  19749809.539    19749809.7724   19749817.8014
       533.585         415.776
 -27903198.004 9 -21424699.59948  21952518.774    21952519.6264   21952528.6544
     -1912.856       -1490.541
 -31687160.838 9 -24434660.49648  20647459.101    20647459.4784   20647469.0054
      2500.886        1948.729
 -16225431.376 9 -12621832.03446  23538578.787    23538579.6174   23538593.3764
     -2855.442       -2225.019
 -12145042.788 9  -9445052.45347  22021261.147    22021261.3054   22021272.4864
      3764.570        2933.401
  -4859857.606 9  -3760949.36046  24430402.973    24430403.5194   24430417.2274
      3336.023        2599.495
 -24578567.200 9 -19126332.19947  23254191.734    23254191.8444   23254203.6404
     -1305.442       -1017.227
 02  9 15  0 20 59.9990000  0  9 11  3 31 13 27  1  8 28  2         -0.000536091
  -5970604.822 8  -4351913.43445  24015041.227    24015042.1974   24015055.6904
      3906.589        3044.082
 -25480016.219 9 -19217345.58448  21758672.528    21758672.7484   21758681.9554
     -1852.219       -1443.286
 -36165803.677 9 -28163125.11548  19749303.565    19749303.8134   19749311.8104
       529.972         412.965
 -27893627.611 9 -21417242.15248  21954340.034    21954340.8584   21954349.8854
     -1915.240       -1492.390
 -31699660.108 9 -24444400.17848  20645080.589    20645080.9554   20645090.4394
      2498.670        1947.017
 -16211152.201 9 -12610705.42646  23541296.030    23541296.9004   23541310.6024
     -2856.202       -2225.610
 -12163862.067 9  -9459716.81047  22017679.885    22017680.0694   22017691.2764
      3763.247        2932.396
  -4876535.812 9  -3773945.32146  24427229.138    24427229.7154   24427243.3984
      3335.357        2598.973
 -24572037.892 9 -19121244.42047  23255434.262    23255434.3574   23255446.0844
     -1306.200       -1017.817
 02  9 15  0 21  4.9990000  0  9 11  3 31 13 27  1  8 28  2         -0.000538425
  -5990140.413 8  -4367135.92645  24011323.673    24011324.6694   24011338.1214
      3907.685        3044.935
 -25470753.280 9 -19210127.71548  21760435.148    21760435.4064   21760444.6394
     -1852.968       -1443.874
 -36168448.117 9 -28165185.71548  19748800.358    19748800.6034   19748808.5504
       527.785         411.261
 -27884049.006 9 -21409778.31148  21956162.860    21956163.6354   21956172.7044
     -1916.199       -1493.143
 -31712151.846 9 -24454133.99248  20642703.525    20642703.8604   20642713.3214
      2497.829        1946.355
 -16196872.943 9 -12599578.74146  23544013.300    23544014.1484   23544027.8514
     -2855.557       -2225.110
 -12182678.425 9  -9474378.88247  22014099.178    22014099.3784   22014110.6134
      3763.359        2932.485
  -4893214.366 9  -3786941.55845  24424055.229    24424055.8564   24424069.5064
      3336.080        2599.533
 -24565508.469 9 -19116156.55947  23256676.821    23256676.8774   23256688.5694
     -1305.555       -1017.313
 02  9 15  0 21  9.9990000  0  9 11  3 31 13 27  1  8 28  2         -0.000540759
  -6009676.137 8  -4382358.52445  24007606.097    24007607.1004   24007620.4954
      3907.011        3044.417
 -25461481.427 9 -19202902.90148  21762199.480    21762199.7644   21762209.0174
     -1855.413       -1445.764
 -36171076.397 9 -28167233.71948  19748300.220    19748300.4414   19748308.3824
       523.884         408.227
 -27874460.373 9 -21402306.66748  21957987.566    21957988.2994   21957997.4144
     -1918.878       -1495.215
 -31724634.174 9 -24463860.47548  20640328.222    20640328.5444   20640337.9854
      2495.286        1944.378
 -16182591.843 9 -12588450.64746  23546730.921    23546731.7774   23546745.4474
     -2856.629       -2225.946
 -12201490.049 9  -9489037.27447  22010519.394    22010519.6094   22010530.8504
      3761.781        2931.254
  -4909891.458 8  -3799936.64945  24420881.583    24420882.2654   24420895.8754
      3335.106        2598.773
 -24558977.145 9 -19111067.21447  23257919.693    23257919.7574   23257931.4124
     -1306.620       -1018.141
 02  9 15  0 21 14.9990000  0  9 11  3 31 13 27  1  8 28  2         -0.000543091
  -6029209.016 8  -4397578.90545  24003889.102    24003890.0334   24003903.4144
      3907.084        3044.472
 -25452197.665 9 -19195668.80148  21763966.075    21763966.3804   21763975.6714
     -1857.115       -1447.102
 -36173685.488 9 -28169266.77648  19747803.735    19747803.9394   19747811.8674
       520.746         405.768
 -27864858.737 9 -21394824.88348  21959814.721    21959815.4184   21959824.6034
     -1920.779       -1496.716
 -31737104.204 9 -24473577.37348  20637955.245    20637955.5724   20637965.0004
      2493.489        1942.978
 -16168305.921 9 -12577318.77646  23549449.482    23549450.3404   23549463.9494
     -2856.869       -2226.126
 -12220293.937 9  -9503689.63647  22006941.084    22006941.3194   22006952.5444
      3760.876        2930.538
  -4926564.091 9  -3812928.25645  24417708.760    24417709.4974   24417723.0884
      3334.926        2598.632
 -24552440.922 9 -19105974.04447  23259163.483    23259163.5484   23259175.1944
     -1306.883       -1018.362
 02  9 15  0 21 19.9990000  0  9 11  3 31 13 27  1  8 28  2         -0.000545425
  -6048743.943 8  -4412800.88245  24000171.712    24000172.5784   24000185.9504
      3907.040        3044.433
 -25442906.952 9 -19188429.29248  21765734.004    21765734.3134   21765743.6504
     -1859.025       -1448.602
 -36176280.327 9 -28171288.72548  19747309.938    19747310.1424   19747318.0684
       517.381         403.158
 -27855249.059 9 -21387336.83948  21961643.380    21961644.0784   21961653.2884
     -1922.893       -1498.363
 -31749566.786 9 -24483288.46648  20635583.687    20635584.0154   20635593.4384
      2491.510        1941.432
 -16154020.103 9 -12566186.98846  23552168.042    23552168.8544   23552182.4714
     -2857.285       -2226.454
 -12239094.988 9  -9518339.78647  22003363.332    22003363.5754   22003374.7884
      3759.814        2929.720
  -4943237.204 9  -3825920.23745  24414535.869    24414536.6584   24414550.1804
      3334.543        2598.332
 -24545904.743 9 -19100880.92347  23260407.253    23260407.3374   23260418.9924
     -1307.353       -1018.715
 02  9 15  0 21 24.9990000  0  9 11  3 31 13 27  1  8 28  2         -0.000547760
  -6068279.960 8  -4428023.71445  23996454.086    23996454.9324   23996468.2834
      3907.022        3044.425
 -25433608.338 9 -19181183.61848  21767503.423    21767503.7464   21767513.1274
     -1860.801       -1449.977
 -36178859.948 9 -28173298.81848  19746819.046    19746819.2374   19746827.1654
       514.139         400.629
 -27845630.384 9 -21379841.78148  21963473.751    21963474.4244   21963483.6864
     -1924.879       -1499.896
 -31762020.922 9 -24492992.97848  20633213.728    20633214.0704   20633223.4774
      2489.620        1939.967
 -16139733.469 9 -12555054.57046  23554886.758    23554887.5284   23554901.1504
     -2857.679       -2226.770
 -12257892.258 9  -9532986.99547  21999786.301    21999786.5504   21999797.7534
      3758.834        2928.956
  -4959909.816 9  -3838911.84045  24411363.082    24411363.9044   24411377.3134
      3334.203        2598.074
 -24539367.623 9 -19095787.06147  23261651.175    23261651.2754   23261662.9504
     -1307.776       -1019.036
 02  9 15  0 21 29.9990000  0  9 11  3 31 13 27  1  8 28  2         -0.000550095
  -6087817.759 8  -4443247.93245  23992736.121    23992736.9614   23992750.2804
      3907.435        3044.750
 -25424302.545 9 -19173932.35748  21769274.201    21769274.5614   21769283.9584
     -1862.233       -1451.099
 -36181425.122 9 -28175297.65348  19746330.905    19746331.0804   19746339.0164
       511.214         398.340
 -27836003.440 9 -21372340.28248  21965305.676    21965306.3634   21965315.6424
     -1926.568       -1501.221
 -31774467.354 9 -24502691.48848  20630845.239    20630845.5894   20630854.9804
      2488.053        1938.738
 -16125446.737 9 -12543922.06946  23557605.495    23557606.1944   23557619.8304
     -2857.727       -2226.801
 -12276686.464 9  -9547631.81247  21996209.866    21996210.1054   21996221.3044
      3758.188        2928.451
  -4976582.662 9  -3851903.63145  24408190.280    24408191.0964   24408204.3874
      3334.201        2598.069
 -24532830.310 9 -19090693.06147  23262895.121    23262895.2564   23262906.9704
     -1307.827       -1019.082
 02  9 15  0 21 34.9990000  0  9 11  3 31 13 27  1  8 28  2         -0.000552429
  -6107352.271 8  -4458469.58645  23989018.804    23989019.6294   23989032.9144
      3906.441        3043.970
 -25414984.456 9 -19166671.50648  21771047.332    21771047.6994   21771057.1514
     -1864.993       -1453.251
 -36183970.675 9 -28177281.19248  19745846.470    19745846.6574   19745854.6324
       507.003         395.062
 -27826363.085 9 -21364828.32348  21967140.152    21967140.8484   21967150.1424
     -1929.559       -1503.548
 -31786900.962 9 -24512380.00748  20628479.187    20628479.5594   20628488.9234
      2485.171        1936.488
 -16111154.765 9 -12532785.50346  23560325.212    23560325.9054   23560339.5174
     -2859.093       -2227.858
 -12295472.446 9  -9562270.23247  21992635.002    21992635.2284   21992646.4164
      3756.256        2926.947
  -4993250.617 9  -3864891.61945  24405018.412    24405019.2404   24405032.4714
      3332.916        2597.066
 -24526287.647 9 -19085594.88547  23264140.077    23264140.2524   23264151.9984
     -1309.226       -1020.182
 02  9 15  0 21 39.9990000  0  9 11  3 31 13 27  1  8 28  2         -0.000554762
  -6126885.771 8  -4473690.45345  23985301.661    23985302.4744   23985315.7204
      3906.345        3043.895
 -25405656.490 9 -19159402.96748  21772822.323    21772822.7044   21772832.2164
     -1866.835       -1454.679
 -36186499.010 9 -28179251.32248  19745365.307    19745365.5254   19745373.5134
       503.693         392.489
 -27816711.743 9 -21357307.80948  21968976.723    21968977.4334   21968986.7184
     -1931.620       -1505.162
 -31799324.124 9 -24522060.38348  20626115.154    20626115.5044   20626124.8544
      2483.223        1934.983
 -16096859.998 9 -12521646.74046  23563045.453    23563046.1544   23563059.7054
     -2859.484       -2228.166
 -12314252.541 9  -9576904.05047  21989061.266    21989061.4684   21989072.6294
      3755.198        2926.125
  -5009916.039 9  -3877877.62745  24401847.033    24401847.8724   24401861.0694
      3332.553        2596.790
 -24519742.031 9 -19080494.41047  23265385.601    23265385.7874   23265397.5994
     -1309.630       -1020.481
 02  9 15  0 21 44.9990000  0  9 11  3 31 13 27  1  8 28  2         -0.000557096
  -6146418.942 8  -4488911.06645  23981584.583    23981585.3834   23981598.5914
      3906.981        3044.394
 -25396319.300 9 -19152127.24548  21774599.073    21774599.4614   21774609.0334
     -1868.005       -1455.585
 -36189010.771 9 -28181208.53848  19744887.298    19744887.5504   19744895.5514
       501.033         390.425
 -27807050.118 9 -21349779.28448  21970815.248    21970815.9794   21970825.2514
     -1932.995       -1506.224
 -31811737.474 9 -24531733.11548  20623752.995    20623753.3324   20623762.6614
      2481.963        1934.000
 -16082563.085 9 -12510506.30846  23565766.114    23565766.7724   23565780.3434
     -2859.262       -2227.994
 -12333027.405 9  -9591533.80247  21985488.508    21985488.7054   21985499.8614
      3754.846        2925.850
  -5026579.604 9  -3890862.19046  24398676.028    24398676.8774   24398690.0434
      3332.878        2597.038
 -24513194.126 9 -19075392.16747  23266631.576    23266631.8054   23266643.6644
     -1309.430       -1020.335
 02  9 15  0 21 49.9990000  0  9 11  3 31 13 27  1  8 28  2         -0.000559431
  -6165954.800 8  -4504133.77745  23977866.999    23977867.8104   23977880.9624
      3906.948        3044.366
 -25386975.941 9 -19144846.71348  21776376.998    21776377.3934   21776387.0334
     -1869.763       -1456.956
 -36191509.035 9 -28183155.23648  19744411.878    19744412.1644   19744420.1514
       497.852         387.933
 -27797381.241 9 -21342245.08848  21972655.180    21972655.9204   21972665.1534
     -1934.975       -1507.776
 -31824144.054 9 -24541400.57548  20621392.109    20621392.4384   20621401.7484
      2480.089        1932.535
 -16068267.077 9 -12499366.58946  23568486.613    23568487.2154   23568500.7834
     -2859.566       -2228.221
 -12351800.108 9  -9606161.86047  21981916.156    21981916.3474   21981927.5094
      3753.911        2925.121
  -5043244.365 9  -3903847.68946  24395504.842    24395505.6394   24395518.8844
      3332.637        2596.855
 -24506646.971 9 -19070290.49047  23267877.429    23267877.6704   23267889.5714
     -1309.801       -1020.623
 02  9 15  0 21 54.9990000  0  9 11  3 31 13 27  1  8 28  2         -0.000561765
  -6185489.044 8  -4519355.22345  23974149.684    23974150.5534   23974163.6564
      3907.515        3044.807
 -25377622.111 9 -19137558.02448  21778156.903    21778157.3324   21778167.0114
     -1871.026       -1457.942
 -36193989.467 9 -28185088.03448  19743939.865    19743940.1674   19743948.1624
       495.103         385.791
 -27787700.799 9 -21334701.90148  21974497.295    21974498.0294   21974507.2614
     -1936.431       -1508.899
 -31836539.490 9 -24551059.35048  20619033.323    20619033.6744   20619042.9524
      2478.673        1931.429
 -16053967.654 9 -12488224.20546  23571207.751    23571208.3204   23571221.9114
     -2859.460       -2228.137
 -12370566.330 9  -9620784.88047  21978345.046    21978345.2094   21978356.3694
      3753.437        2924.774
  -5059906.007 9  -3916830.75646  24392334.258    24392334.9984   24392348.3264
      3332.827        2597.002
 -24500096.250 9 -19065186.03747  23269123.978    23269124.2304   23269136.1494
     -1309.687       -1020.535
 02  9 15  0 21 59.9990000  0  9 11  3 31 13 27  1  8 28  2         -0.000564099
  -6205022.464 8  -4534576.01445  23970432.541    23970433.4154   23970446.4994
      3906.521        3044.028
 -25368258.669 9 -19130261.83748  21779938.631    21779939.0894   21779948.8254
     -1873.708       -1460.039
 -36196452.969 9 -28187007.64148  19743471.090    19743471.3964   19743479.3814
       490.938         382.541
 -27778009.613 9 -21327150.33448  21976341.463    21976342.1834   21976351.4004
     -1939.373       -1511.197
 -31848924.608 9 -24560710.07848  20616676.503    20616676.8694   20616686.1314
      2475.860        1929.236
 -16039665.718 9 -12477079.86446  23573929.364    23573929.8634   23573943.5494
     -2860.702       -2229.117
 -12389326.918 9  -9635403.49147  21974775.005    21974775.1504   21974786.3144
      3751.526        2923.268
  -5076565.360 9  -3929812.03846  24389164.126    24389164.8424   24389178.2034
      3331.581        2596.023
 -24493542.803 9 -19060079.46147  23270371.036    23270371.3054   23270383.2494
     -1310.986       -1021.545
 02  9 15  0 22  4.9990000  0  9 11  3 31 13 27  1  8 28  2         -0.000566433
  -6224556.354 8  -4549797.17645  23966715.367    23966716.1974   23966729.2344
      3906.679        3044.159
 -25358886.860 9 -19122959.13948  21781721.950    21781722.4384   21781732.2324
     -1875.351       -1461.310
 -36198900.753 9 -28188915.00248  19743005.309    19743005.6234   19743013.5924
       487.813         380.116
 -27768308.908 9 -21319591.34748  21978187.422    21978188.1704   21978197.3464
     -1941.221       -1512.640
 -31861300.746 9 -24570353.81448  20614321.392    20614321.7584   20614331.0244
      2474.059        1927.837
 -16025362.491 9 -12465934.52246  23576651.192    23576651.6844   23576665.4054
     -2860.908       -2229.276
 -12408083.081 9  -9650018.66147  21971205.789    21971205.9224   21971217.1104
      3750.682        2922.598
  -5093223.671 9  -3942792.50846  24385994.208    24385994.8694   24386008.2844
      3331.389        2595.883
 -24486987.888 9 -19054971.73847  23271618.387    23271618.6474   23271630.6354
     -1311.264       -1021.763
 02  9 15  0 22  9.9990000  0  9 11  3 31 13 27  1  8 28  2         -0.000568767
  -6244088.605 8  -4565017.06745  23962998.537    23962999.3194   23963012.3554
      3906.384        3043.927
 -25349504.668 9 -19115648.34748  21783507.265    21783507.7644   21783517.6124
     -1877.388       -1462.904
 -36201330.790 9 -28190808.52848  19742542.925    19742543.2204   19742551.1764
       484.360         377.419
 -27758596.788 9 -21312023.46048  21980035.566    21980036.3444   21980045.4664
     -1943.454       -1514.391
 -31873665.796 9 -24579988.90748  20611968.385    20611968.7554   20611978.0244
      2471.876        1926.126
 -16011055.977 9 -12454786.60746  23579373.651    23579374.1454   23579387.8404
     -2861.520       -2229.756
 -12426832.809 9  -9664628.82747  21967637.808    21967637.9224   21967649.1174
      3749.421        2921.618
  -5109878.920 9  -3955770.58646  24382824.864    24382825.4954   24382838.9494
      3330.818        2595.434
 -24480429.457 9 -19049861.28147  23272866.427    23272866.6844   23272878.6874
     -1311.909       -1022.263
 02  9 15  0 22 14.9990000  0  9 11  3 31 13 27  1  8 28  2         -0.000571101
  -6263621.736 8  -4580237.64845  23959281.546    23959282.2794   23959295.2754
      3906.399        3043.936
 -25340114.592 9 -19108331.40748  21785294.078    21785294.6014   21785304.4824
     -1879.142       -1464.274
 -36203745.545 9 -28192690.15248  19742083.460    19742083.7264   19742091.6814
       481.121         374.897
 -27748875.726 9 -21304448.60648  21981885.431    21981886.2004   21981895.2794
     -1945.431       -1515.922
 -31886022.198 9 -24589617.26648  20609617.001    20609617.4044   20609626.6824
      2469.980        1924.653
 -15996748.685 9 -12443638.08246  23582096.262    23582096.7254   23582110.4574
     -2861.848       -2230.011
 -12445578.545 9  -9679235.87547  21964070.597    21964070.7094   21964081.8894
      3748.467        2920.883
  -5126533.567 9  -3968748.19446  24379655.593    24379656.2194   24379669.6594
      3330.553        2595.225
 -24473870.018 9 -19044750.02747  23274114.635    23274114.9244   23274126.9484
     -1312.278       -1022.557
 02  9 15  0 22 19.9990000  0  9 11  3 31 13 27  1  8 28  2         -0.000573435
  -6283153.434 8  -4595457.11445  23955564.811    23955565.5114   23955578.4444
      3906.006        3043.639
 -25330714.353 9 -19101006.54848  21787082.840    21787083.3714   21787093.2924
     -1881.250       -1465.908
 -36206142.768 9 -28194558.11348  19741627.335    19741627.5754   19741635.5044
       477.495         372.067
 -27739143.405 9 -21296864.98248  21983737.437    21983738.2184   21983747.2604
     -1947.783       -1517.757
 -31898367.696 9 -24599237.12648  20607267.694    20607268.1214   20607277.3924
      2467.698        1922.880
 -15982438.300 9 -12432487.16146  23584819.449    23584819.9174   23584833.6594
     -2862.539       -2230.537
 -12464317.918 9  -9693837.96447  21960504.606    21960504.6964   21960515.8614
      3747.055        2919.780
  -5143185.328 9  -3981723.55746  24376486.841    24376487.4794   24376500.9004
      3329.891        2594.710
 -24467307.261 9 -19039636.19547  23275363.470    23275363.7704   23275375.8294
     -1313.064       -1023.160
 02  9 15  0 22 24.9990000  0  9 11  3 31 13 27  1  8 28  2         -0.000575769
  -6302685.467 8  -4610676.84445  23951847.973    23951848.6714   23951861.5444
      3906.573        3044.075
 -25321305.769 9 -19093675.18748  21788873.198    21788873.7244   21788883.6864
     -1882.388       -1466.783
 -36208524.253 9 -28196413.81448  19741174.205    19741174.4244   19741182.3304
       474.896         370.056
 -27729401.684 9 -21289274.03648  21985591.235    21985591.9984   21985601.0204
     -1949.094       -1518.760
 -31910704.087 9 -24608849.89448  20604920.116    20604920.5764   20604929.8554
      2466.447        1921.909
 -15968126.697 9 -12421335.28146  23587542.864    23587543.3544   23587557.1114
     -2862.292       -2230.358
 -12483052.770 9  -9708436.53547  21956939.471    21956939.5454   21956950.7034
      3746.755        2919.541
  -5159836.031 9  -3994698.09846  24373318.292    24373318.8994   24373332.3314
      3330.256        2594.992
 -24460742.987 9 -19034521.17847  23276612.564    23276612.8854   23276625.0054
     -1312.846       -1022.993
 02  9 15  0 22 29.9990000  0  9 11  3 31 13 27  1  8 28  2         -0.000578102
  -6322215.988 8  -4625895.39145  23948131.426    23948132.1504   23948144.9374
      3906.111        3043.716
 -25311887.005 9 -19086335.89548  21790665.503    21790666.0304   21790676.0044
     -1884.603       -1468.523
 -36210888.169 9 -28198255.82048  19740724.407    19740724.6144   19740732.5104
       471.202         367.166
 -27719648.724 9 -21281674.33448  21987447.150    21987447.9264   21987456.9284
     -1951.553       -1520.689
 -31923029.503 9 -24618454.10048  20602574.637    20602575.1214   20602584.3944
      2464.051        1920.030
 -15953811.968 9 -12410180.97346  23590266.881    23590267.3474   23590281.1194
     -2863.095       -2230.974
 -12501781.259 9  -9723030.14847  21953375.524    21953375.6074   21953386.7464
      3745.270        2918.397
  -5176483.763 9  -4007670.32646  24370150.322    24370150.9184   24370164.3284
      3329.437        2594.364
 -24454175.350 9 -19029403.54047  23277862.286    23277862.6344   23277874.8004
     -1313.718       -1023.671
 02  9 15  0 22 34.9990000  0  9 11  3 31 13 27  1  8 28  2         -0.000580435
  -6341744.171 9  -4641112.11745  23944415.351    23944416.0724   23944428.7914
      3905.529        3043.264
 -25302457.233 9 -19078988.02048  21792459.909    21792460.4414   21792470.4424
     -1886.870       -1470.285
 -36213233.672 9 -28200083.48348  19740278.122    19740278.3154   19740286.1944
       467.445         364.246
 -27709883.692 9 -21274065.22948  21989305.348    21989306.1254   21989315.1534
     -1954.017       -1522.600
 -31935343.100 9 -24628049.10248  20600231.420    20600231.9044   20600241.1864
      2461.598        1918.132
 -15939493.342 9 -12399023.62046  23592991.631    23592992.0954   23593005.8744
     -2863.943       -2231.635
 -12520502.536 9  -9737618.13047  21949812.955    21949813.0514   21949824.1924
      3743.773        2917.226
  -5193127.742 9  -4020639.63046  24366983.067    24366983.6324   24366997.0624
      3328.596        2593.708
 -24447603.528 9 -19024282.63947  23279112.805    23279113.1824   23279125.4054
     -1314.605       -1024.368
 02  9 15  0 22 39.9990000  0  9 11  3 31 13 27  1  8 28  2         -0.000582767
  -6361272.728 9  -4656329.14145  23940699.231    23940699.9344   23940712.5594
      3905.513        3043.252
 -25293019.186 9 -19071633.69848  21794255.878    21794256.4174   21794266.4464
     -1888.637       -1471.668
 -36215563.500 9 -28201898.92648  19739834.816    19739835.0034   19739842.8644
       464.204         361.717
 -27700109.357 9 -21266448.86748  21991165.305    21991166.1114   21991175.1584
     -1955.989       -1524.150
 -31947647.642 9 -24637637.04848  20597889.939    20597890.4284   20597899.7124
      2459.706        1916.655
 -15925173.541 9 -12387865.35446  23595716.593    23595717.0794   23595730.8644
     -2864.322       -2231.934
 -12539219.365 9  -9752202.65747  21946251.225    21946251.3294   21946262.4624
      3742.761        2916.427
  -5209770.717 9  -4033608.14446  24363815.991    24363816.5534   24363829.9564
      3328.290        2593.464
 -24441030.254 9 -19019160.60347  23280363.605    23280363.9704   23280376.2604
     -1314.980       -1024.656
 02  9 15  0 22 44.9990000  0  9 11  3 31 13 27  1  8 28  2         -0.000585101
  -6380802.350 9  -4671546.99345  23936982.912    23936983.6104   23936996.1314
      3905.517        3043.256
 -25283573.617 9 -19064273.51648  21796053.277    21796053.8224   21796063.8974
     -1890.402       -1473.049
 -36217878.399 9 -28203702.73748  19739394.341    19739394.5154   19739402.3834
       460.974         359.196
 -27690326.424 9 -21258825.82048  21993026.904    21993027.7214   21993036.8064
     -1957.974       -1525.691
 -31959943.791 9 -24647218.45648  20595550.081    20595550.5574   20595559.8224
      2457.764        1915.137
 -15910853.333 9 -12376706.77446  23598441.616    23598442.1514   23598455.8874
     -2864.608       -2232.163
 -12557932.450 9  -9766784.26347  21942690.235    21942690.3374   21942701.4414
      3741.749        2915.634
  -5226413.399 9  -4046576.42946  24360648.960    24360649.5274   24360662.8924
      3327.993        2593.237
 -24434456.232 9 -19014038.00647  23281614.560    23281614.9174   23281627.2824
     -1315.408       -1024.991
 02  9 15  0 22 49.9990000  0  9 11  3 31 13 27  1  8 28  2         -0.000587434
  -6400329.807 8  -4686763.16245  23933267.015    23933267.6534   23933280.0954
      3906.019        3043.642
 -25274117.265 9 -19056904.93948  21797852.720    21797853.2804   21797863.4054
     -1891.659       -1474.023
 -36220175.083 9 -28205492.35748  19738957.336    19738957.4874   19738965.3624
       458.206         357.047
 -27680531.612 9 -21251193.51448  21994890.745    21994891.5744   21994900.7364
     -1959.468       -1526.859
 -31972228.254 9 -24656790.75948  20593212.448    20593212.9024   20593222.1574
      2456.285        1913.984
 -15896529.423 9 -12365545.30646  23601167.342    23601167.9414   23601181.6204
     -2864.452       -2232.035
 -12576638.536 9  -9781360.42447  21939130.575    21939130.6584   21939141.7414
      3741.247        2915.251
  -5243052.534 9  -4059541.95046  24357482.591    24357483.1544   24357496.4884
      3328.215        2593.400
 -24427878.233 9 -19008912.30347  23282866.279    23282866.6014   23282879.0314
     -1315.289       -1024.899
 02  9 15  0 22 54.9990000  0  9 11  3 31 13 27  1  8 28  2         -0.000589767
  -6419858.688 8  -4701980.43545  23929550.846    23929551.4364   23929563.7884
      3905.604        3043.322
 -25264653.796 9 -19049530.81748  21799653.516    21799654.0944   21799664.2604
     -1893.713       -1475.620
 -36222457.255 9 -28207270.67048  19738523.065    19738523.2004   19738531.0964
       454.688         354.310
 -27670728.630 9 -21243554.85048  21996756.151    21996757.0194   21996766.2284
     -1961.693       -1528.587
 -31984504.731 9 -24666356.83348  20590876.348    20590876.7714   20590886.0134
      2454.084        1912.277
 -15882205.507 9 -12354383.82446  23603893.060    23603893.7234   23603907.3844
     -2865.111       -2232.548
 -12595341.269 9  -9795933.95747  21935571.552    21935571.6274   21935582.7014
      3739.950        2914.236
  -5259691.756 9  -4072507.54246  24354316.161    24354316.7804   24354330.0324
      3327.594        2592.928
 -24421299.887 9 -19003786.32247  23284118.064    23284118.3664   23284130.8414
     -1315.991       -1025.439
 02  9 15  0 22 59.9990000  0  9 11  3 31 13 27  1  8 28  2         -0.000592101
  -6439386.734 9  -4717197.05246  23925834.805    23925835.3794   23925847.6354
      3905.774        3043.450
 -25255180.970 9 -19042149.39748  21801456.092    21801456.6914   21801466.8864
     -1895.207       -1476.791
 -36224722.596 9 -28209035.86348  19738092.002    19738092.1164   19738100.0374
       451.713         351.980
 -27660915.192 9 -21235908.02748  21998623.587    21998624.4664   21998633.7114
     -1963.438       -1529.943
 -31996770.913 9 -24675914.88648  20588542.206    20588542.5944   20588551.8304
      2452.405        1910.964
 -15867879.291 9 -12343220.56246  23606619.231    23606619.8994   23606633.6044
     -2865.187       -2232.614
 -12614038.272 9  -9810503.02947  21932013.620    21932013.6784   21932024.7534
      3739.150        2913.616
  -5276328.778 9  -4085471.42046  24351150.135    24351150.8214   24351164.0014
      3327.463        2592.823
 -24414718.922 9 -18998658.30947  23285370.340    23285370.6614   23285383.1294
     -1316.160       -1025.569
 02  9 15  0 23  4.9990000  0  9 11  3 31 13 27  1  8 28  2         -0.000594434
  -6458914.201 9  -4732413.21646  23922118.872    23922119.4464   23922131.6084
      3905.358        3043.127
 -25245699.023 9 -19034760.87148  21803260.396    21803261.0424   21803271.2274
     -1897.375       -1478.479
 -36226971.384 9 -28210788.15748  19737664.058    19737664.1534   19737672.1194
       448.011         349.094
 -27651091.596 9 -21228253.28948  22000492.966    22000493.8514   22000503.1084
     -1965.811       -1531.802
 -32009027.052 9 -24685465.11648  20586209.983    20586210.3224   20586219.5504
      2450.062        1909.134
 -15853551.087 9 -12332055.75546  23609345.809    23609346.4444   23609360.2204
     -2865.918       -2233.189
 -12632729.718 9  -9825067.77547  21928456.728    21928456.7814   21928467.8694
      3737.717        2912.500
  -5292963.894 9  -4098433.80546  24347984.471    24347985.2284   24347998.3534
      3326.773        2592.282
 -24408135.615 9 -18993528.46647  23286623.057    23286623.3924   23286635.8614
     -1316.906       -1026.157
 02  9 15  0 23  9.9990000  0  9 11  3 31 13 27  1  8 28  2         -0.000596766
  -6478438.755 9  -4747627.10646  23918403.510    23918404.0534   23918416.1594
      3905.299        3043.083
 -25236205.718 9 -19027363.49148  21805066.867    21805067.5594   21805077.7294
     -1899.111       -1479.825
 -36229201.382 9 -28212525.80948  19737239.679    19737239.7674   19737247.7794
       444.811         346.608
 -27641255.576 9 -21220588.86948  22002364.730    22002365.6084   22002374.8584
     -1967.745       -1533.307
 -32021270.871 9 -24695005.74348  20583880.100    20583880.3874   20583889.6134
      2448.100        1907.614
 -15839218.600 9 -12320887.61446  23612073.202    23612073.8514   23612087.6184
     -2866.263       -2233.457
 -12651413.460 9  -9839626.52247  21924901.280    21924901.3714   21924912.4504
      3736.711        2911.720
  -5309594.784 9  -4111392.89646  24344819.653    24344820.4744   24344833.4964
      3326.451        2592.032
 -24401547.656 9 -18988394.99547  23287876.667    23287877.0264   23287889.4584
     -1317.339       -1026.500
 02  9 15  0 23 14.9990000  0  9 11  3 31 13 27  1  8 28  2         -0.000599098
  -6497962.964 9  -4762840.73046  23914688.230    23914688.7454   23914700.8244
      3905.138        3042.956
 -25226703.636 9 -19019959.27448  21806875.018    21806875.7414   21806885.8954
     -1900.938       -1481.248
 -36231415.132 9 -28214250.80548  19736818.375    19736818.4694   19736826.5304
       441.475         343.998
 -27631409.721 9 -21212916.77748  22004238.369    22004239.2304   22004248.4784
     -1969.815       -1534.925
 -32033504.899 9 -24704538.74448  20581552.062    20581552.3344   20581561.5434
      2446.079        1906.026
 -15824884.451 9 -12309718.15646  23614800.946    23614801.5794   23614815.3144
     -2866.684       -2233.778
 -12670092.097 9  -9854181.28747  21921346.797    21921346.9494   21921357.9884
      3735.605        2910.851
  -5326224.056 9  -4124350.73546  24341655.205    24341656.0164   24341668.9714
      3326.047        2591.721
 -24394957.650 9 -18983259.92547  23289130.669    23289131.0634   23289143.4664
     -1317.857       -1026.902
 02  9 15  0 23 19.9990000  0  9 11  3 31 13 27  1  8 28  2         -0.000601430
  -6517487.770 9  -4778054.82446  23910972.857    23910973.3314   23910985.3614
      3904.779        3042.677
 -25217193.661 9 -19012548.90348  21808684.698    21808685.4444   21808695.5634
     -1903.012       -1482.859
 -36233613.570 9 -28215963.86648  19736399.978    19736400.0734   19736408.1824
       437.960         341.262
 -27621554.956 9 -21205237.75348  22006113.695    22006114.5484   22006123.7784
     -1972.036       -1536.647
 -32045730.053 9 -24714064.82848  20579225.708    20579225.9454   20579235.1594
      2443.808        1904.260
 -15810549.546 9 -12298548.12346  23617528.842    23617529.4024   23617543.1744
     -2867.273       -2234.219
 -12688766.480 9  -9868732.73847  21917793.143    21917793.3224   21917804.3494
      3734.245        2909.806
  -5342852.600 9  -4137308.00446  24338490.904    24338491.6704   24338504.5634
      3325.418        2591.224
 -24388366.478 9 -18978123.93447  23290384.928    23290385.3084   23290397.6924
     -1318.531       -1027.426
 02  9 15  0 23 24.9990000  0  9 11  3 31 13 27  1  8 28  2         -0.000603763
  -6537012.247 9  -4793268.66646  23907257.564    23907257.9974   23907269.9774
      3905.301        3043.086
 -25207674.983 9 -19005131.75548  21810496.055    21810496.7924   21810506.8734
     -1904.179       -1483.778
 -36235795.807 9 -28217664.30848  19735984.642    19735984.7564   19735992.9254
       435.258         339.154
 -27611690.464 9 -21197551.13848  22007990.869    22007991.7024   22008000.9374
     -1973.428       -1537.731
 -32057945.496 9 -24723583.34548  20576901.176    20576901.4134   20576910.6274
      2442.426        1903.179
 -15796213.039 9 -12287376.84846  23620257.036    23620257.5224   23620271.3894
     -2867.041       -2234.051
 -12707435.768 9  -9883280.21547  21914240.461    21914240.6964   21914251.6904
      3733.807        2909.445
  -5359479.612 9  -4150264.07546  24335326.896    24335327.6044   24335340.4734
      3325.661        2591.417
 -24381773.303 9 -18972986.40547  23291639.584    23291639.9604   23291652.2954
     -1318.378       -1027.319
 02  9 15  0 23 29.9990000  0  9 11  3 31 13 27  1  8 28  2         -0.000606094
  -6556535.213 9  -4808481.33846  23903542.577    23903542.9404   23903554.9104
      3903.973        3042.054
 -25198146.413 9 -18997706.89848  21812309.285    21812310.0444   21812320.0704
     -1907.139       -1486.082
 -36237960.679 9 -28219351.21348  19735572.603    19735572.7484   19735580.9744
       430.793         335.682
 -27601815.012 9 -21189855.98148  22009870.088    22009870.9464   22009880.1374
     -1976.610       -1540.206
 -32070149.934 9 -24733093.28548  20574578.737    20574578.9704   20574588.1864
      2439.247        1900.713
 -15781873.759 9 -12276203.41446  23622985.733    23622986.1974   23623000.1024
     -2868.579       -2235.254
 -12726098.722 9  -9897822.75947  21910689.027    21910689.2554   21910700.2454
      3731.557        2907.716
  -5376103.829 9  -4163217.97146  24332163.437    24332164.1084   24332176.9594
      3324.108        2590.210
 -24375176.930 9 -18967846.38047  23292894.854    23292895.2524   23292907.5354
     -1320.015       -1028.579
 02  9 15  0 23 34.9990000  0  9 11  3 31 13 27  1  8 28  2         -0.000608425
  -6576055.830 9  -4823692.17746  23899828.015    23899828.3084   23899840.2684
      3904.170        3042.199
 -25188607.114 9 -18990273.67548  21814124.580    21814125.3344   21814135.3074
     -1908.672       -1487.272
 -36240107.349 9 -28221023.93548  19735164.027    19735164.1874   19735172.4874
       427.794         333.345
 -27591927.789 9 -21182151.65148  22011751.565    22011752.4134   22011761.5864
     -1978.341       -1541.562
 -32082342.585 9 -24742594.04448  20572258.538    20572258.7754   20572267.9904
      2437.531        1899.375
 -15767530.903 9 -12265027.19446  23625715.080    23625715.5774   23625729.4714
     -2868.658       -2235.312
 -12744754.509 9  -9912359.72047  21907138.964    21907139.1754   21907150.1544
      3730.748        2907.080
  -5392724.437 9  -4176169.06446  24329000.689    24329001.3304   24329014.1454
      3324.078        2590.181
 -24368576.496 9 -18962703.18447  23294150.931    23294151.3014   23294163.5484
     -1320.223       -1028.745
 02  9 15  0 23 39.9990000  0  9 11  3 31 13 27  1  8 28  2         -0.000610755
  -6595576.259 9  -4838902.86446  23896113.445    23896113.6774   23896125.6554
      3904.427        3042.400
 -25179059.346 9 -18982833.85348  21815941.484    21815942.2274   21815952.1344
     -1909.989       -1488.300
 -36242238.078 9 -28222684.23948  19734758.478    19734758.6824   19734767.0394
       424.973         331.153
 -27582031.046 9 -21174439.91448  22013634.829    22013635.6804   22013644.8294
     -1979.885       -1542.770
 -32094525.686 9 -24752087.36148  20569940.159    20569940.3984   20569949.6094
      2435.976        1898.160
 -15753186.666 9 -12253849.87346  23628444.670    23628445.2054   23628459.1264
     -2868.575       -2235.245
 -12763405.366 9  -9926892.83547  21903589.836    21903590.0424   21903601.0064
      3730.136        2906.608
  -5409343.675 9  -4189119.09846  24325838.206    24325838.8114   24325851.6064
      3324.116        2590.219
 -24361974.282 9 -18957558.60347  23295407.354    23295407.6834   23295419.8944
     -1320.224       -1028.746
 02  9 15  0 23 44.9990000  0  9 11  3 31 13 27  1  8 28  2         -0.000613087
  -6615097.103 9  -4854113.86846  23892398.758    23892398.9574   23892410.9714
      3904.064        3042.118
 -25169503.644 9 -18975387.85648  21817759.891    21817760.6284   21817770.4884
     -1912.060       -1489.923
 -36244353.339 9 -28224332.49048  19734355.871    19734356.1134   19734364.5294
       421.384         328.355
 -27572125.338 9 -21166721.18248  22015519.791    22015520.6744   22015529.8084
     -1982.157       -1544.545
 -32106699.762 9 -24761573.64848  20567623.491    20567623.7514   20567632.9504
      2433.701        1896.392
 -15738841.630 9 -12242671.94446  23631174.395    23631174.9404   23631188.9254
     -2869.225       -2235.755
 -12782051.801 9  -9941422.50747  21900041.559    21900041.7424   21900052.7014
      3728.775        2905.544
  -5425962.100 9  -4202068.49146  24322675.864    24322676.4204   24322689.2604
      3323.508        2589.735
 -24355370.791 9 -18952413.02147  23296664.015    23296664.3024   23296676.4784
     -1320.932       -1029.303
 02  9 15  0 23 49.9990000  0  9 11  3 31 13 27  1  8 28  2         -0.000615419
  -6634618.093 9  -4869324.98646  23888684.000    23888684.1894   23888696.2644
      3904.932        3042.797
 -25159939.797 9 -18967935.50848  21819579.844    21819580.5704   21819590.3784
     -1912.903       -1490.570
 -36246452.970 9 -28225968.56548  19733956.246    19733956.5204   19733964.9884
       419.059         326.539
 -27562210.428 9 -21158995.28448  22017406.511    22017407.4244   22017416.5584
     -1983.189       -1545.345
 -32118864.589 9 -24771052.72848  20565308.593    20565308.8734   20565318.0634
      2432.638        1895.561
 -15724495.546 9 -12231493.20446  23633904.309    23633904.8874   23633918.9254
     -2868.622       -2235.283
 -12800693.556 9  -9955948.53647  21896494.172    21896494.3334   21896505.2754
      3728.605        2905.401
  -5442579.417 9  -4215017.02446  24319513.683    24319514.2384   24319527.0854
      3324.050        2590.164
 -24348765.782 9 -18947266.27647  23297920.973    23297921.2134   23297933.3444
     -1320.424       -1028.899
 02  9 15  0 23 54.9990000  0  9 11  3 31 13 27  1  8 28  2         -0.000617751
  -6654138.627 9  -4884535.74646  23884969.313    23884969.5024   23884981.6464
      3904.090        3042.139
 -25150367.247 9 -18960476.38148  21821401.466    21821402.1794   21821411.9314
     -1915.425       -1492.535
 -36248536.368 9 -28227591.98648  19733559.742    19733560.0314   19733568.5334
       415.015         323.390
 -27552285.733 9 -21151261.76048  22019295.091    22019296.0154   22019305.1944
     -1985.939       -1547.483
 -32131019.516 9 -24780524.08948  20562995.597    20562995.8784   20563005.0484
      2429.832        1893.379
 -15710147.876 9 -12220313.24046  23636634.534    23636635.1434   23636649.2374
     -2869.703       -2236.122
 -12819330.032 9  -9970470.45047  21892947.795    21892947.9284   21892958.8584
      3726.762        2903.969
  -5459195.091 9  -4227964.26246  24316351.819    24316352.3724   24316365.2284
      3322.928        2589.288
 -24342158.674 9 -18942117.87647  23299178.299    23299178.5164   23299190.6144
     -1321.677       -1029.874
 02  9 15  0 23 59.9990000  0  9 11  3 31 13 27  1  8 28  2         -0.000620082
  -6673658.018 9  -4899745.61846  23881254.838    23881255.0544   23881267.2444
      3903.954        3042.029
 -25140785.335 9 -18953009.95848  21823224.870    21823225.5664   21823235.2654
     -1917.142       -1493.879
 -36250602.905 9 -28229202.27448  19733166.453    19733166.7624   19733175.3054
       411.789         320.881
 -27542350.674 9 -21143520.16648  22021185.642    22021186.5884   22021195.7894
     -1987.870       -1548.985
 -32143163.930 9 -24789987.26348  20560684.600    20560684.8704   20560694.0294
      2427.903        1891.882
 -15695798.017 9 -12209131.53846  23639365.232    23639365.8664   23639380.0094
     -2869.984       -2236.348
 -12837960.612 9  -9984987.76047  21889402.523    21889402.6104   21889413.5454
      3725.725        2903.164
  -5475808.460 9  -4240909.71846  24313190.418    24313190.9184   24313203.8184
      3322.617        2589.046
 -24335548.855 9 -18936967.37347  23300436.099    23300436.3334   23300448.4164
     -1322.010       -1030.125
 02  9 15  0 24  4.9990000  0  9 11  3 31 13 27  1  8 28  2         -0.000622414
  -6693177.013 9  -4914955.18346  23877540.454    23877540.7144   23877552.9174
      3903.771        3041.889
 -25131194.856 9 -18945536.86348  21825049.914    21825050.5954   21825060.2264
     -1918.910       -1495.236
 -36252653.337 9 -28230800.01148  19732776.248    19732776.5514   19732785.1244
       408.494         318.316
 -27532405.995 9 -21135771.07548  22023078.016    22023078.9894   22023088.2414
     -1989.862       -1550.536
 -32155298.562 9 -24799442.81548  20558375.458    20558375.7364   20558384.8724
      2425.857        1890.283
 -15681446.680 9 -12197948.69246  23642096.251    23642096.8524   23642111.0134
     -2870.375       -2236.649
 -12856586.046 9  -9999501.06447  21885858.207    21885858.2844   21885869.2294
      3724.634        2902.316
  -5492420.266 9  -4253853.95146  24310029.288    24310029.7534   24310042.7224
      3322.212        2588.733
 -24328937.056 9 -18931815.31847  23301694.297    23301694.5194   23301706.5954
     -1322.518       -1030.531
 02  9 15  0 24  9.9990000  0  9 11  3 31 13 27  1  8 28  2         -0.000624747
  -6712696.944 9  -4930165.48546  23873825.936    23873826.1934   23873838.4044
      3904.911        3042.781
 -25121597.126 9 -18938058.11348  21826876.336    21826877.0054   21826886.5814
     -1919.401       -1495.632
 -36254688.970 9 -28232386.21848  19732388.874    19732389.1754   19732397.7404
       406.528         316.783
 -27522453.045 9 -21128015.53648  22024971.970    22024972.9524   22024982.2674
     -1990.543       -1551.063
 -32167424.767 9 -24808891.79548  20556067.927    20556068.1954   20556077.3194
      2425.141        1889.718
 -15667095.231 9 -12186765.76046  23644827.305    23644827.8724   23644842.0734
     -2869.438       -2235.920
 -12875207.577 9 -10014011.32947  21882314.617    21882314.7044   21882325.6614
      3724.859        2902.490
  -5509031.851 9  -4266798.00646  24306868.185    24306868.6314   24306881.6694
      3323.127        2589.445
 -24322324.595 9 -18926662.75847  23302952.602    23302952.8264   23302964.9004
     -1321.697       -1029.891
 02  9 15  0 24 14.9990000  0  9 11  3 31 13 27  1  8 28  2         -0.000627081
  -6732217.881 9  -4945376.57146  23870111.251    23870111.5064   23870123.6954
      3903.778        3041.899
 -25111992.233 9 -18930573.78148  21828704.121    21828704.7854   21828714.3064
     -1922.200       -1497.817
 -36256709.923 9 -28233960.97648  19732004.301    19732004.5864   19732013.1524
       402.222         313.413
 -27512491.938 9 -21120253.64448  22026867.484    22026868.4724   22026877.8534
     -1993.525       -1553.401
 -32179542.577 9 -24818334.23148  20553761.990    20553762.2404   20553771.3734
      2422.110        1887.354
 -15652743.748 9 -12175582.82546  23647558.344    23647558.8774   23647573.1544
     -2870.751       -2236.924
 -12893825.273 9 -10028518.60747  21878771.772    21878771.8604   21878782.8444
      3722.697        2900.805
  -5525643.288 9  -4279741.96146  24303707.089    24303707.5744   24303720.6444
      3321.765        2588.387
 -24315711.578 9 -18921509.75647  23304211.003    23304211.2394   23304223.3284
     -1323.137       -1031.017
 02  9 15  0 24 19.9990000  0  9 11  3 31 13 27  1  8 28  2         -0.000629415
  -6751737.579 9  -4960586.69346  23866396.824    23866397.0794   23866409.2234
      3903.284        3041.516
 -25102377.939 9 -18923082.12348  21830533.707    21830534.3544   21830543.8254
     -1924.335       -1499.486
 -36258713.923 9 -28235522.53348  19731622.959    19731623.2294   19731631.7904
       398.577         310.581
 -27502520.366 9 -21112483.59748  22028764.985    22028765.9854   22028775.4414
     -1995.911       -1555.260
 -32191649.678 9 -24827768.32948  20551458.070    20551458.3454   20551467.4534
      2419.726        1885.498
 -15638389.995 9 -12164398.10046  23650289.835    23650290.3154   23650304.6664
     -2871.533       -2237.552
 -12912436.901 9 -10043021.16047  21875230.072    21875230.1774   21875241.1454
      3721.241        2899.661
  -5542252.305 9  -4292684.02846  24300546.452    24300546.9474   24300560.0564
      3321.018        2587.804
 -24309095.713 9 -18916354.54247  23305469.970    23305470.1684   23305482.2794
     -1323.996       -1031.680
 02  9 15  0 24 24.9990000  0  9 11  3 31 13 27  1  8 28  2         -0.000631749
  -6771257.063 9  -4975796.64446  23862682.450    23862682.6854   23862694.7924
      3904.074        3042.129
 -25092755.292 9 -18915583.96348  21832364.889    21832365.5234   21832374.9234
     -1925.181       -1500.132
 -36260702.047 9 -28237071.71648  19731244.642    19731244.9034   19731253.4334
       396.243         308.762
 -27492539.385 9 -21104706.22048  22030664.302    22030665.2844   22030674.8084
     -1996.950       -1556.065
 -32203747.135 9 -24837194.91048  20549155.994    20549156.2714   20549165.3744
      2418.624        1884.641
 -15624035.005 9 -12153212.41846  23653021.580    23653022.0104   23653036.4244
     -2870.923       -2237.088
 -12931043.527 9 -10057519.81647  21871689.337    21871689.4614   21871700.4024
      3721.038        2899.505
  -5558859.986 9  -4305625.05146  24297386.077    24297386.5974   24297399.7224
      3321.605        2588.257
 -24302478.061 9 -18911197.94147  23306729.286    23306729.4364   23306741.5824
     -1323.515       -1031.307
 02  9 15  0 24 29.9990000  0  9 11  3 31 13 27  1  8 28  2         -0.000634082
  -6790774.988 9  -4991005.37846  23858968.358    23858968.5624   23858980.6414
      3903.421        3041.620
 -25083122.997 9 -18908078.27448  21834197.895    21834198.5234   21834207.8674
     -1927.461       -1501.923
 -36262672.934 9 -28238607.47548  19730869.595    19730869.8634   19730878.3664
       392.452         305.811
 -27482547.731 9 -21096920.53548  22032565.635    22032566.5984   22032576.1964
     -1999.413       -1557.992
 -32215833.654 9 -24846612.97448  20546856.012    20546856.3024   20546865.3694
      2416.088        1882.664
 -15609677.517 9 -12142024.79246  23655753.835    23655754.2074   23655768.6214
     -2871.782       -2237.745
 -12949643.805 9 -10072013.52947  21868149.831    21868149.9494   21868160.8744
      3719.419        2898.244
  -5575465.000 9  -4318563.99246  24294226.203    24294226.7494   24294239.9274
      3320.699        2587.556
 -24295857.314 9 -18906038.92647  23307989.168    23307989.3184   23308001.4834
     -1324.498       -1032.080
 02  9 15  0 24 34.9990000  0  9 11  3 31 13 27  1  8 28  2         -0.000636416
  -6810292.603 9  -5006213.87346  23855254.308    23855254.4694   23855266.5714
      3903.322        3041.541
 -25073482.288 9 -18900566.03448  21836032.505    21836033.1074   21836042.4164
     -1929.132       -1503.219
 -36264627.874 9 -28240130.79848  19730497.585    19730497.8614   19730506.3204
       389.263         303.329
 -27472546.676 9 -21089127.51648  22034468.769    22034469.7344   22034479.3694
     -2001.304       -1559.446
 -32227910.454 9 -24856023.45848  20544557.880    20544558.1864   20544567.2174
      2414.146        1881.155
 -15595318.764 9 -12130836.16546  23658486.357    23658486.6364   23658501.0644
     -2872.036       -2237.951
 -12968238.984 9 -10086503.26147  21864611.280    21864611.4144   21864622.3064
      3718.431        2897.488
  -5592068.591 9  -4331501.82146  24291066.604    24291067.1544   24291080.3694
      3320.419        2587.338
 -24289234.703 9 -18900878.44947  23309249.406    23309249.5534   23309261.7354
     -1324.861       -1032.357
 02  9 15  0 24 39.9990000  0  9 11  3 31 13 27  1  8 28  2         -0.000638750
  -6829810.042 9  -5021422.22646  23851540.278    23851540.4174   23851552.5584
      3903.464        3041.650
 -25063833.366 9 -18893047.39548  21837868.679    21837869.2594   21837878.5214
     -1930.584       -1504.357
 -36266566.987 9 -28241641.79248  19730128.590    19730128.8564   19730137.2874
       386.243         300.966
 -27462536.377 9 -21081327.29248  22036373.676    22036374.6354   22036384.2874
     -2002.951       -1560.748
 -32239977.631 9 -24865426.44648  20542261.586    20542261.9064   20542270.8914
      2412.384        1879.779
 -15580958.916 9 -12119646.70146  23661219.072    23661219.2764   23661233.6764
     -2872.024       -2237.933
 -12986829.180 9 -10100989.10347  21861073.681    21861073.8104   21861084.6974
      3717.588        2896.813
  -5608670.892 9  -4344438.65946  24287907.260    24287907.7654   24287921.0404
      3320.324        2587.263
 -24282610.377 9 -18895716.64947  23310509.960    23310510.1104   23310522.2794
     -1325.027       -1032.488
