     2.11           OBSERVATION DATA    M (MIXED)           RINEX VERSION / TYPE
teqc  2013Mar15                         20141116 18:05:20UTCPGM / RUN BY / DATE
OSX ker:10.8.0|Core 2 Duo|gcc 4.2 -m64|OSX ker:10.8.0+|=+   COMMENT
teqc  2013Mar15                         20141116 17:57:41UTCCOMMENT
teqc  2013Mar15                         20141116 17:56:02UTCCOMMENT
teqc  2014Jan16     NOAA/NOS/NGS/CORS   20141115 01:57:31UTCCOMMENT
Solaris x86 5.10|AMD64|cc SC5.8 -xarch=amd64|=+|=+          COMMENT
0000.000      (antenna height)                              COMMENT
BIT 2 OF LLI FLAGS DATA COLLECTED UNDER A/S CONDITION       COMMENT
PAGW                                                        MARKER NAME
122                                                         MARKER NUMBER
Charles Harpster    PADT                                    OBSERVER / AGENCY
5018K67268          TRIMBLE NETR5       NP 4.47 / SP 4.17   REC # / TYPE / VERS
1441015118          TRM57971.00     NONE                    ANT # / TYPE
   837408.3550 -4828031.6770  4069551.1940                  APPROX POSITION XYZ
        0.0000        0.0000        0.0000                  ANTENNA: DELTA H/E/N
     1     1                                                WAVELENGTH FACT L1/2
     4    C1    L1    P2    L2                              # / TYPES OF OBSERV
 SNR is mapped to RINEX snr flag value [0-9]                COMMENT
  L1 & L2: min(max(int(snr_dBHz/6), 0), 9)                  COMMENT
teqc windowed: start @ 2014 Nov 14 00:00:00.000             COMMENT
teqc windowed: delta = 86400.000 sec                        COMMENT
teqc edited: all SBAS satellites excluded                   COMMENT
teqc edited: all Galileo satellites excluded                COMMENT
teqc edited: all Compass satellites excluded                COMMENT
teqc edited: all QZSS satellites excluded                   COMMENT
    16                                                      LEAP SECONDS
teqc edited: all GLONASS satellites excluded                COMMENT
Forced Modulo Decimation to 300 seconds                     COMMENT
  2014    11    14     0     0    0.0000000     GPS         TIME OF FIRST OBS
                                                            END OF HEADER
 14 11 14  0  0  0.0000000  0 10G15G14G21G18G25G12G24G04G22G31
  24944976.523   131086869.328 6  24944982.617   102145702.959 6
  21150396.063   111145973.240 8  21150401.148    86607534.56546
  23348683.664   122698273.760 7  23348689.129    95609125.09844
  20711566.320   108840133.171 8  20711570.703    84810604.85446
  24087367.297   126579910.994 6  24087377.434    98633821.374 6
  23387536.102   122902467.971 7  23387543.496    95768135.647 7
  22052503.070   115886823.705 8  22052510.875    90301564.639 8
  24200468.188   127174326.206 6  24200476.063    99096924.69544
  20397879.859   107191706.397 8  20397882.492    83526123.88447
  24042979.141   126346725.474 6  24042985.742    98452051.382 6
 14 11 14  0  5  0.0000000  0 10G15G14G21G18G25G12G24G04G22G31
  25113747.469   131973766.274 6  25113753.234   102836790.908 6
  21086928.453   110812450.973 7  21086933.719    86347647.37046
  23541426.336   123711142.271 6  23541433.125    96398372.82243
  20780773.102   109203815.926 8  20780777.469    85093993.99546
  23910150.242   125648620.919 7  23910159.855    97908141.267 7
  23282790.742   122352029.209 7  23282795.883    95339222.789 6
  22199544.180   116659533.627 7  22199552.156    90903676.222 8
  24056548.430   126418028.891 7  24056556.668    98507603.39743
  20343718.242   106907085.369 8  20343720.582    83304341.44447
  23827454.375   125214135.054 7  23827461.129    97569514.611 6
 14 11 14  0 10  0.0000000  0 10G15G14G21G18G25G12G24G04G22G31
  25282099.836   132858463.572 6  25282106.387   103526164.841 6
  21028092.078   110503263.980 8  21028096.977    86106722.69346
  23736593.938   124736750.177 6  23736599.000    97197547.37843
  20857550.445   109607284.738 8  20857555.410    85408385.23046
  23735320.469   124729891.095 6  23735329.633    97192248.643 7
  23186522.375   121846138.619 7  23186528.531    94945022.856 7
  22353303.961   117467544.964 7  22353311.703    91533295.412 7
  23920865.602   125705013.804 6  23920873.359    97952008.02743
  20296896.727   106661037.488 8  20296899.059    83112616.00847
  23614880.469   124097050.318 7  23614885.355    96699059.527 6
 14 11 14  0 15  0.0000000  0  9G14G21G18G25G12G24G04G22G31
  20973831.539   110218123.950 8  20973836.363    85884535.86646
  23933647.969   125772274.801 6  23933653.598    98004449.12943
  20941910.117   110050595.119 8  20941914.652    85753821.83046
  23563507.180   123827008.693 6  23563516.531    96488704.403 7
  23099230.422   121387421.759 7  23099235.750    94587581.600 7
  22513291.414   118308282.693 7  22513299.250    92188415.656 7
  23793849.227   125037538.373 6  23793856.027    97431898.17244
  20257696.703   106455040.158 8  20257698.742    82952098.72147
  23405694.492   122997777.069 7  23405700.082    95842483.667 7
 14 11 14  0 20  0.0000000  0 10G14G21G18G25G12G24G04G11G22G31
  20924091.703   109956739.577 8  20924096.461    85680860.00846
  24132054.313   126814909.755 6  24132061.480    98816891.52143
  21033836.633   110533672.948 8  21033840.512    86130246.00346
  23395338.477   122943278.259 7  23395347.285    95800083.889 7
  23021383.398   120978331.695 7  23021389.191    94268810.562 7
  22679014.461   119179163.234 7  22679022.414    92867023.809 7
  23675902.102   124417726.349 6  23675908.766    96948928.59644
  24650190.422   129537586.670 5
  20226385.430   106290497.751 8  20226387.695    82823883.93847
  23200329.602   121918583.362 7  23200335.242    95001554.635 6
 14 11 14  0 25  0.0000000  0 10G14G21G18G25G12G24G04G11G22G31
  20878817.188   109718820.478 8  20878821.500    85495468.71646
  24331284.938   127861868.589 6  24331290.789    99632703.14242
  21133291.703   111056312.200 8  21133296.305    86537497.23246
  23231442.609   122082004.130 7  23231452.863    95128961.784 7
  22953409.727   120621128.203 7  22953415.613    93990470.649 7
  22849982.641   120077605.434 7  22849990.387    93567108.599 7
  23567400.156   123847546.128 7  23567406.148    96504633.04744
  24586611.742   129203481.962 5  24586617.941   100678084.98442
  20203212.977   106168724.797 8  20203215.000    82728996.01347
  22999207.914   120861685.784 7  22999213.367    94177998.845 7
 14 11 14  0 30  0.0000000  0 10G14G21G18G25G12G24G04G11G22G31
  20837955.203   109504091.014 8  20837959.664    85328147.19846
  24530816.102   128910406.178 6  24530821.238   100449745.02843
  21240211.906   111618180.821 8  21240216.641    86975316.81446
  23072448.945   121246487.685 7  23072458.527    94477910.656 7
  22895701.469   120317870.497 7  22895706.715    93754166.328 7
  23025708.273   121001054.075 7  23025716.445    94286678.977 7
  23468686.367   123328806.439 7  23468693.453    96100420.92544
  24533108.031   128922324.002 6  24533114.402   100459001.46343
  20188411.609   106090944.166 8  20188413.465    82668387.78647
  22802743.023   119829255.581 7  22802747.809    93373508.435 7
 14 11 14  0 35  0.0000000  0 11G14G32G21G18G25G12G24G04G11G22G31
  20801456.188   109312287.497 8  20801460.172    85178690.11146
  24725144.016   129931481.346 6  24725151.973   101245358.30243
  24730131.258   129957818.943 6  24730137.855   101265910.72543
  21354508.766   112218814.190 8  21354512.516    87443342.63146
  22918979.352   120440001.226 7  22918988.617    93849480.376 7
  22848607.227   120070390.939 7  22848612.641    93561325.509 7
  23205713.297   121946985.117 7  23205721.535    95023768.058 7
  23380070.617   122863131.003 7  23380078.098    95737557.54044
  24489782.820   128694647.300 6  24489789.016   100281591.57443
  20182192.539   106058265.476 8  20182195.348    82642923.96247
  22611333.508   118823397.353 7  22611338.719    92589723.428 7
 14 11 14  0 40  0.0000000  0 10G14G32G18G25G12G24G04G11G22G31
  20769272.789   109143163.278 8  20769277.469    85046905.22446
  24541398.148   128965892.822 7  24541405.578   100492952.84644
  21476068.375   112857611.666 7  21476072.277    87941106.72546
  22771647.602   119665771.757 7  22771656.535    93246185.317 7
  22812430.273   119880282.762 7  22812435.969    93413189.671 7
  23389523.820   122912913.938 6  23389530.852    95776439.830 7
  23301824.063   122451942.373 7  23301830.168    95417151.34244
  24456691.563   128520756.940 6  24456697.891   100146093.00343
  20184744.805   106071675.168 8  20184746.645    82653373.15047
  22425367.359   117846142.049 7  22425373.219    91828226.339 7
 14 11 14  0 45  0.0000000  0 11G14G01G32G18G25G12G24G04G11G22G31
  20741361.891   108996490.820 8  20741366.465    84932615.18146
  24902713.836   130864591.233 5                 101972487.432 6
  24358597.352   128005274.091 6  24358603.969    99744420.23743
  21604750.813   113533843.917 8  21604755.770    88468040.78646
  22631057.523   118926966.521 7  22631066.141    92670493.490 7
  22787426.109   119748885.059 7  22787431.754    93310802.210 7
  23576677.047   123896409.032 7  23576683.773    96542799.608 7
  23234175.969   122096450.856 7  23234182.301    95140145.40744
  24433849.438   128400722.448 6  24433855.492   100052560.02543
  20196228.688   106132026.327 8  20196230.844    82700400.11947
  22245215.484   116899437.456 8  22245221.184    91090534.832 7
 14 11 14  0 50  0.0000000  0 11G14G01G32G18G25G12G24G04G11G22G31
  20717686.289   108872075.649 8  20717690.691    84835668.41646
  24770210.773   130168283.974 6  24770219.066   101429911.163 6
  24177050.055   127051239.466 7  24177056.020    99001017.93444
  21740394.023   114246657.147 8  21740399.523    89023479.44145
  22497796.305   118226678.559 7  22497804.098    92124815.138 7
  22773800.914   119677282.488 7  22773805.324    93255008.274 7
  23766721.766   124895106.725 6  23766731.016    97321005.514 7
  23177315.086   121797647.211 7  23177321.012    94907311.66544
  24421226.461   128334384.679 6  24421231.621   100000868.55243
  20216782.375   106240035.681 8  20216784.426    82784563.30047
  22071231.766   115985147.440 8  22071237.059    90378101.514 7
 14 11 14  0 55  0.0000000  0 11G14G01G32G18G25G12G24G04G11G22G31
  20698214.594   108769751.520 8  20698219.105    84755935.45646
  24645815.078   129514587.677 6  24645825.141   100920538.309 6
  23997076.188   126105478.045 7  23997082.977    98264061.95944
  21882813.344   114995070.710 7  21882817.766    89606658.61245
  22372434.383   117567900.544 7  22372442.676    91611482.215 7
  22771707.164   119666285.117 7  22771712.836    93246439.136 7
  23959224.313   125906708.638 6  23959233.551    98109266.762 7
  23131385.391   121556286.039 7  23131391.902    94719238.24044
  24418744.992   128321348.397 6  24418751.176    99990710.76943
  20246512.039   106396265.101 8  20246513.961    82906300.57647
  21903751.648   115105034.366 8  21903756.125    89692299.636 7
 14 11 14  1  0  0.0000000  0 11G14G01G32G18G25G12G24G04G11G22G31
  20682920.234   108689381.094 8  20682924.613    84693309.28146
  24529914.609   128905530.020 6  24529923.961   100445948.604 6
  23819013.430   125169751.381 7  23819018.953    97534924.85944
  22031796.102   115777981.839 7  22031801.020    90216718.96645
  22255519.148   116953505.809 7  22255527.230    91132733.518 7
  22781248.391   119716425.767 7  22781253.688    93285510.052 7
  24153758.242   126928991.707 7  24153765.723    98905850.966 7
  23096482.867   121372877.981 7  23096489.586    94576323.17444
  24426287.633   128360986.138 6  24426293.734   100021597.60843
  20285494.195   106601118.384 8  20285496.000    83065926.55547
  21743089.172   114260751.142 8  21743094.578    89034417.069 7
 14 11 14  1  5  0.0000000  0 11G14G01G32G18G25G12G24G04G11G22G31
  20671785.250   108630866.001 7  20671789.348    84647713.23946
  24422868.836   128343003.109 6  24422877.781   100007616.612 6
  23643208.656   124245896.764 7  23643214.160    96815038.70844
  22187112.695   116594173.997 7  22187117.301    90852712.54245
  22147570.250   116386234.116 7  22147577.777    90690704.083 7
  22802473.773   119827963.650 7  22802478.398    93372422.862 7
  24349917.555   127959816.425 6  24349925.340    99709090.955 7
  23072660.977   121247687.061 7  23072667.297    94478772.05345
  24443692.305   128452445.591 6  24443697.680   100092864.99543
  20333775.141   106854837.021 8  20333777.352    83263629.40447
  21589538.516   113453837.765 8  21589543.164    88405653.687 7
 14 11 14  1 10  0.0000000  0 11G14G01G32G18G25G12G24G04G11G22G31
  20664796.188   108594137.468 7  20664799.957    84619093.71046
  24325007.383   127828734.905 6  24325014.781    99606888.786 6
  23470024.852   123335810.040 6  23470030.438    96105881.00545
  22348508.648   117442313.372 7  22348511.938    91513600.07944
  22049079.109   115868660.538 7  22049086.480    90287400.340 7
  22835376.438   120000869.337 7  22835380.371    93507154.720 7
  24547310.586   128997123.593 6  24547318.785   100517382.104 7
  23059917.039   121180716.208 7  23059923.242    94426587.18345
  24470751.844   128594647.464 6  24470757.613   100203671.97843
  20391367.234   107157485.480 8  20391369.160    83499459.31847
  21443366.828   112685704.442 8  21443372.230    87807108.655 7
 14 11 14  1 15  0.0000000  0 11G14G01G32G18G25G12G24G04G11G22G31
  20661947.352   108579168.088 7  20661951.418    84607429.41246
  24236624.242   127364285.788 6  24236633.301    99244980.818 6
  23299832.555   122441451.147 7  23299838.547    95408978.53244
  22515710.102   118320963.815 7  22515715.520    92198262.39944
  21960501.914   115403186.107 7  21960509.391    89924693.305 7
  22879899.656   120234842.038 7  22879904.441    93689471.231 7
  24745563.656   130038947.053 7  24745571.434   101329192.509 7
  23058204.492   121171718.788 7  23058209.977    94419576.28645
  24507222.023   128786303.754 6  24507227.805   100353014.88542
  20458250.492   107508959.787 8  20458252.754    83773335.34447
  21304819.125   111957633.847 8  21304824.254    87239781.338 7
 14 11 14  1 20  0.0000000  0 11G14G01G32G18G25G12G24G04G11G22G31
  20663240.875   108585968.170 8  20663245.109    84612728.33046
  24157984.477   126951031.534 6  24157992.910    98922964.956 6
  23133018.727   121564837.289 7  23133024.383    94725903.36544
  22688426.055   119228589.041 7  22688431.512    92905502.50944
  21882258.469   114992015.646 7  21882266.426    89604301.085 7
  22935934.508   120529307.200 7  22935939.070    93918924.751 7
  24944316.297   131083410.134 6  24944325.215   102143059.762 6
  23067428.539   121220191.226 7  23067434.137    94457347.08445
  24552820.156   129025922.349 6  24552825.781   100539730.91743
  20534371.750   107908979.309 8  20534374.047    84085038.79847
  21174113.727   111270770.179 8  21174117.938    86704563.344 8
 14 11 14  1 25  0.0000000  0 11G14G01G32G18G25G12G24G04G11G22G31
  20668687.570   108614588.697 7  20668691.625    84635030.09546
  24089310.414   126590152.028 6  24089319.359    98641760.534 7
  22969974.922   120708036.723 7  22969980.449    94058267.02345
  22866346.859   120163565.257 7  22866351.832    93634054.92544
  21814727.953   114637141.603 7  21814735.508    89327776.167 8
  23003321.602   120883429.979 7  23003326.371    94194864.673 7
  25143236.469   132128735.505 5  25143244.055   102957599.169 6
  23087445.828   121325382.788 7  23087451.387    94539314.57645
  24607224.711   129311823.020 6  24607230.914   100762510.73043
  20619644.523   108357090.957 8  20619646.762    84434216.64647
  21051439.641   110626117.545 8  21051444.035    86202237.093 8
 14 11 14  1 30  0.0000000  0 10G14G01G32G18G25G12G04G11G22G31
  20678301.664   108665112.040 7  20678305.969    84674398.97946
  24030787.727   126282611.556 6  24030795.527    98402118.901 6
  22811100.703   119873152.732 7  22811106.523    93407708.49945
  23049143.664   121124171.868 7  23049149.723    94382579.08244
  21758244.813   114340318.530 7  21758251.680    89096485.708 8
  23081852.766   121296113.569 7  23081857.422    94516436.344 7
  23118064.719   121486289.169 7  23118070.840    94664696.29145
  24670081.484   129642139.272 6  24670088.375   101019900.09143
  20713947.961   108852658.357 8  20713950.355    84820372.97847
  20936960.258   110024524.667 8  20936964.668    85733463.868 8
 14 11 14  1 35  0.0000000  0 10G14G01G32G18G25G12G04G11G22G31
  20692107.516   108737661.750 7  20692111.824    84730931.24546
  23982557.273   126029159.548 6  23982566.121    98204624.066 7
  22656806.000   119062326.517 7  22656811.227    92775896.20445
  23236479.008   122108617.691 7  23236483.758    95149679.28844
  21713095.266   114103059.536 7  21713102.391    88911608.782 7
  23171272.797   121766023.976 7  23171278.637    94882600.352 7
  23159050.516   121701671.409 7  23159056.727    94832526.60045
  24741005.328   130014843.757 6  24741011.109   101310319.23043
  20817129.453   109394879.442 8  20817131.758    85242882.81946
  20830808.164   109466693.278 8  20830812.324    85298790.297 8
 14 11 14  1 40  0.0000000  0 10G14G01G32G18G25G12G04G11G22G31
  20710134.469   108832395.133 8  20710138.656    84804749.49147
  23944717.789   125830316.076 6  23944727.078    98049681.245 6
  22507500.641   118277721.522 7  22507505.652    92164515.90945
  23427994.266   123115037.137 6  23427999.352    95933901.72443
  21679519.297   113926616.565 7  21679526.359    88774120.951 8
  23271287.422   122291598.631 7  23271291.391    95292138.979 6
  23210122.523   121970060.228 7  23210129.223    95041660.85044
  24819579.305   130427755.039 6  24819585.066   101632068.29943
  20929003.234   109982779.520 8  20929005.180    85700986.61446
  20733087.430   108953168.422 8  20733092.098    84898641.297 8
 14 11 14  1 45  0.0000000  0 10G14G01G32G18G25G12G04G11G22G31
  20732419.180   108949502.714 7  20732423.387    84896002.19346
  23917326.133   125686368.169 6  23917334.230    97937514.106 6
  22363599.156   117521515.337 7  22363604.188    91575264.57345
  23623323.867   124141501.043 6  23623330.656    96733743.16243
  21657702.906   113811972.830 8  21657710.008    88684788.336 8
  23381555.992   122871063.973 7  23381559.586    95743670.364 7
  23270962.914   122289769.362 7  23270967.531    95290784.79944
  24905364.820   130878557.759 6  24905370.750   101983343.09043
  21049353.430   110615223.076 8  21049355.477    86193799.61146
  20643872.195   108484341.155 8  20643876.469    84533321.634 8
 14 11 14  1 50  0.0000000  0 10G14G01G32G18G25G12G04G11G22G31
  20759005.273   109089210.884 8  20759009.074    85004865.72346
  23900390.773   125597370.681 7  23900398.160    97868165.347 6
  22225517.727   116795894.085 7  22225523.008    91009845.63146
  23822092.203   125186031.957 6  23822098.750    97547662.78843
  21647782.484   113759839.539 8  21647789.605    88644165.127 7
  23501706.375   123502458.504 7  23501710.813    96235665.934 7
  23341207.500   122658913.878 7  23341213.262    95578429.89344
  24997896.742   131364819.618 5  24997903.027   102362248.22542
  21177934.273   111290921.809 8  21177936.832    86720317.90646
  20563208.016   108060450.476 8  20563212.445    84203017.441 8
 14 11 14  1 55  0.0000000  0 10G14G01G32G18G25G12G04G11G22G31
  20789939.320   109251770.596 8  20789943.297    85131535.63146
  23893875.563   125563133.212 7  23893883.188    97841486.815 6
  22093669.922   116103028.890 8  22093674.887    90469950.85846
  24023911.672   126246596.723 6  24023918.195    98374076.35943
  21649837.227   113770640.235 8  21649844.582    88652581.365 7
  23631331.586   124183638.638 7  23631336.246    96766455.416 6
  23420464.922   123075414.667 7  23420471.156    95902975.82744
  25096694.211   131883998.276 6  25096698.883   102766803.14643
  21314472.742   112008434.139 8  21314474.707    87279418.17646
  20491111.281   107681576.915 8  20491115.547    83907791.456 8
 14 11 14  2  0  0.0000000  0 10G14G01G32G18G25G12G04G11G22G31
  20825274.609   109437459.740 7  20825278.699    85276228.45346
  23897700.141   125583229.733 7  23897707.570    97857146.382 6
  21968464.734   115445073.951 7  21968469.824    89957258.83546
  24228389.039   127321126.892 6  24228394.977    99211371.92643
  21663896.133   113844518.415 8  21663903.305    88710148.870 8
  23769993.125   124912310.634 7  23769997.516    97334251.599 6
  23508307.016   123537022.764 7  23508312.375    96262670.32944
  25201254.211   132433466.737 5  25201259.410   103194960.29142
  21458667.422   112766181.303 8  21458670.043    87869870.25846
  20427567.805   107347654.223 8  20427572.016    83647592.146 8
 14 11 14  2  5  0.0000000  0 10G14G01G32G18G25G12G04G11G22G31
  20865067.469   109646573.665 8  20865071.770    85439174.34246
  23911736.438   125656992.080 7  23911744.723    97914623.550 6
  21850305.766   114824143.093 8  21850310.414    89473416.69646
  24435121.922   128407517.819 6  24435128.246   100057909.66943
  21689930.172   113981329.374 7  21689937.109    88816754.882 7
  23917228.328   125686037.417 6  23917231.480    97937155.446 5
  23604272.672   124041327.038 7  23604278.523    96655634.61244
  25311063.609   133010520.284 6  25311068.945   103644612.43643
  21610192.156   113562448.809 8  21610195.035    88490338.12746
  20372535.891   107058462.248 8  20372539.867    83422247.872 8
 14 11 14  2 10  0.0000000  0  9G14G01G32G18G25G12G04G22G31
  20909379.055   109879430.869 7  20909383.180    85620621.50046
  23935814.461   125783524.996 6  23935822.211    98013220.660 6
  21739585.664   114242306.957 8  21739591.102    89020038.00546
  24643709.039   129503646.783 6  24643716.078   100912035.52042
  21727860.516   114180655.024 7  21727867.570    88972073.601 8
  24072552.508   126502273.040 6  24072557.414    98573183.041 6
  23707878.992   124585783.078 6  23707885.656    97079885.83844
  21768699.938   114395407.413 7  21768701.906    89139396.44246
  20325948.922   106813645.014 8  20325952.281    83231481.281 8
 14 11 14  2 15  0.0000000  0  8G14G01G32G25G12G04G22G31
  20958270.781   110136360.382 7  20958274.801    85820826.29446
  23969721.094   125961705.084 7  23969729.059    98152062.294 6
  21636687.164   113701571.546 8  21636691.906    88598685.82946
  21777555.711   114441803.678 7  21777562.430    89175566.098 7
  24235462.836   127358372.897 6  24235468.984    99240273.694 6
  23818617.820   125167723.526 6  23818625.109    97533345.78444
  21933818.344   115263114.271 7  21933822.063    89815531.33546
  20287712.563   106612710.707 8  20287715.660    83074909.198 8
 14 11 14  2 20  0.0000000  0  9G14G01G32G25G20G12G04G22G31
  21011807.422   110417696.464 8  21011811.844    86040049.16346
  24013199.352   126190188.084 7  24013208.305    98330101.104 7
  21541975.789   113203861.154 8  21541980.938    88210859.64846
  21838832.844   114763817.719 7  21838840.078    89426486.129 7
  24617664.625   129366751.157 5
  24405440.781   128251609.751 6  24405445.500    99936302.180 6
  23935964.172   125784372.171 6  23935968.355    98013851.04144
  22105161.797   116163525.755 7  22105163.816    90517150.26145
  20257707.688   106455035.433 8  20257711.578    82952045.428 8
 14 11 14  2 25  0.0000000  0  9G14G01G32G25G20G12G04G22G31
  21070053.375   110723779.906 8  21070057.469    86278555.68246
  24065955.711   126467423.641 6  24065964.719    98546128.819 7
  21455801.133   112751008.938 8  21455806.023    87857987.90646
  21911463.398   115145491.774 8  21911470.063    89723894.504 7
  24426716.781   128363322.609 6  24426721.660   100023352.42043
  24581956.383   129179201.820 6  24581960.191   100659101.190 6
  24059368.141   126432868.515 6  24059374.918    98519172.69344
  22282322.039   117094509.487 7  22282325.176    91242591.70445
  20235793.164   106339876.717 8  20235797.086    82862311.442 8
 14 11 14  2 30  0.0000000  0  9G14G01G32G25G20G12G04G22G31
  21133071.398   111054942.656 8  21133075.359    86536604.51546
  24127656.125   126791659.436 6  24127665.051    98798780.035 6
  21378489.383   112344733.870 8  21378494.203    87541410.04246
  21995170.227   115585378.564 7  21995177.586    90066663.411 7
  24239978.570   127382004.651 6  24239982.531    99258689.30443
  24764469.250   130138319.600 6  24764474.242   101406465.892 6
  24188275.539   127110276.814 7  24188280.230    99047023.18743
  22464879.469   118053851.248 7  22464881.230    91990130.29145
  20221807.203   106266378.884 8  20221810.953    82805040.458 8
 14 11 14  2 35  0.0000000  0  9G14G01G32G25G20G12G04G22G31
  21200924.711   111411514.681 8  21200929.012    86814452.75146
  24197933.023   127160963.910 6  24197940.965    99086549.619 6
  21310345.516   111986635.830 8  21310350.121    87262372.69346
  22089639.602   116081815.458 8  22089646.277    90453497.324 7
  24057941.531   126425391.613 6  24057944.980    98513276.95743
  24952441.000   131126112.911 6  24952445.145   102176174.949 6
  24322114.383   127813611.997 6  24322121.559    99595076.40343
  22652399.422   119039273.334 7  22652401.301    92757991.17545
  20215567.750   106233589.196 8  20215571.355    82779490.105 8
 14 11 14  2 40  0.0000000  0  8G14G01G32G25G20G04G22G31
  21273673.422   111793810.385 8  21273677.508    87112345.39446
  24276385.195   127573233.616 7  24276393.605    99407798.643 7
  21251646.531   111678173.987 8  21251652.004    87022012.87346
  22194513.656   116632935.708 7  22194521.641    90882941.627 7
  23881099.883   125496087.946 6  23881104.348    97789144.55243
  24460314.203   128539849.143 7  24460319.336   100160975.27243
  22844437.680   120048439.970 7  22844440.629    93544354.24845
  20216875.688   106240462.993 8  20216879.543    82784846.337 8
 14 11 14  2 45  0.0000000  0  8G14G01G32G25G20G04G22G31
  21351373.398   112202126.008 8  21351377.879    87430513.26946
  24362583.133   128026210.808 6  24362592.027    99760767.718 6
  21202642.898   111420656.380 8  21202648.418    86821349.80947
  22309404.977   117236690.769 7  22309412.184    91353400.085 7
  23709952.156   124596699.800 7  23709956.625    97088322.87643
  24602291.078   129285939.843 6  24602296.023   100742344.42543
  23040541.539   121078968.726 7  23040546.020    94347363.12245
  20225517.617   106285877.911 8  20225521.598    82820234.584 8
 14 11 14  2 50  0.0000000  0 10G14G01G32G25G20G16G29G04G22G31
  21434075.734   112636728.159 7  21434079.824    87769164.18146
  24456071.813   128517492.945 6  24456080.340   100143584.808 6
  21163549.758   111215220.682 8  21163554.563    86661270.05546
  22433889.719   117890863.781 7  22433897.262    91863145.275 7
  23544989.023   123729813.704 7  23544993.102    96412827.45244
  24918828.023   130949331.959 6  24918833.289   102038453.10343
  24989645.078   131321472.50614                 102328468.62115
  24747462.547   130048821.901 6  24747468.570   101336797.94643
  23240248.570   122128437.818 7  23240252.328    95165130.69544
  20241267.023   106368640.706 8  20241270.707    82884725.103 8
 14 11 14  2 55  0.0000000  0 10G14G01G32G25G20G16G29G04G22G31
  21521825.141   113097856.155 8  21521829.398    88128484.54146
  24556368.078   129044554.626 6  24556377.156   100554282.076 6
  21134550.805   111062828.945 8  21134555.516    86542523.23546
  22567520.727   118593096.749 7  22567527.707    92410339.769 7
  23386697.680   122897989.411 7  23386701.531    95764652.90144
  24687647.547   129734477.767 6  24687653.141   101091814.24943
  24861867.391   130649983.415 6  24861874.109   101805215.535 5
  24895246.461   130825438.727 7  24895252.895   101941954.06043
  23443096.430   123194399.821 7  23443097.316    95995749.90644
  20263885.414   106487500.986 8  20263889.148    82977343.549 8
 14 11 14  3  0  0.0000000  0 10G14G01G32G25G20G16G29G04G22G31
  21614661.508   113585710.623 7  21614665.602    88508630.68746
  24662973.078   129604762.050 6  24662981.516   100990807.001 7
  21115792.641   110964253.328 8  21115797.313    86465711.04947
  22709823.914   119340908.779 7  22709831.668    92993050.407 7
  23235557.102   122103740.634 7  23235561.391    95145757.95644
  24456778.289   128521254.610 6  24456784.309   100146445.90743
  24738149.234   129999843.222 6  24738156.660   101298613.511 6
  25045066.609   131612748.628 5  25045074.109   102555442.36543
  23648611.188   124274388.961 7  23648613.328    96837299.43544
  20293126.883   106641165.454 8  20293130.598    83097082.154 8
 14 11 14  3  5  0.0000000  0 10G14G01G32G25G20G16G29G04G22G31
  21712613.633   114100452.754 7  21712617.922    88909728.24946
  24775365.320   130195388.426 6  24775373.563   101451035.182 6
  21107384.523   110920069.101 8  21107389.371    86431281.73846
  22860310.328   120131717.281 7  22860317.898    93609264.697 7
  23092033.781   121349520.703 7  23092037.563    94558054.34244
  24226736.555   127312383.182 5  24226743.152    99204468.41943
  24619060.609   129374028.058 6  24619067.348   100810966.087 6
  25196348.133   132407737.345 5
  23856324.984   125365931.350 7  23856328.844    97687851.50344
  20328737.977   106828305.685 8  20328742.117    83242905.762 8
 14 11 14  3 10  0.0000000  0 10G14G01G32G25G20G16G29G04G22G31
  21815703.914   114642195.823 7  21815708.074    89331865.47945
  24893013.500   130813630.301 6  24893021.047   101932781.971 6
  21109396.891   110930645.374 8  21109402.133    86439522.93046
  23018470.930   120962857.258 7  23018478.805    94256906.091 7
  22956579.688   120637704.696 7  22956583.359    94003392.64844
  23998050.227   126110620.792 7  23998054.824    98268030.55843
  24505156.469   128775464.706 6  24505162.730   100344553.728 6
  25348522.938   133207425.610 5
  24065765.672   126466550.440 6  24065770.039    98545476.26444
  20370462.961   107047569.451 8  20370466.422    83413760.673 8
 14 11 14  3 15  0.0000000  0  9G14G01G32G25G20G16G29G22G31
  21923943.750   115210997.584 7  21923947.758    89775087.38145
  25015369.211   131456619.695 6  25015378.168   102433812.760 6
  21121859.938   110996137.737 8  21121865.008    86490555.89346
  23183787.625   121831598.782 7  23183794.715    94933847.323 7
  22829627.219   119970569.233 7  22829631.195    93483546.97844
  23771242.570   124918748.017 6  23771248.289    97339299.06144
  24396985.813   128207018.979 6  24396990.539    99901609.470 6
  24276466.438   127573776.681 7  24276468.148    99408249.29143
  20418040.000   107297590.241 8  20418044.004    83608582.065 8
 14 11 14  3 20  0.0000000  0  9G14G01G32G25G20G16G29G22G31
  22037333.125   115806866.064 7  22037337.727    90239400.20145
  25141881.094   132121447.429 6  25141890.434   102951860.466 6
  21144762.523   111116491.928 8  21144767.074    86584338.32246
  23355732.125   122735172.802 6  23355739.227    95637930.780 7
  22711590.469   119350281.349 7  22711594.922    93000205.93545
  23546852.445   123739567.735 6  23546858.676    96420457.74544
  24295075.422   127671484.289 6  24295081.781    99484310.152 6
  24487953.953   128685159.404 7  24487957.258   100274261.33743
  20471210.625   107577003.415 8  20471214.215    83826306.608 8
 14 11 14  3 25  0.0000000  0  9G14G01G32G25G20G16G29G22G31
  22155862.961   116429742.472 7  22155868.289    90724758.14145
  25271989.125   132805167.762 6  25271997.965   103484629.920 6
  21178053.055   111291433.697 8  21178057.691    86720656.49546
  23533772.273   123670780.348 6  23533778.875    96366975.421 6
  22602855.375   118778875.299 7  22602859.281    92554954.57945
  23325412.469   122575889.772 7  23325416.977    95513696.07544
  24199942.891   127171559.600 7  24199948.656    99094758.942 6
  24699771.086   129798265.870 6  24699775.988   101141616.76043
  20529715.406   107884448.239 8  20529719.207    84065873.970 8
 14 11 14  3 30  0.0000000  0  9G14G32G25G20G16G29G23G22G31
  22279510.781   117079512.754 7  22279515.738    91231072.30245
  21221638.969   111520479.245 8  21221644.098    86899133.42146
  23717375.516   124635619.324 7  23717383.063    97118797.727 7
  22503782.445   118258242.664 7  22503786.219    92149266.90045
  23107456.703   121430530.618 7  23107462.484    94621208.72744
  24112079.055   126709839.050 6  24112086.926    98734977.226 6
  25085397.258   131824613.079 6  25085401.277   102720524.59543
  24911460.695   130910701.480 6  24911465.164   102008449.94743
  20593299.672   108218585.318 8  20593303.773    84326240.512 8
 14 11 14  3 35  0.0000000  0  8G14G32G25G20G16G29G23G31
  22408238.648   117755981.052 7  22408243.211    91758190.09645
  21275385.828   111802919.761 8  21275390.871    87119216.84246
  23906006.867   125626881.769 6  23906013.570    97891209.738 6
  22414697.430   117790097.829 7  22414700.996    91784478.83245
  22893520.180   120306285.094 7  22893525.152    93745173.61644
  24031955.641   126288782.831 7  24031960.695    98406881.992 6
  24901371.992   130857551.160 6  24901375.121   101966970.26543
  20661711.133   108578089.058 8  20661714.781    84606373.278 8
 14 11 14  3 40  0.0000000  0  8G14G32G25G20G16G29G23G31
  22541996.289   118458880.142 7  22542001.734    92305903.30245
  21339118.313   112137836.323 8  21339123.445    87380190.69146
  24099134.672   126641779.055 6  24099141.457    98682038.651 6
  22335891.938   117375972.108 7  22335895.387    91461783.46645
  22684128.789   119205927.117 7  22684133.750    92887752.11945
  23960010.000   125910707.602 6  23960015.910    98112278.295 6
  24716610.148   129886624.975 7  24716614.438   101210404.60744
  20734702.945   108961664.363 8  20734706.855    84905263.111 8
 14 11 14  3 45  0.0000000  0  8G14G32G25G20G16G29G23G31
  22680720.539   119187878.475 7  22680724.922    92873953.50645
  21412624.867   112524115.071 8  21412629.930    87681186.95246
  24296238.172   127677563.496 6  24296245.023    99489143.245 6
  22267621.875   117017210.442 7  22267626.527    91182228.93345
  22479806.211   118132206.427 7  22479810.520    92051086.96945
  23896654.711   125577780.984 6  23896661.090    97852855.340 6
  24531334.461   128912993.763 7  24531338.078   100451731.10843
  20812037.609   109368061.818 8  20812041.516    85221936.401 8
 14 11 14  3 50  0.0000000  0  8G14G32G25G20G16G29G23G31
  22824332.758   119942564.031 7  22824338.258    93462019.62944
  21495655.570   112960442.893 8  21495660.594    88021182.45046
  24496801.695   128731527.114 6  24496808.359   100310413.315 6
  22210101.625   116714940.236 7  22210105.734    90946693.73045
  22281066.063   117087822.562 7  22281070.633    91237281.69245
  23842272.102   125291995.309 7  23842277.414    97630165.496 6
  24345781.063   127937905.459 7  24345784.926    99691922.11244
  20893486.109   109796073.044 8  20893489.355    85555451.548 8
 14 11 14  3 55  0.0000000  0  8G14G32G25G20G16G29G23G31
  22972741.883   120722455.689 7  22972748.012    94069726.88344
  21587926.555   113445327.357 8  21587931.266    88399014.26446
  24700320.430   129801023.717 6  24700327.047   101143786.993 6
  22163505.844   116470075.139 7  22163509.445    90755889.71645
  22088413.633   116075426.960 7  22088417.930    90448402.30245
  23797203.844   125055162.273 7  23797209.617    97445620.496 6
  24160207.227   126962708.753 7  24160211.125    98932028.82444
  20978827.297   110244546.160 8  20978830.809    85904911.072 8
 14 11 14  4  0  0.0000000  0  8G14G32G25G20G16G29G23G31
  23125836.672   121526975.390 6  23125841.977    94696624.74444
  21689116.461   113977083.194 8  21689121.000    88813369.20646
  24906299.078   130883454.325 6  24906306.629   101987239.373 6
  22127958.477   116283276.411 7  22127962.500    90610332.27645
  21902335.586   115097580.754 8  21902339.980    89686444.50346
  23761754.992   124868876.529 7  23761759.934    97300462.967 6
  23974885.070   125988831.274 7  23974887.824    98173163.53044
  21067850.156   110712363.846 8  21067854.141    86269444.285 8
 14 11 14  4  5  0.0000000  0  8G14G32G25G20G16G29G23G31
  23283498.367   122355484.945 6  23283504.648    95342216.03244
  21798876.391   114553878.394 8  21798882.012    89262819.78746
  25114262.805   131976308.778 6  25114270.816   102838814.205 6
  22103544.875   116154981.207 7  22103549.195    90510362.00745
  21723306.289   114156777.940 8  21723310.848    88953351.70746
  23736190.891   124734539.271 7  23736196.688    97195784.685 6
  23790105.453   125017811.507 7  23790108.543    97416525.05044
  21160356.039   111198484.563 8  21160359.520    86648239.585 8
 14 11 14  4 10  0.0000000  0  7G14G32G20G16G29G23G31
  23445584.570   123207255.669 6  23445590.547    96005933.00244
  21916828.516   115173718.299 7  21916834.148    89745811.62846
  22090297.586   116085366.950 7  22090301.770    90456117.07145
  21551780.063   113255402.631 8  21551784.813    88250981.63446
  23720735.648   124653317.847 7  23720740.199    97132495.381 6
  23606178.945   124051273.172 7  23606181.773    96663378.50945
  21256155.297   111701913.882 8  21256159.652    87040522.086 8
 14 11 14  4 15  0.0000000  0  7G14G32G20G16G29G23G31
  23611944.906   124081486.524 6  23611950.523    96687151.35143
  22042567.047   115834477.309 8  22042572.813    90260688.49846
  22088203.742   116074363.554 7  22088208.152    90447542.84445
  21388190.086   112395732.444 8  21388194.211    87581109.03946
  23715565.805   124626154.640 7  23715572.008    97111329.256 6
  23423433.922   123090941.559 7  23423437.148    95915068.29945
  21355072.664   112221727.221 8  21355076.570    87445571.362 8
 14 11 14  4 20  0.0000000  0  7G14G32G20G16G29G23G31
  23782412.289   124977292.953 6  23782416.754    97385181.81243
  22175663.000   116533898.692 8  22175668.523    90805691.89246
  22097200.852   116121642.985 7  22097205.461    90484383.85045
  21232944.070   111579910.567 8  21232948.313    86945403.95246
  23720817.297   124653749.439 7  23720822.113    97132831.752 6
  23242214.383   122138626.623 7  23242216.914    95173004.94845
  21456941.930   112757054.568 8  21456946.082    87862709.428 8
 14 11 14  4 25  0.0000000  0  7G14G32G20G16G29G23G31
  23956803.039   125893722.491 6  23956810.230    98099282.31643
  22315666.313   117269621.991 8  22315671.848    91378982.53646
  22117179.453   116226630.508 7  22117183.625    90566192.27645
  21086424.070   110809946.244 8  21086428.848    86345431.98046
  23736576.922   124736568.018 7  23736583.109    97197365.699 6
  23062883.758   121196238.125 7  23062886.215    94438676.40545
  21561611.922   113307099.100 8  21561616.027    88291315.444 8
 14 11 14  4 30  0.0000000  0  7G14G32G20G16G29G23G31
  24134922.922   126829747.036 6  24134929.816    98828651.67643
  22462110.227   118039188.877 7  22462115.602    91978644.76345
  22147983.086   116388502.905 7  22147986.617    90692326.53345
  20948984.172   110087693.290 8  20948988.469    85782637.76146
  23762886.641   124874828.214 7  23762892.727    97305101.002 7
  22885821.688   120265770.832 7  22885823.906    93713637.15445
  21668942.750   113871124.304 8  21668947.070    88730815.472 8
 14 11 14  4 35  0.0000000  0  8G14G32G27G20G16G29G23G31
  24316560.328   127784258.927 6  24316565.598    99572426.80043
  22614509.547   118840052.878 7  22614515.418    92602694.40645
  25112991.539   131969630.182 6  25113000.391   102833526.124 6
  22189406.852   116606184.672 7  22189410.539    90861948.55445
  20820942.406   109414830.198 8  20820946.434    85258329.06346
  23799741.977   125068499.224 7  23799747.148    97456013.475 7
  22711422.523   119349297.648 7  22711424.602    92999502.37145
  21778804.641   114448451.452 8  21778808.160    89180680.660 8
 14 11 14  4 40  0.0000000  0  8G14G32G27G20G16G29G23G31
  24501495.078   128756094.039 6  24501502.148   100329700.25843
  22772369.367   119669609.459 7  22772374.758    93249101.88445
  24915509.938   130931852.897 6  24915518.520   102024868.055 7
  22241203.336   116878378.549 7  22241207.156    91074047.58345
  20702587.156   108792868.213 8  20702590.691    84773683.51446
  23847090.227   125317319.191 6  23847095.418    97649899.191 7
  22540097.789   118448982.772 7  22540100.328    92297958.44445
  21891082.336   115038475.515 7  21891086.789    89640439.550 7
 14 11 14  4 45  0.0000000  0  8G14G32G27G20G16G29G23G31
  24689491.164   129744012.903 6  24689496.328   101099506.44343
  22935180.867   120525188.444 7  22935186.742    93915786.60445
  24716315.258   129885076.347 6  24716323.156   101209198.283 7
  22303082.391   117203552.782 7  22303086.707    91327429.88645
  20594166.953   108223119.157 8  20594170.809    84329723.41547
  23904837.219   125620777.473 6  23904842.203    97886360.185 6
  22372272.188   117567052.718 7  22372274.746    91610740.45246
  22005671.117   115640641.774 7  22005675.270    90109659.863 7
 14 11 14  4 50  0.0000000  0  9G14G32G27G09G20G16G29G23G31
  24880300.063   130746720.864 6  24880306.910   101880836.66643
  23102428.563   121404082.604 7  23102435.355    94600638.94045
  24515922.094   128832002.430 7  24515930.605   100388621.476 7
  24768273.180   130158084.491 6  24768279.727   101421954.108 6
  22374712.000   117579968.605 7  22374715.594    91620740.76545
  20495895.406   107706699.338 8  20495899.301    83927318.52846
  23972840.430   125978136.565 6  23972844.605    98164821.825 6
  22208382.484   116705807.060 8  22208384.621    90939640.15046
  22122477.539   116254460.450 8  22122480.828    90587959.973 7
 14 11 14  4 55  0.0000000  0  8G32G27G09G20G16G29G23G31
  23273592.711   122303549.933 7  23273598.766    95301522.30945
  24314857.891   127775405.241 6  24314867.117    99565299.197 7
  24570980.875   129121309.822 6  24570987.992   100614077.859 6
  22455723.125   118005684.052 7  22455727.473    91952466.87545
  20407945.203   107244516.470 8  20407948.871    83567176.21347
  24050916.313   126388433.478 7  24050922.652    98484533.686 7
  22048876.945   115867598.619 8  22048878.887    90286490.86846
  22241416.828   116879493.446 7  22241421.008    91074998.521 7
 14 11 14  5  0  0.0000000  0  8G32G27G09G20G16G29G23G31
  23448146.141   123220836.485 7  23448151.406    96016290.83644
  24113664.258   126718135.839 7  24113671.023    98741453.263 6
  24374679.945   128089741.757 6  24374686.973    99810258.908 7
  22545711.813   118478578.226 7  22545715.680    92320955.53245
  20330448.586   106837269.507 8  20330452.164    83249841.02747
  24138844.516   126850496.729 6  24138850.023    98844582.984 6
  21894212.852   115054837.315 8  21894215.324    89653170.44246
  22362419.258   117515363.223 8  22362423.102    91570481.266 7
 14 11 14  5  5  0.0000000  0  8G32G27G09G20G16G29G23G31
  23625563.734   124153169.866 7  23625569.086    96742784.10744
  23912897.258   125663097.248 7  23912905.230    97919345.686 6
  24179748.641   127065372.326 6  24179755.902    99012049.086 7
  22644242.383   118996357.120 7  22644246.547    92724419.25845
  20263495.914   106485432.473 8  20263499.000    82975682.43746
  24236359.797   127362944.354 7  24236365.367    99243892.669 6
  21744855.969   114269961.794 8  21744858.438    89041579.19846
  22485419.367   118161732.773 7  22485423.734    92074145.677 7
 14 11 14  5 10  0.0000000  0  8G32G27G09G20G16G29G23G31
  23805318.758   125097789.082 7  23805325.223    97478850.72744
  23713119.828   124613257.351 7  23713127.004    97101289.003 7
  23986584.711   126050288.608 6  23986591.516    98221075.003 7
  22750849.148   119556581.450 7  22750853.641    93160957.56644
  20207137.875   106189269.400 7  20207141.836    82744906.12647
  24343166.133   127924212.271 6  24343172.102    99681244.241 6
  21601277.086   113515447.419 8  21601279.211    88453645.96346
  22610364.508   118818320.718 7  22610368.977    92585772.353 7
 14 11 14  5 15  0.0000000  0  8G32G27G09G20G16G29G23G31
  23986887.008   126051939.871 7  23986893.930    98222344.50244
  23514903.422   123571628.164 7  23514912.090    96289630.391 7
  23795599.172   125046655.242 7  23795606.145    97439023.353 7
  22865043.258   120156673.209 7  22865048.012    93628561.22845
  20161382.195   105948820.499 7  20161385.883    82557543.45647
  24458931.094   128532559.893 7  24458935.945   100155281.425 6
  21463947.703   112793777.514 8  21463950.000    87891305.83546
  22737207.438   119484885.130 7  22737211.355    93105172.911 7
 14 11 14  5 20  0.0000000  0  8G32G27G09G20G16G29G23G31
  24169750.211   127012891.130 6  24169757.012    98971137.42343
  23318831.836   122541263.768 7  23318839.234    95486749.478 7
  23607219.469   124056715.242 7  23607225.762    96667641.870 7
  22986311.992   120793942.730 6  22986316.520    94125134.68844
  20126195.242   105763913.742 8  20126198.512    82413460.34247
  24583292.867   129186087.846 6  24583298.168   100664524.051 6
  21333341.898   112107439.747 8  21333343.988    87356497.20646
  22865910.914   120161225.270 7  22865914.984    93632190.875 7
 14 11 14  5 25  0.0000000  0  8G32G27G09G20G16G29G23G31
  24353394.602   127977935.447 6  24353399.711    99723119.60444
  23125488.594   121525243.653 7  23125496.781    94695045.982 7
  23421885.406   123082778.301 7  23421892.953    95908730.292 7
  23114123.422   121465595.042 7  23114127.742    94648499.84044
  20101503.969   105634160.639 7  20101507.637    82312354.09446
  24715862.648   129882749.338 6  24715868.086   101207377.257 6
  21209928.492   111458900.016 8  21209931.148    86851141.61746
  22996442.539   120847172.608 7  22996447.188    94166694.949 7
 14 11 14  5 30  0.0000000  0  8G32G27G09G20G16G29G23G31
  24537306.563   128944406.615 7  24537312.898   100476213.74544
  22935467.469   120526673.965 7  22935474.527    93916940.072 7
  23240049.281   122127224.758 7  23240056.148    95164143.233 7
  23247931.563   122168761.967 7  23247935.348    95196421.86444
  20087196.117   105558973.135 7  20087199.910    82253766.51247
  24856227.977   130620374.201 6  24856233.344   101782149.930 6
  21094173.156   110850599.515 8  21094175.871    86377141.29146
  23128777.195   121542593.268 7  23128781.383    94708580.842 7
 14 11 14  5 35  0.0000000  0  9G19G32G27G09G20G16G29G23G31
  25089435.555   131845822.868 6  25089438.828   102737054.35143
  24720991.875   129909673.198 7  24720997.797   101228369.33944
  22749356.805   119548661.169 7  22749363.383    93154852.609 7
  23062173.977   121192483.458 7  23062180.754    94435773.551 7
  23387176.852   122900501.050 6  23387182.293    95766607.93544
  20083121.922   105537562.056 7  20083125.305    82237082.60947
  25003953.273   131396674.741 6  25003958.570   102387059.369 5
  20986528.008   110284920.966 8  20986530.164    85936352.83746
  23262892.500   122247373.962 7  23262897.320    95257760.192 7
 14 11 14  5 40  0.0000000  0  9G19G32G27G09G20G16G23G07G31
  24869682.648   130691016.135 6  24869686.648   101837205.17044
  24903956.250   130871158.257 6  24903962.449   101977578.24643
  22567750.492   118594313.666 7  22567758.477    92411205.603 7
  22888731.273   120281036.918 7  22888737.887    93725555.676 7
  23531291.500   123657825.289 7  23531295.152    96356730.51043
  20089096.078   105568955.510 7  20089099.367    82261545.11447
  20887435.234   109764185.482 8  20887437.793    85530584.94246
  25197185.922   132412047.212 6  25197190.262   103178272.645 6
  23398772.977   122961428.428 7  23398777.340    95814165.874 7
 14 11 14  5 45  0.0000000  0  9G19G32G27G09G20G16G23G07G31
  24648732.063   129529913.327 6  24648735.184   100932450.25843
  25085719.430   131826333.680 6  25085726.477   102721870.69843
  22391234.633   117666717.647 7  22391242.273    91688403.856 8
  22720200.070   119395399.473 7  22720206.492    93035448.753 7
  23679699.750   124437714.493 7  23679704.063    96964436.16244
  20104900.000   105652006.025 7  20104903.215    82326259.85947
  20797318.766   109290621.524 8  20797321.750    85161574.07046
  25038518.703   131578245.116 7  25038523.156   102528556.552 5
  23536403.836   123684682.962 7  23536408.770    96377740.326 7
 14 11 14  5 50  0.0000000  0  9G19G32G27G09G20G16G23G07G31
  24427125.609   128365363.943 6  24427128.191   100025009.53543
  25265813.063   132772731.966 6  25265819.445   103459323.65243
  22220391.430   116768929.524 7  22220398.496    90988829.058 8
  22557063.813   118538113.977 7  22557070.078    92367434.224 7
  23831822.188   125237125.120 6  23831827.094    97587353.34444
  20130284.961   105785405.986 8  20130288.512    82430207.91147
  20716583.773   108866354.624 8  20716586.273    84830976.50846
  24879334.352   130741729.122 7  24879339.398   101876726.050 6
  23675775.266   124417078.516 7  23675780.305    96948437.723 7
 14 11 14  5 55  0.0000000  0  9G19G32G27G09G20G16G23G07G31
  24205418.578   127200291.550 6  24205422.145    99117161.28044
  25443778.359   133707948.518 4
  22055791.867   115903956.947 8  22055799.613    90314824.822 8
  22399809.359   117711735.215 8  22399816.000    91723502.809 8
  23987080.602   126053011.419 6  23987085.902    98223108.58243
  20164974.688   105967702.630 7  20164978.223    82572257.26147
  20645609.391   108493380.208 8  20645612.090    84540347.08447
  24719674.930   129902712.988 7  24719680.855   101222947.409 6
  23816874.320   125158561.934 7  23816880.137    97526216.580 7
 14 11 14  6  0  0.0000000  0  8G19G27G09G20G16G23G07G31
  23984183.672   126037692.886 7  23984188.453    98211240.75345
  21897997.711   115074744.744 8  21898004.449    89668685.826 8
  22248922.258   116918818.350 7  22248928.586    91105645.634 8
  24144894.859   126882333.698 6  24144900.961    98869333.56943
  20208667.961   106197312.231 8  20208671.367    82751173.85247
  20584747.438   108173550.564 8  20584749.727    84291129.17946
  24559589.766   129061459.153 7  24559594.773   100567424.885 6
  23959694.141   125909083.777 7  23959700.332    98111038.272 7
 14 11 14  6  5  0.0000000  0  8G19G27G09G20G16G23G07G31
  23764001.180   124880628.130 7  23764003.727    97309632.17044
  21747553.766   114284156.726 8  21747560.402    89052643.649 8
  22104886.250   116161902.905 8  22104891.668    90515841.450 8
  24304692.094   127722070.168 6  24304697.031    99523673.52643
  20261041.859   106472538.886 8  20261045.652    82965636.19947
  20534320.102   107908552.197 8  20534322.035    84084636.94046
  24399138.375   128218283.261 6  24399144.512    99910404.880 6
  24104223.719   126668593.206 6  24104230.766    98702863.215 7
 14 11 14  6 10  0.0000000  0  9G19G27G09G20G16G23G07G10G31
  23545464.500   123732213.180 7  23545467.918    96414763.73645
  21604985.359   113534957.564 7  21604992.320    88468852.421 8
  21968177.273   115443496.445 7  21968183.605    89956044.323 8
  24465899.852   128569227.933 6  24465905.711   100183796.43943
  20321754.516   106791586.391 8  20321758.113    83214244.65147
  20494612.258   107699887.006 8  20494614.605    83922040.64946
  24238392.063   127373557.626 7  24238396.473    99252177.396 6
  24691275.273   129753491.004 6  24691280.305   101106656.98443
  24250455.219   127437030.814 7  24250459.926    99301645.074 6
 14 11 14  6 15  0.0000000  0  9G19G27G09G20G16G23G07G10G31
  23329175.898   122595613.176 7  23329181.465    95529101.75445
  21470798.086   112829798.191 7  21470804.797    87919377.871 8
  21839265.383   114766060.451 7  21839272.449    89428172.222 8
  24627960.500   129420856.560 6  24627965.914   100847402.95243
  20390450.117   107152582.449 8  20390453.125    83495540.30747
  20465873.086   107548860.213 8  20465875.430    83804357.40446
  24077433.586   126527717.459 7  24077438.629    98593081.454 6
  24663764.242   129608919.304 5  24663768.641   100994003.69142
  24398370.047   128214330.772 7  24398374.488    99907332.916 6
 14 11 14  6 20  0.0000000  0  9G19G27G09G20G16G23G07G10G31
  23115747.539   121474035.038 7  23115750.617    94655145.08245
  21345470.031   112171198.331 7  21345477.359    87406183.458 8
  21718607.047   114131993.550 7  21718612.719    88934094.222 8
  24790318.344   130274053.589 6  24790323.492   101512231.77842
  20466758.984   107553590.009 8  20466762.238    83808013.74147
  20448309.352   107456563.728 8  20448311.586    83732438.01346
  23916358.898   125681263.839 7  23916364.902    97933507.451 6
  24646625.594   129518855.888 6  24646630.441   100923824.39643
  24547956.000   129000412.214 7  24547962.367   100519863.353 6
 14 11 14  6 25  0.0000000  0  9G19G27G09G20G16G23G07G10G31
  22905790.211   120370708.249 7  22905793.977    93795410.26245
  21229452.258   111561521.722 7  21229459.152    86931111.053 8
  21606640.141   113543606.064 8  21606646.711    88475610.533 8
  24952433.414   131125971.357 6  24952438.699   102176063.73843
  20550304.586   107992623.443 8  20550308.246    84150117.68847
  20442085.500   107423857.353 8  20442088.180    83706952.43046
  23755276.102   124834764.235 7  23755280.195    97273897.559 7
  24639819.578   129483093.151 6  24639825.621   100895957.28443
  24699194.859   129795173.988 6  24699200.348   101139157.675 6
 14 11 14  6 30  0.0000000  0  9G19G27G09G20G16G23G07G10G31
  22699924.813   119288880.688 7  22699928.801    92952428.03045
  21123162.102   111002963.055 8  21123168.863    86495870.787 8
  21503786.391   113003106.254 8  21503792.422    88054441.861 8
  25113774.500   131973823.769 6  25113779.133   102836727.97942
  20640701.461   108467662.898 8  20640704.754    84520278.28646
  20447319.695   107451360.027 8  20447321.742    83728382.98247
  23594304.766   123988857.080 7  23594308.934    96614749.455 6
  24643263.430   129501187.760 6  24643269.211   100910056.86343
  24852059.984   130598490.336 6  24852067.523   101765118.036 6
 14 11 14  6 35  0.0000000  0  8G19G27G09G16G23G07G10G31
  22498769.703   118231799.890 7  22498773.133    92128729.08645
  21026981.461   110497530.760 8  21026987.500    86102027.676 8
  21410442.438   112512580.529 8  21410448.598    87672214.025 8
  20737562.789   108976672.511 8  20737566.027    84916909.10546
  20464080.828   107539441.542 8  20464083.035    83797017.80147
  23433582.156   123144257.257 7  23433586.301    95956620.141 7
  24656826.219   129572460.839 6  24656831.816   100965594.25643
  25006526.664   131410210.854 6  25006532.566   102397627.127 6
 14 11 14  6 40  0.0000000  0  8G19G27G09G16G23G07G10G31
  22302939.539   117202708.460 7  22302942.785    91326840.03245
  20941253.820   110047032.244 8  20941260.758    85750990.071 8
  21326978.625   112073975.955 8  21326985.004    87330444.216 8
  20840500.563   109517614.003 8  20840503.906    85338421.88446
  20492392.438   107688216.835 8  20492394.914    83912946.46146
  23273259.852   122301757.677 7  23273263.695    95300127.259 6
  24680335.250   129696002.043 6  24680340.535   101061860.00143
  25162557.711   132230157.075 5  25162563.473   103036545.876 6
 14 11 14  6 45  0.0000000  0  7G19G27G09G16G23G07G10
  22113047.391   116204822.449 7  22113050.863    90549266.88446
  20866284.570   109653064.318 8  20866290.645    85444002.258 8
  21253736.695   111689086.543 8  21253743.320    87030530.426 8
  20949129.703   110088464.742 8  20949132.941    85783240.59146
  20532226.328   107897546.344 8  20532228.555    84076060.22746
  23113503.742   121462238.050 7  23113508.402    94645956.404 7
  24713576.813   129870684.600 6  24713581.941   101197976.15843
 14 11 14  6 50  0.0000000  0  8G19G27G09G21G16G23G07G10
  21929697.273   115241313.419 7  21929700.918    89798480.96546
  20802330.914   109316987.118 8  20802337.227    85182124.071 8
  21191023.133   111359522.171 8  21191029.305    86773727.000 8
  25906163.273   136137792.218 6  25906167.840   106081426.11842
  21063068.453   110687217.658 7  21063072.609    86249801.23046
  20583505.953   108167023.651 8  20583508.359    84286042.39046
  22954497.930   120626654.470 7  22954502.461    93994852.578 7
  24756292.930   130095156.707 6  24756297.844   101372889.26643
 14 11 14  6 55  0.0000000  0  8G19G27G09G21G16G23G07G10
  21753481.203   114315290.091 8  21753484.371    89076904.69046
  20749606.164   109039919.143 8  20749612.777    84966227.088 8
  21139106.203   111086697.899 8  21139112.633    86561136.625 8
  25884550.391   136024211.206 6  25884553.656   105992921.51942
  21181941.422   111311897.952 7  21181945.059    86736565.03746
  20646104.688   108495980.799 8  20646107.203    84542372.49846
  22796438.305   119796046.233 7  22796442.457    93347625.528 7
  24808186.680   130367861.413 6  24808192.344   101585386.40143
 14 11 14  7  0  0.0000000  0  9G19G13G27G09G21G16G23G07G10
  21584975.594   113429790.847 7  21584979.480    88386905.66546
  24643510.453   129502471.108 5  24643516.625   100911078.79642
  20708278.250   108822737.659 8  20708284.813    84796994.887 8
  21098217.875   110871827.908 8  21098223.996    86393705.420 8
  25870185.953   135948729.605 6  25870190.563   105934104.86642
  21305382.313   111960583.127 8  21305385.785    87242033.89446
  20719847.953   108883503.896 8  20719850.883    84844338.37346
  22639541.563   118971548.149 7  22639545.148    92705159.608 7
  24868927.648   130687055.863 6  24868933.137   101834109.23343
 14 11 14  7  5  0.0000000  0  9G19G13G27G09G21G16G23G07G10
  21424740.164   112587748.296 8  21424743.508    87730768.99346
  24443476.078   128451276.145 6  24443479.691   100091965.68143
  20678462.719   108666054.901 8  20678468.672    84674904.555 8
  21068544.391   110715893.854 7  21068551.137    86272198.291 8
  25863237.617   135912214.649 6  25863242.125   105905651.87842
  21433033.438   112631393.357 8  21433037.023    87764743.07546
  20804513.031   109328421.090 8  20804515.828    85191026.96146
  22484038.180   118154373.159 7  22484042.578    92068400.007 7
  24938147.016   131050810.743 6  24938153.219   102117554.39843
 14 11 14  7 10  0.0000000  0  9G19G13G27G09G21G16G23G07G10
  21273310.953   111791983.032 8  21273314.082    87110692.45346
  24247541.383   127421633.472 7  24247545.602    99289646.77043
  20660226.859   108570227.619 8  20660232.992    84600234.054 8
  21050229.188   110619646.635 8  21050235.500    86197200.403 8
  25863839.266   135915377.687 6  25863843.609   105908116.58642
  21564549.047   113322512.480 8  21564552.688    88303277.36846
  20899832.383   109829326.383 8  20899835.164    85581342.63146
  22330176.234   117345826.426 7  22330180.254    91438363.743 7
  25015448.938   131457032.737 6  25015454.383   102434091.02842
 14 11 14  7 15  0.0000000  0 10G19G13G30G27G09G21G16G23G07G10
  21131198.383   111045178.941 8  21131201.617    86528767.43646
  24056245.063   126416365.078 6  24056249.207    98506320.89443
  24939616.016   131058491.404 5  24939623.340   102123597.549 6
  20653590.516   108535353.389 8  20653596.629    84573059.418 8
  21043368.547   110583593.902 8  21043375.129    86169107.287 8
  25872097.258   135958773.473 5
  21699597.180   114032194.720 8  21699600.570    88856276.44146
  21005494.914   110384587.809 8  21005497.840    86014013.66046
  22178222.469   116547302.336 8  22178226.609    90816137.376 7
  25100404.781   131903477.238 6  25100410.070   102781969.87643
 14 11 14  7 20  0.0000000  0 10G19G13G30G27G09G21G16G23G07G10
  20998884.734   110349866.394 8  20998887.676    85986965.71646
  23870129.234   125438318.756 7  23870133.105    97744206.91243
  24761892.094   130124551.835 6  24761899.887   101395852.562 6
  20658522.297   108561270.356 8  20658528.430    84593254.514 8
  21048011.195   110607990.703 8  21048017.930    86188117.662 8
  25888085.516   136042792.787 6  25888089.613   106007395.40642
  21837858.938   114758765.459 8  21837862.668    89422435.36146
  21121150.078   110992359.505 8  21121153.156    86487601.76346
  22028457.016   115760281.844 7  22028461.254    90202874.784 7
  25192562.156   132387769.415 6  25192568.512   103159340.10043
 14 11 14  7 25  0.0000000  0 11G19G13G30G27G09G21G16G23G07G10G11
  20876816.289   109708394.097 8  20876819.199    85487117.39646
  23689736.813   124490350.489 7  23689741.445    97005530.39844
  24583738.461   129188344.301 7  24583745.766   100666340.640 6
  20674942.484   108647559.050 8  20674948.910    84660492.533 8
  21064156.188   110692832.553 8  21064162.559    86254228.130 8
  25911845.727   136167657.020 6  25911849.313   106104692.39743
  21979029.641   115500624.580 7  21979033.512    90000507.24846
  21246408.695   111650595.298 8  21246411.539    87000512.54046
  21881178.516   114986329.081 7  21881182.602    89599794.781 7
  25291445.938   132907408.642 6  25291452.434   103564253.58342
  25473610.852   133864691.105 6  25473615.527   104310190.09943
 14 11 14  7 30  0.0000000  0 10G19G13G30G27G09G21G16G23G07G11
  20765404.289   109122918.948 8  20765406.895    85030903.21546
  23515611.781   123575318.709 7  23515616.148    96292518.74544
  24405328.805   128250802.387 6  24405336.426    99935788.891 6
  20702724.336   108793553.692 8  20702730.898    84774254.632 8
  21091753.852   110837856.885 8  21091759.922    86367233.995 8
  25943390.109   136333427.369 4
  22122821.898   116256255.167 7  22122825.516    90589310.16846
  21380845.945   112357066.069 7  21380848.375    87551009.05446
  21736700.672   114227094.103 7  21736704.840    89008183.233 7
  25277643.828   132834887.320 5  25277650.828   103507745.52242
 14 11 14  7 35  0.0000000  0  9G19G13G30G27G09G16G23G07G11
  20665016.219   108595377.708 8  20665018.660    84619832.32946
  23348293.148   122696054.273 7  23348297.984    95607377.73944
  24226858.844   127312936.427 6  24226866.641    99204984.618 6
  20741693.945   108998342.012 8  20741700.488    84933829.996 8
  21130702.516   111042534.462 8  21130709.148    86526722.849 8
  22268959.758   117024215.441 8  22268963.680    91187720.64445
  21524004.336   113109369.585 8  21524007.258    88137219.40446
  21595351.281   113484297.582 8  21595355.770    88429380.859 7
  25079207.172   131792082.094 6  25079212.094   102695169.88543
 14 11 14  7 40  0.0000000  0  9G19G13G30G27G09G16G23G07G11
  20575977.773   108127479.093 7  20575980.402    84255236.18346
  23188314.828   121855360.815 7  23188318.457    94952291.95944
  24048536.773   126375846.644 6  24048544.109    98474785.130 7
  20791635.992   109260789.052 8  20791642.523    85138334.198 8
  21180854.609   111306084.620 8  21180861.285    86732086.487 8
  22417187.766   117803154.853 7  22417191.559    91794686.25845
  21675400.781   113904961.361 8  21675403.555    88757160.85446
  21457472.750   112759740.859 7  21457477.016    87864791.240 7
  24878748.680   130738674.111 6  24878754.848   101874332.54743
 14 11 14  7 45  0.0000000  0  9G19G13G30G27G09G16G23G07G11
  20498568.273   107720689.450 8  20498571.105    83938257.42647
  23036198.852   121055985.195 7  23036203.063    94329401.93145
  23870587.922   125440719.540 6  23870594.770    97746114.823 7
  20852293.492   109579545.832 8  20852299.402    85386716.135 8
  21242012.781   111627475.072 8  21242019.926    86982520.507 8
  22567263.063   118591807.308 7  22567266.441    92409220.46945
  21834524.898   114741164.211 8  21834528.125    89408747.31546
  21323421.313   112055295.386 8  21323425.758    87315872.779 7
  24676748.008   129677146.568 6  24676753.820   101047168.13243
 14 11 14  7 50  0.0000000  0 10G19G13G30G27G09G04G16G23G07G11
  20433017.664   107376218.604 8  20433020.219    83669838.73747
  22892455.031   120300608.369 7  22892459.742    93740796.60545
  23693255.516   124508833.697 6  23693261.879    97019970.250 7
  20923372.180   109953068.553 8  20923378.848    85677772.836 8
  21313936.328   112005434.262 8  21313943.047    87277034.054 8
  25117237.938   131992199.392 6  25117244.492   102850908.71243
  22718963.180   119388996.699 7  22718966.809    93030406.80745
  22000847.219   115615193.024 8  22000849.582    90089808.52545
  21193565.305   111372900.171 8  21193569.449    86784136.313 7
  24473689.305   128610068.013 6  24473696.285   100215678.24244
 14 11 14  7 55  0.0000000  0 10G19G13G30G27G09G04G16G23G07G11
  20379503.578   107095000.846 8  20379506.156    83450708.15947
  22757574.727   119591809.172 7  22757579.492    93188485.63444
  23516798.961   123581548.885 6  23516806.168    96297410.803 7
  21004543.617   110379625.165 8  21004549.746    86010154.618 8
  21396337.094   112438451.068 8  21396343.285    87614449.552 8
  24929337.531   131004776.716 6  24929344.227   102081488.34643
  22872079.617   120193628.531 7  22872083.320    93657392.48945
  22173818.508   116524162.002 7  22173821.418    90798095.85045
  21068284.727   110714544.193 8  21068288.703    86271131.703 7
  24270076.328   127540076.222 6  24270082.477    99381918.59943
 14 11 14  8  0  0.0000000  0 11G19G13G30G27G09G04G16G23G07G28G11
  20338152.734   106877701.765 8  20338155.500    83281384.31047
  22632029.594   118932062.549 7  22632033.461    92674397.41145
  23341495.117   122660319.557 6  23341501.793    95579569.920 7
  21095446.750   110857325.993 8  21095453.246    86382389.018 8
  21488886.414   112924799.600 8  21488892.734    87993422.257 8
  24739669.609   130008068.440 6  24739676.055   101304832.62343
  23026420.289   121004695.557 7  23026425.297    94289392.63645
  22352875.836   117465112.665 8  22352879.313    91531303.98045
  20947966.922   110082270.101 8  20947970.824    85778450.666 8
  25103397.648   131919208.818 6  25103402.805   102794231.01542
  24066426.242   126469888.128 7  24066431.391    98548005.96544
 14 11 14  8  5  0.0000000  0 11G19G13G30G27G09G04G16G23G07G28G11
  20309037.016   106724698.233 8  20309039.770    83162160.88647
  22516262.273   118323702.914 7  22516266.176    92200351.03945
  23167635.023   121746683.402 7  23167642.539    94867645.917 7
  21195694.516   111384131.706 8  21195700.910    86792886.964 8
  21591215.477   113462542.167 8  21591222.051    88412442.197 8
  24548766.406   129004862.604 6  24548772.699   100523113.84243
  23181810.711   121821272.124 7  23181814.555    94925685.89145
  22537443.781   118435022.373 8  22537445.879    92287077.62145
  20833007.383   109478154.575 8  20833011.289    85307711.340 8
  24966113.719   131197783.626 5  24966120.613   102232081.54042
  23863268.211   125402284.044 7  23863273.141    97716106.83544
 14 11 14  8 10  0.0000000  0 11G19G13G30G27G09G04G16G23G07G28G11
  20292174.477   106636085.409 8  20292177.020    83093112.03347
  22410688.695   117768909.561 7  22410693.199    91768044.56345
  22995529.484   120842263.412 7  22995536.105    94162903.281 7
  21304874.602   111957876.021 8  21304880.773    87239960.455 8
  21702919.156   114049548.206 8  21702925.652    88869849.311 8
  24357172.250   127998033.702 6  24357179.871    99738572.10943
  23338086.609   122642511.523 7  23338090.457    95565612.49544
  22726937.766   119430822.802 7  22726940.848    93063025.89744
  20723806.797   108904301.377 8  20723810.918    84860553.092 8
  24830616.344   130485735.417 6  24830621.324   101677238.92643
  23661141.414   124340105.196 7  23661146.609    96888435.36144
 14 11 14  8 15  0.0000000  0 11G19G13G30G27G09G04G16G23G07G28G11
  20287530.344   106611680.263 8  20287532.863    83074095.12047
  22315691.023   117269693.845 7  22315695.379    91379045.37245
  22825504.367   119948774.306 7  22825511.070    93466678.178 7
  21422555.359   112576292.620 7  21422561.926    87721843.465 8
  21823559.422   114683518.026 7  21823566.695    89363851.556 8
  24165453.906   126990545.796 7  24165460.055    98953516.95843
  23495105.578   123467651.527 7  23495110.051    96208578.53244
  22920771.258   120449422.409 7  22920774.477    93856739.66544
  20620769.406   108362835.679 7  20620773.555    84438631.789 8
  24696885.328   129782972.697 6  24696890.633   101129631.79343
  23460600.258   123286254.940 7  23460605.438    96067253.64744
 14 11 14  8 20  0.0000000  0 11G19G13G30G27G09G04G16G23G07G28G11
  20295016.484   106651020.037 8  20295018.578    83104749.57647
  22231614.719   116827868.915 7  22231618.289    91034766.24645
  22657899.633   119068008.260 7  22657906.582    92780367.179 7
  21548288.234   113237023.085 8  21548294.594    88236698.355 8
  21952668.164   115361988.957 7  21952675.273    89892530.047 8
  23974186.992   125985433.082 6  23974194.746    98170312.59944
  23652736.523   124296003.264 7  23652739.887    96854047.12544
  23118350.047   121487710.628 7  23118353.824    94665795.24144
  20524299.258   107855881.249 7  20524303.113    84043602.394 8
  24564897.055   129089369.393 6  24564901.395   100589162.19143
  23262204.461   122243680.944 7  23262208.949    95254858.63644
 14 11 14  8 25  0.0000000  0 11G19G13G30G27G09G04G16G23G07G28G11
  20314493.563   106753372.221 8  20314495.668    83184504.59247
  22158762.805   116445033.167 7  22158767.527    90736452.70545
  22493073.117   118201838.148 7  22493080.074    92105429.619 7
  21681611.781   113937642.291 8  21681617.816    88782635.361 8
  22089750.891   116082358.880 7  22089757.535    90453857.073 8
  23783963.305   124985801.199 6  23783969.590    97391379.04044
  23810859.977   125126948.969 7  23810865.148    97501537.04044
  23319085.422   122542577.200 6  23319089.117    95487768.99344
  20434798.313   107385553.664 7  20434803.020    83677113.412 8
  24434621.414   128404771.224 6  24434625.941   100055709.56243
  23066523.930   121215371.935 7  23066528.973    94453579.18745
 14 11 14  8 30  0.0000000  0 12G19G13G30G27G09G04G16G23G07G28G11G01
  20345772.727   106917746.606 8  20345775.129    83312588.60247
  22097398.297   116122557.723 7  22097402.441    90485173.17145
  22331394.445   117352212.024 8  22331400.844    91443383.395 7
  21822054.672   114675675.385 7  21822060.852    89357726.051 8
  22234286.805   116841903.832 7  22234294.043    91045710.124 7
  23595384.789   123994817.823 6  23595391.566    96619184.57944
  23969374.055   125959943.743 6  23969378.664    98150623.67944
  23522384.484   123610922.757 6  23522388.570    96320245.87744
  20352665.711   106953942.612 8  20352669.668    83340793.173 8
  24306026.828   127729003.598 6  24306031.453    99529137.76743
  22874133.156   120204350.293 7  22874137.855    93665770.51545
  24981278.867   131277468.442 5  24981287.563   102294195.306 6
 14 11 14  8 35  0.0000000  0 12G19G13G30G27G09G04G16G23G07G28G11G01
  20388618.688   107142904.597 7  20388621.477    83488036.44847
  22047732.508   115861564.620 7  22047736.438    90281801.90745
  22173247.570   116521145.844 7  22173254.426    90795799.489 7
  21969139.734   115448612.386 7  21969146.465    89960014.578 8
  22385740.156   117637792.999 7  22385747.070    91665883.363 7
  23409064.695   123015700.068 6  23409071.414    95856236.00044
  24128185.734   126794503.916 6  24128189.715    98800930.03843
  23727663.445   124689669.361 6  23727666.926    97160827.53144
  20278289.563   106563093.899 7  20278293.551    83036235.743 8
  24179074.625   127061870.588 6  24179078.961    99009294.22243
  22685609.305   119213654.442 7  22685614.070    92893800.12045
  24784115.086   130241371.688 6  24784124.492   101486847.238 6
 14 11 14  8 40  0.0000000  0 12G19G13G30G27G09G04G16G23G07G28G11G01
  20442752.328   107427379.936 7  20442754.930    83709705.58947
  22009932.023   115662919.179 8  22009936.281    90127013.19945
  22019029.148   115710721.101 7  22019035.688    90164299.798 7
  22122386.977   116253929.606 7  22122393.109    90587534.445 7
  22543553.961   118467110.455 7  22543560.738    92312104.595 7
  23225623.078   122051710.062 6  23225628.102    95105075.29944
  24287215.883   127630210.377 6  24287220.406    99452129.58344
  23934343.586   125775775.343 7  23934345.316    98007143.70543
  20212049.641   106214999.256 7  20212054.039    82764993.178 8
  24053726.125   126403164.798 6  24053732.234    98496017.30943
  22501534.570   118246335.925 7  22501539.922    92140045.82045
  24585544.047   129197870.535 6  24585553.863   100673729.352 6
 14 11 14  8 45  0.0000000  0 12G19G13G30G27G09G04G16G23G07G28G11G01
  20507854.328   107769490.779 8  20507856.535    83976285.50247
  21984108.133   115527213.357 8  21984112.258    90021268.32745
  21869143.953   114923072.139 8  21869150.750    89550547.424 8
  22281313.273   117089098.431 7  22281320.148    91238315.272 7
  22707159.953   119326866.645 7  22707167.500    92982044.377 7
  23045686.781   121106137.048 7  23045692.012    94368265.52844
  24446394.352   128466698.152 7  24446399.941   100103937.92544
  24141851.570   126866235.559 7  24141853.723    98856852.84044
  20154309.508   105911572.115 8  20154313.449    82528556.444 8
  23929942.438   125752667.859 7  23929946.789    97989136.87344
  22322487.063   117305440.055 7  22322492.434    91406880.48945
  24386094.367   128149749.428 6  24386104.152    99857011.622 7
 14 11 14  8 50  0.0000000  0 12G19G13G30G27G09G04G16G23G07G28G11G01
  20583566.891   108167365.318 8  20583569.570    84286317.64547
  21970321.508   115454764.241 7  21970325.820    89964814.38645
  21724009.836   114160386.131 8  21724016.559    88956246.724 8
  22445444.000   117951608.349 7  22445450.594    91910400.856 7
  22875980.320   120214023.431 7  22875987.805    93673335.225 7
  22869884.617   120182293.071 7  22869891.406    93648387.45245
  24605663.305   129303660.267 6  24605667.406   100756115.99543
  24349625.797   127958103.417 6  24349630.570    99707658.83143
  20105416.969   105654640.419 8  20105420.441    82328349.905 8
  23807676.719   125110162.409 6  23807681.016    97488483.44244
  22149046.023   116393999.829 7  22149050.641    90696667.60745
  24186307.242   127099872.049 5  24186317.117    99038925.554 6
 14 11 14  8 55  0.0000000  0 12G19G13G30G27G09G04G16G23G07G28G11G01
  20669502.188   108618957.934 8  20669504.695    84638208.01546
  21968577.672   115445601.904 7  21968582.566    89957674.78745
  21584048.961   113424885.608 8  21584055.137    88383129.529 8
  22614304.031   118838971.703 7  22614310.379    92601852.741 7
  23049429.211   121125501.609 6  23049436.883    94383577.823 7
  22698847.891   119283491.380 7  22698852.969    92948022.88344
  24764971.164   130140834.170 6  24764976.551   101408459.16843
  24557119.969   129048486.926 5  24557124.121   100557308.43443
  20065698.391   105445919.013 8  20065702.133    82165709.863 8
  23686891.219   124475431.359 7  23686896.344    96993887.99944
  21981780.859   115515014.524 7  21981784.703    90011744.23545
  23986747.266   126051168.519 6  23986756.461    98221754.141 7
 14 11 14  9  0  0.0000000  0 12G19G13G30G27G09G04G16G23G07G28G11G01
  20765241.852   109122073.007 8  20765244.363    85030245.72946
  21978829.148   115499472.543 7  21978833.398    89999651.75745
  21449689.695   112718823.844 8  21449696.133    87832951.601 8
  22787427.859   119748741.623 7  22787433.926    93310764.291 7
  23226916.164   122058201.923 7  23226923.492    95110357.182 7
  22533205.859   118413036.627 7  22533211.414    92269746.76045
  24924281.070   130978004.796 6  24924285.313   102060799.80643
  24763791.367   130134564.129 5  24763797.500   101403602.55542
  20035457.688   105287002.327 8  20035461.680    82041878.661 8
  23567546.359   123848267.240 7  23567549.625    96505188.91644
  21821253.461   114671438.305 8  21821257.234    89354412.35546
  23787978.273   125006633.667 6  23787987.488    97407831.111 7
 14 11 14  9  5  0.0000000  0 12G19G13G30G27G09G04G16G23G07G28G11G01
  20870343.453   109674385.217 8  20870345.836    85460618.86146
  22000972.766   115615833.408 7  22000976.262    90090322.40145
  21321363.805   112044468.723 8  21321370.477    87307480.118 8
  22964358.156   120678517.707 7  22964364.219    94035265.116 7
  23407850.555   123009014.230 7  23407857.133    95851249.753 7
  22373581.359   117574205.573 7  22373587.035    91616112.50645
  25083554.539   131814994.846 6  25083558.629   102712999.73343
  24969126.070   131213585.25714
  20014970.336   105179340.965 8  20014974.730    81957986.643 8
  23449603.203   123228473.491 7  23449607.844    96022232.96144
  21668013.523   113866161.448 8  21668017.848    88726924.12846
  23590582.977   123969315.693 7  23590591.895    96599531.862 6
 14 11 14  9 10  0.0000000  0 11G19G13G30G27G09G04G16G07G28G11G01
  20984343.008   110273458.578 7  20984345.676    85927429.26846
  22034849.008   115793856.236 8  22034853.805    90229041.28445
  21199503.883   111404089.960 8  21199510.602    86808483.744 8
  23144649.563   121625955.111 7  23144655.988    94773527.951 7
  23591638.398   123974830.684 7  23591646.594    96603833.855 7
  22220589.281   116770228.415 8  22220595.125    90989637.13745
  25242766.008   132651661.318 5  25242772.207   103364947.69543
  20004482.281   105124225.649 8  20004486.289    81915039.637 8
  23333028.414   122615870.109 6  23333031.770    95544879.95844
  21522596.938   113101991.170 8  21522601.254    88131466.99746
  23395149.875   122942306.697 6  23395156.793    95799265.459 6
 14 11 14  9 15  0.0000000  0 12G19G13G26G30G27G09G04G16G07G28G11G01
  21106762.727   110916777.070 8  21106765.438    86428716.41046
  22080250.352   116032441.907 7  22080254.813    90414951.99245
  24374139.586   128086952.240 6  24374145.156    99808046.29343
  21084539.922   110799950.814 8  21084546.730    86337726.014 8
  23327868.141   122588778.789 7  23327875.438    95523780.113 7
  23777695.492   124952563.542 6  23777702.918    97365703.431 7
  22074832.859   116004275.699 8  22074838.855    90392791.15045
  25401898.211   133487894.557 6  25401901.523   104016557.87642
  20004207.242   105122781.568 8  20004211.500    81913914.333 8
  23217792.484   122010304.538 7  23217796.652    95073011.05945
  21385518.594   112381640.604 8  21385522.449    87570155.06746
  23202273.211   121928739.769 7  23202282.305    95009473.513 7
 14 11 14  9 20  0.0000000  0 11G19G13G26G30G27G09G04G07G28G11G01
  21237109.609   111601754.434 8  21237111.984    86962465.00446
  22136915.570   116330218.657 7  22136919.977    90646985.62745
  24246884.352   127418220.044 6  24246889.422    99286956.24942
  20976897.578   110234285.601 8  20976903.941    85896947.957 8
  23513596.367   123564782.760 7  23513601.543    96284302.596 7
  23965436.234   125939148.104 6  23965443.258    98134470.545 7
  21936900.023   115279432.186 8  21936905.297    89827978.29945
  20014324.078   105175943.822 8  20014327.488    81955339.411 8
  23103871.758   121411647.682 7  23103876.035    94606525.53145
  21257271.727   111707700.513 8  21257276.027    87045007.13246
  23012556.570   120931771.034 7  23012563.750    94232615.088 7
 14 11 14  9 25  0.0000000  0 12G19G13G26G30G27G09G04G17G07G28G11G01
  21374883.297   112325761.098 8  21374885.734    87526626.02246
  22204534.266   116685557.580 7  22204538.750    90923872.98445
  24129770.711   126802781.726 7  24129775.898    98807393.82843
  20876993.664   109709287.435 8  20877000.246    85487858.507 8
  23701426.539   124551838.942 7  23701433.422    97053437.133 7
  24154284.570   126931556.048 6  24154293.969    98907775.304 7
  21807356.383   114598678.827 7  21807361.988    89297521.42045
  25123030.266   132022384.759 6  25123035.871   102874626.301 6
  20034971.820   105284450.231 8  20034975.840    82039889.785 8
  22991247.594   120819804.663 7  22991252.160    94145349.44345
  21138324.359   111082627.671 8  21138328.527    86557937.54646
  22826600.469   119954570.933 7  22826609.648    93471160.784 7
 14 11 14  9 30  0.0000000  0 12G19G13G26G30G27G09G04G17G07G28G11G01
  21519579.773   113086145.717 8  21519582.195    88119133.49546
  22282751.984   117096591.563 7  22282756.133    91244159.03245
  24023197.672   126242735.611 6  24023202.137    98370994.22443
  20785235.273   109227096.536 8  20785242.246    85112125.386 8
  23890971.734   125547907.017 6  23890978.957    97829593.957 7
  24343675.523   127926809.525 6  24343682.660    99683297.432 6
  21686747.953   113964877.510 8  21686753.004    88803650.53946
  24936372.227   131041495.929 6  24936379.027   102110297.636 6
  20066253.805   105448837.766 8  20066258.082    82167983.893 8
  22879909.391   120234721.939 7  22879913.344    93689441.10445
  21029115.047   110508728.684 8  21029118.895    86110743.70846
  22645012.438   119000317.190 7  22645020.285    92727586.700 7
 14 11 14  9 35  0.0000000  0 12G19G13G26G30G27G09G04G17G07G28G11G01
  21670692.172   113880245.593 7  21670694.324    88737912.56046
  22371167.992   117561222.429 7  22371173.184    91606208.84845
  23927524.461   125739966.796 6  23927528.895    97979226.29243
  20702015.805   108789773.784 8  20702022.168    84771354.412 8
  24081859.672   126551029.182 6  24081866.078    98611247.576 6
  24533050.250   128921979.614 6  24533058.398   100458754.536 7
  21575590.422   113380740.924 8  21575595.887    88348479.44446
  24752173.141   130073520.057 6  24752179.500   101356030.757 6
  20108230.031   105669422.552 8  20108233.961    82339868.046 8
  22769855.383   119656385.064 7  22769859.316    93238789.30245
  20930048.789   109988133.043 8  20930053.121    85705084.93846
  22468391.922   118072171.381 7  22468400.449    92004356.517 7
 14 11 14  9 40  0.0000000  0 12G19G13G26G30G27G09G04G17G07G28G11G01
  21827715.664   114705408.039 8  21827717.977    89380896.24846
  22469344.805   118077143.870 7  22469349.324    92008225.26745
  23843065.313   125296133.360 7  23843070.359    97633381.89943
  20627709.102   108399289.539 8  20627715.734    84467080.982 8
  24273735.703   127559339.594 7  24273742.027    99396943.865 6
  24721864.344   129914200.268 6  24721871.660   101231913.493 6
  21474368.695   112848817.944 8  21474373.980    87933994.24446
  24570672.555   129119724.500 6  24570677.746   100612813.565 6
  20160918.836   105946302.296 8  20160922.789    82555618.373 8
  22661091.469   119084825.922 7  22661095.586    92793418.74145
  20841495.602   109522783.095 8  20841499.367    85342474.74846
  22297336.516   117173270.616 7  22297344.996    91303914.644 7
 14 11 14  9 45  0.0000000  0 12G19G13G26G30G27G09G04G17G07G28G11G01
  21990150.633   115559009.104 7  21990152.406    90046039.92046
  22576807.625   118641862.337 7  22576812.301    92448265.29645
  23770091.523   124912652.895 6  23770096.590    97334565.84243
  20562670.172   108057508.084 8  20562676.723    84200757.776 8
  24466261.820   128571067.858 7  24466267.195   100185303.431 6
  24909583.867   130900677.095 5  24909591.141   102000596.703 6
  21383532.844   112371473.681 8  21383537.699    87562037.87646
  24392100.758   128181324.511 6  24392105.914    99881592.954 6
  20224296.008   106279352.854 8  20224300.129    82815138.176 8
  22553633.664   118520131.313 7  22553637.008    92353397.11645
  20763786.164   109114417.776 8  20763789.801    85024268.17046
  22132435.805   116306713.732 7  22132444.527    90628675.807 7
 14 11 14  9 50  0.0000000  0 12G19G13G26G30G27G09G04G17G07G28G11G01
  22157503.164   116438456.612 7  22157506.508    90731323.64546
  22693048.016   119252706.539 7  22693052.102    92924247.53245
  23708821.477   124590679.052 6  23708826.938    97083676.97543
  20507229.234   107766161.118 8  20507235.430    83973734.155 8
  24659116.367   129584531.965 6  24659124.066   100975015.806 7
  25095692.328   131878683.587 5  25095700.215   102762679.616 6
  21303492.930   111950863.026 8  21303498.289    87234289.51046
  24216676.055   127259465.623 6  24216682.465    99163261.465 6
  20298294.602   106668218.107 8  20298299.012    83118149.923 8
  22447508.664   117962438.041 7  22447511.988    91918831.05845
  20697208.469   108764550.622 8  20697212.563    84751644.57346
  21974267.984   115475535.759 7  21974276.324    89981004.941 8
 14 11 14  9 55  0.0000000  0 11G19G13G26G30G27G04G17G07G28G11G01
  22329293.141   117341217.831 7  22329295.844    91434773.88046
  22817529.852   119906864.511 7  22817535.414    93433980.81245
  23659426.031   124331101.948 6  23659431.758    96881409.04144
  20461688.563   107526844.932 8  20461695.535    83787253.984 8
  24852002.461   130598154.473 6  24852008.527   101764851.508 6
  21234617.922   111588923.730 8  21234623.566    86952259.07446
  24044608.438   126355238.053 6  24044612.863    98458668.606 7
  20382806.109   107112326.916 8  20382810.090    83464208.565 8
  22342753.695   117411949.624 7  22342756.883    91489879.15645
  20642007.711   108474470.474 7  20642011.488    84525608.22246
  21823396.773   114682704.697 8  21823404.949    89363214.778 8
 14 11 14 10  0  0.0000000  0 11G19G13G26G30G27G04G17G07G28G11G01
  22505047.563   118264811.659 7  22505049.547    92154457.31145
  22949691.805   120601380.903 7  22949696.941    93975162.34744
  23622018.023   124134521.397 6  23622023.520    96728229.27744
  20426320.875   107340985.975 8  20426327.004    83642428.767 8
  25044634.641   131610444.157 5  25044642.211   102553648.429 6
  21177229.383   111287344.887 8  21177234.633    86717262.72846
  23876087.102   125469654.774 7  23876092.313    97768603.856 6
  20477676.781   107610874.440 8  20477680.754    83852687.028 8
  22239418.688   116868921.717 7  22239422.590    91066740.58545
  20598381.102   108245211.284 8  20598385.152    84346964.80946
  21680368.430   113931085.647 7  21680376.410    88777537.839 8
 14 11 14 10  5  0.0000000  0 11G19G13G26G30G27G04G17G07G28G11G01
  22684307.906   119206832.364 7  22684311.121    92888499.34245
  23088951.531   121333196.043 7  23088956.875    94545407.76344
  23596658.227   124001252.373 7  23596663.023    96624383.15444
  20401364.398   107209838.980 8  20401371.195    83540236.249 8
  25236750.172   132620010.522 6  25236755.848   103340323.469 6
  21131600.383   111047562.277 8  21131605.195    86530419.24746
  23711293.695   124603661.508 7  23711300.027    97093804.100 7
  20582713.086   108162843.588 8  20582716.941    84282792.718 8
  22137565.125   116333678.038 8  22137568.539    90649667.65846
  20566477.969   108077559.045 8  20566482.004    84216326.80646
  21545707.055   113223435.400 8  21545715.008    88226122.276 8
 14 11 14 10 10  0.0000000  0 10G19G13G26G30G04G17G07G28G11G01
  22866633.133   120164957.343 7  22866636.070    93635090.14445
  23234711.086   122099164.475 7  23234715.691    95142266.15544
  23583350.570   123931321.540 6  23583355.754    96569891.40343
  20387023.031   107134473.481 8  20387029.688    83481509.826 8
  21097953.219   110870746.519 8  21097958.574    86392640.87846
  23550395.695   123758138.111 7  23550400.949    96434954.885 7
  20697682.297   108767012.249 8  20697686.551    84753573.300 8
  22037268.789   115806615.717 8  22037272.219    90238969.80746
  20546399.273   107972043.583 8  20546402.863    84134107.05246
  21419913.086   112562384.840 7  21419920.430    87711018.156 8
 14 11 14 10 15  0.0000000  0 10G19G13G26G30G04G17G07G28G11G01
  23051595.930   121136941.994 7  23051598.313    94392480.66845
  23386355.594   122896061.993 7  23386361.039    95763225.08744
  23582043.578   123924454.203 7  23582049.363    96564540.02643
  20383460.078   107115749.261 7  20383466.203    83466919.454 8
  21076457.031   110757783.641 8  21076462.043    86304617.98346
  23393545.742   122933884.579 7  23393551.156    95792679.558 7
  20822312.773   109421949.093 8  20822317.027    85263913.509 7
  21938615.578   115288193.243 8  21938619.289    89835004.30546
  20538193.703   107928925.265 7  20538197.547    84100508.42646
  21303457.375   111950407.985 7  21303465.617    87234153.289 8
 14 11 14 10 20  0.0000000  0 10G19G13G26G30G04G17G07G28G11G01
  23238786.570   122120637.129 7  23238788.883    95158996.23745
  23543262.852   123720614.633 7  23543268.398    96405733.48944
  23592631.055   123980086.674 6  23592635.855    96607889.73744
  20390798.898   107154316.385 8  20390805.465    83496971.673 8
  21067226.031   110709275.458 8  21067231.059    86266819.49246
  23240881.281   122131629.752 7  23240886.555    95167546.116 7
  20956296.625   110126036.815 8  20956300.984    85812553.069 7
  21841709.133   114778943.833 7  21841712.598    89438186.62646
  20541861.969   107948203.582 8  20541866.184    84115530.55646
  21196780.039   111389814.179 7  21196786.984    86797327.146 8
 14 11 14 10 25  0.0000000  0 10G19G13G26G30G04G17G07G28G11G01
  23427814.227   123113984.159 6  23427817.242    95933032.76345
  23704802.430   124569511.300 7  23704807.902    97067211.27544
  23614947.992   124097362.506 6  23614952.488    96699273.21844
  20409121.063   107250598.049 8  20409127.219    83571996.247 8
  21070319.063   110725529.839 8  21070323.719    86279485.33446
  23092527.102   121352023.347 7  23092532.016    94560060.755 7
  21099290.344   110877472.852 8  21099294.566    86398087.427 7
  21746661.969   114279468.430 7  21746664.855    89048985.04146
  20557354.477   108029614.935 8  20557358.098    84178968.03546
  21100283.508   110882722.860 8  21100291.426    86402191.231 8
 14 11 14 10 30  0.0000000  0 10G19G13G26G30G04G17G07G28G11G01
  23618307.555   124115030.644 7  23618310.480    96713068.88845
  23870342.789   125439426.826 7  23870347.160    97745067.34144
  23648779.656   124275150.519 7  23648785.660    96837809.05244
  20438463.750   107404794.379 8  20438470.219    83692149.135 8
  21085740.383   110806569.218 8  21085744.945    86342632.95646
  22948593.273   120595647.755 7  22948597.574    93970677.346 7
  21250920.898   111674294.867 8  21250925.488    87018987.468 7
  21653604.313   113790448.540 8  21653607.730    88667930.64246
  20584571.602   108172642.210 8  20584574.980    84290417.90446
  21014334.148   110431056.040 8  21014341.672    86050243.252 8
 14 11 14 10 35  0.0000000  0 10G19G13G26G30G04G17G07G28G11G01
  23809912.609   125121923.025 7  23809914.953    97497660.15144
  24039248.203   126327033.830 6  24039253.063    98436709.01543
  23693861.742   124512048.773 6  23693866.012    97022404.71444
  20478820.523   107616871.354 8  20478827.375    83857403.789 8
  21113438.828   110952124.828 8  21113443.750    86456052.97946
  22809176.469   119863009.979 7  22809181.375    93399791.010 7
  21410785.148   112514388.704 7  21410789.121    87673605.815 7
  21562679.977   113312638.288 8  21562683.824    88295611.04446
  20623368.398   108376520.780 8  20623372.332    84449284.36746
  20939255.789   110036516.734 8  20939263.484    85742810.208 8
 14 11 14 10 40  0.0000000  0 10G19G13G26G30G04G17G07G28G11G01
  24002297.297   126132907.668 7  24002300.273    98285440.21544
  24210889.313   127229012.767 6  24210894.395    99139549.61843
  23749873.086   124806392.106 6  23749878.285    97251762.79944
  20530139.625   107886554.947 8  20530146.273    84067546.722 8
  21153308.102   111161639.692 8  21153312.930    86619311.34446
  22674359.445   119154540.373 7  22674364.117    92847737.059 7
  21578455.086   113395496.097 7  21578459.637    88360182.702 7
  21474045.602   112846860.387 8  21474049.191    87932667.25346
  20673552.961   108640242.931 8  20673556.500    84654782.16546
  20875327.469   109700570.827 8  20875334.648    85481034.319 8
 14 11 14 10 45  0.0000000  0 10G19G13G26G30G04G17G07G28G11G01
  24195146.008   127146332.724 7  24195148.551    99075121.75344
  24384637.484   128142071.035 5  24384644.309    99851023.46242
  23816451.594   125156272.338 6  23816458.945    97524396.45444
  20592324.047   108213335.353 8  20592330.484    84322180.682 8
  21205189.727   111434281.089 8  21205194.574    86831759.21346
  22544209.227   118470593.968 8  22544213.172    92314792.149 7
  21753475.539   114315235.259 7  21753479.789    89076862.255 7
  21387870.992   112394009.042 8  21387874.055    87579796.09846
  20734890.359   108962574.104 8  20734893.816    84905949.33646
  20822780.766   109424438.401 8  20822787.910    85265866.320 8
 14 11 14 10 50  0.0000000  0 10G19G13G26G30G04G17G07G28G11G01
  24388164.828   128160657.912 6  24388167.563    99865504.63743
  24559877.883   129062955.890 6  24559882.039   100568595.93343
  23893195.656   125559559.601 6  23893201.594    97838645.99744
  20665233.414   108596475.274 8  20665239.973    84620731.119 8
  21268876.531   111768956.910 8  21268881.539    87092545.56146
  22418779.805   117811465.557 8  22418784.863    91801185.894 7
  21935374.578   115271121.229 7  21935379.668    89821708.178 7
  21304340.875   111955056.077 8  21304344.195    87237754.85746
  20807107.328   109342075.444 8  20807110.934    85201664.68346
  20781801.328   109209090.523 8  20781808.512    85098062.896 8
 14 11 14 10 55  0.0000000  0 10G19G13G26G30G04G17G07G28G11G01
  24581081.320   129174434.650 6  24581083.941   100655459.92544
  24735993.367   129988453.030 6  24735998.590   101289762.46042
  23979655.398   126013906.697 7  23979662.051    98192682.55244
  20748682.086   109035000.777 8  20748688.184    84962439.152 8
  21344110.930   112164314.657 7  21344115.418    87400616.53246
  22298115.883   117177370.112 7  22298120.430    91307085.820 7
  22123659.766   116260565.577 7  22123664.867    90592703.467 7
  21223651.711   111531032.401 7  21223655.313    86907346.78446
  20889889.828   109777103.156 7  20889893.758    85540647.30246
  20752522.211   109055226.552 8  20752529.566    84978168.998 8
 14 11 14 11  0  0.0000000  0 12G19G13G26G30G32G04G17G20G07G28G11G01
  24773638.961   130186326.556 7  24773642.414   101443946.39544
  24912389.492   130915417.023 6  24912394.148   102012071.98243
  24075350.805   126516786.067 6  24075355.918    98584536.41744
  20842444.570   109527726.058 8  20842451.148    85346380.754 8
  24893468.453   130815977.115 6  24893475.688   101934609.36742
  21430591.750   112618776.905 8  21430596.738    87754742.93046
  22182245.406   116568468.284 8  22182250.117    90832617.097 7
  25024417.820   131504177.357 6  25024425.109   102470837.56242
  22317824.383   117280910.725 7  22317830.176    91387777.280 7
  21146014.250   111123044.669 7  21146017.656    86589434.29346
  20982895.063   110265846.520 8  20982898.793    85921486.26146
  20735026.563   108963287.371 8  20735033.867    84906528.159 8
 14 11 14 11  5  0.0000000  0 12G19G13G26G30G32G04G17G20G07G28G11G01
  24965601.133   131195087.982 7  24965603.711   102229993.26744
  25088475.930   131840758.769 6  25088481.309   102733117.27043
  24179765.633   127065491.001 6  24179771.973    99012098.46443
  20946253.367   110073243.171 8  20946259.965    85771458.801 8
  24777706.063   130207643.610 6  24777713.547   101460583.30143
  21527977.320   113130538.783 7  21527981.848    88153518.35346
  22071186.422   115984849.514 7  22071190.789    90377849.419 7
  24861279.938   130646883.021 6  24861287.641   101802815.87943
  22517350.820   118329422.581 7  22517355.074    92204799.120 7
  21071648.297   110732250.328 8  21071652.410    86284919.22146
  21085744.406   110806324.810 7  21085748.438    86342638.10746
  20729345.289   108933434.034 7  20729352.980    84883265.855 8
 14 11 14 11 10  0.0000000  0 11G19G26G30G32G04G17G20G07G28G11G01
  25156749.852   132199583.453 6  25156754.324   103012715.70643
  24292359.742   127657177.030 6  24292365.441    99473152.26243
  21059803.773   110669953.885 8  21059810.402    86236427.988 8
  24667151.141   129626675.100 6  24667158.008   101007880.80743
  21635887.203   113697608.894 8  21635892.207    88595391.08346
  21964945.953   115426553.888 7  21964950.508    89942814.047 7
  24697572.344   129786590.737 6  24697579.082   101132458.21143
  22721708.625   119403326.689 7  22721712.293    93041607.089 6
  21000788.500   110359878.054 8  21000791.582    85994758.98746
  21198038.242   111396430.509 8  21198042.078    86802460.63346
  20735460.867   108965569.548 8  20735468.043    84908306.536 8
 14 11 14 11 15  0.0000000  0 11G19G26G30G32G04G17G20G07G28G11G01
  25346888.898   133198762.836 5  25346892.496   103791295.58343
  24412565.766   128288862.126 6  24412572.398    99965374.13143
  21182753.891   111316061.126 8  21182761.039    86739887.956 8
  24562357.617   129075978.750 6  24562365.410   100578766.71843
  21753907.828   114317809.289 7  21753912.227    89078663.97545
  21863520.367   114893558.787 7  21863524.184    89527493.374 7
  24533835.594   128926145.196 6  24533841.238   100461981.00843
  22930360.625   120499801.020 7  22930366.129    93896002.107 7
  20933675.906   110007198.755 8  20933679.594    85719943.93946
  21319349.719   112033926.830 7  21319353.387    87299210.88146
  20753301.070   109059321.834 8  20753308.629    84981360.287 8
 14 11 14 11 20  0.0000000  0 10G26G30G32G04G17G20G07G28G11G01
  24539795.750   128957461.950 6  24539802.418   100486360.58143
  21314729.758   112009596.668 8  21314736.430    87280304.997 8
  24463862.234   128558389.207 6  24463870.672   100175450.16443
  21881594.984   114988811.305 7  21881600.113    89601522.47845
  21766896.398   114385797.617 8  21766900.984    89131835.483 7
  24370623.883   128068459.458 7  24370629.672    99793654.35043
  23142767.586   121616002.244 7  23142772.332    94765768.668 6
  20870562.250   109675534.965 8  20870565.691    85461504.59346
  21449236.016   112716482.564 8  21449239.746    87831072.31346
  20782747.531   109214064.225 8  20782754.844    85101938.742 8
 14 11 14 11 25  0.0000000  0 10G26G30G32G04G17G20G07G28G11G01
  24673446.727   129659801.823 6  24673452.742   101033638.00043
  21455324.500   112748427.972 8  21455331.918    87856017.429 8
  24372190.328   128076644.236 6  24372195.793    99800064.63343
  22018480.313   115708149.984 7  22018485.805    90162045.83345
  21675052.164   113903154.198 8  21675056.746    88755749.880 7
  24208502.063   127216500.406 6  24208507.789    99129790.24743
  23358382.617   122749070.520 7  23358390.031    95648678.249 7
  20811707.891   109366250.454 8  20811710.734    85220503.62146
  21587237.250   113441684.071 8  21587241.328    88396164.18546
  20823632.891   109428917.271 8  20823640.273    85269356.633 8
 14 11 14 11 30  0.0000000  0 11G06G26G30G32G04G17G20G07G28G11G01
  25007277.219   131414032.666 6  25007286.098   102400655.641 6
  24812901.844   130392643.310 6  24812909.777   101604683.02743
  21604106.484   113530279.373 8  21604113.738    88465251.960 8
  24287838.742   127633372.790 6  24287845.422    99454658.33443
  22164075.023   116473250.949 7  22164079.648    90758228.07645
  21587958.781   113445474.197 8  21587963.047    88399116.257 8
  24048042.063   126373284.272 7  24048048.172    98472738.62643
  23576666.070   123896144.858 7  23576670.055    96542501.507 6
  20757377.023   109080741.833 7  20757380.371    84998029.28846
  21732883.523   114207058.865 7  21732887.531    88992559.88446
  20875744.648   109702766.021 8  20875751.898    85482745.180 8
 14 11 14 11 35  0.0000000  0 11G06G26G30G32G04G17G20G07G28G11G01
  24790127.875   130272902.401 6  24790136.414   101511463.173 6
  24957535.398   131152692.776 6  24957541.832   102196929.20143
  21760615.922   114352738.022 8  21760622.477    89106128.434 8
  24211281.625   127231068.513 6  24211289.492    99141174.51944
  22317869.430   117281443.424 8  22317873.707    91387988.01845
  21505578.289   113012563.950 8  21505582.883    88061783.720 8
  23889827.375   125541860.051 6  23889833.664    97824875.58143
  23797066.656   125054365.724 6  23797072.754    97445010.053 6
  20707841.156   108820428.126 8  20707844.711    84795187.33846
  21885695.227   115010085.792 8  21885699.355    89618294.79045
  20938826.742   110034264.161 8  20938833.918    85741055.265 8
 14 11 14 11 40  0.0000000  0 11G06G26G30G32G04G17G20G07G28G11G01
  24573960.586   129136932.926 6  24573969.379   100626292.037 6
  25106713.914   131936629.860 6  25106720.906   102807789.23142
  21924371.422   115213280.084 8  21924378.637    89776680.235 8
  24142971.141   126872083.522 6  24142977.078    98861446.00244
  22479342.383   118129990.578 7  22479347.430    92049193.15145
  21427870.000   112604202.361 8  21427874.059    87743579.955 8
  23734443.219   124725306.900 6  23734449.105    97188600.37543
  24019053.117   126220895.786 6  24019060.258    98353993.088 6
  20663373.547   108586748.842 8  20663377.484    84613099.43446
  22045186.922   115848222.436 7  22045191.105    90271387.83345
  21012583.625   110421860.253 8  21012591.820    86043077.995 8
 14 11 14 11 45  0.0000000  0 11G06G26G30G32G04G17G20G07G28G11G01
  24359191.703   128008326.437 5  24359201.406    99746858.436 6
  25259802.805   132741118.444 6  25259808.691   103434663.57942
  22094875.125   116109281.004 7  22094882.695    90474862.254 7
  24083317.680   126558606.678 6  24083324.453    98617178.31644
  22647964.703   119016104.136 7  22647970.465    92739670.66045
  21354785.359   112220141.640 8  21354789.965    87444311.842 8
  23582476.766   123926719.559 7  23582482.977    96566324.54744
  24242084.273   127392921.072 6  24242092.723    99267257.649 6
  20624249.469   108381151.388 8  20624253.133    84452893.45146
  22210875.641   116718917.042 7  22210879.238    90949850.63545
  21096684.328   110863809.600 8  21096691.852    86387453.832 8
 14 11 14 11 50  0.0000000  0 10G06G30G32G04G17G20G07G28G11G01
  24146247.250   126889283.366 7  24146256.043    98874876.724 7
  22271610.922   117038032.510 7  22271618.754    91198564.122 7
  24032706.820   126292648.869 6  24032713.238    98409938.19844
  22823198.945   119936965.553 7  22823205.023    93457224.32145
  21286275.242   111860118.540 8  21286279.762    87163774.310 8
  23434518.938   123149196.996 7  23434525.363    95960462.87144
  24465631.531   128567661.336 6  24465638.648   100182637.559 6
  20590745.016   108205079.666 8  20590748.266    84315694.46446
  22382274.266   117619622.421 7  22382278.313    91651698.34045
  21190762.961   111358193.952 8  21190770.438    86772688.105 8
 14 11 14 11 55  0.0000000  0 10G06G30G32G04G17G20G07G28G11G01
  23935538.227   125782000.378 6  23935546.773    98012058.444 7
  22454051.883   117996763.008 7  22454059.504    91945626.098 7
  23991486.742   126076034.121 7  23991494.637    98241147.00743
  23004509.063   120889748.695 7  23004514.570    94199651.88744
  21222287.141   111523858.136 8  21222291.676    86901753.092 8
  23291158.609   122395831.467 7  23291162.973    95373424.85244
  24689174.570   129742385.995 6  24689181.773   101098005.192 5
  20563132.266   108059972.924 8  20563135.738    84202623.98246
  22558904.000   118547817.059 7  22558908.969    92374966.12745
  21294425.820   111902946.322 8  21294433.691    87197170.114 8
 14 11 14 12  0  0.0000000  0  9G06G30G32G04G17G20G28G11G01
  23727479.969   124688645.027 7  23727489.070    97160093.064 7
  22641657.188   118982633.263 7  22641665.691    92713835.761 7
  23959962.328   125910368.267 7  23959969.090    98112056.60844
  23191352.609   121871617.705 7  23191358.910    94964743.63744
  21162764.898   111211065.617 8  21162768.988    86658018.507 8
  23152976.828   121669679.291 7  23152982.238    94807592.06444
  20541678.750   107947232.904 7  20541682.340    84114774.30646
  22740288.977   119500998.505 7  22740294.133    93117704.07145
  21407252.750   112495851.725 8  21407260.457    87659173.858 8
 14 11 14 12  5  0.0000000  0  9G06G30G32G04G17G20G28G11G01
  23522481.586   123611374.986 7  23522491.227    96320661.712 7
  22833882.211   119992776.807 7  22833890.938    93500959.594 7
  23938398.859   125797050.689 6  23938405.285    98023757.22644
  23383197.797   122879766.809 7  23383204.355    95750313.35644
  21107654.461   110921455.946 8  21107658.215    86432348.443 8
  23020548.148   120973768.091 7  23020554.402    94265323.73244
  20526647.273   107868240.813 7  20526651.156    84053221.68946
  22925964.359   120476720.589 7  22925968.645    93878006.01244
  21528801.352   113134593.978 8  21528809.441    88156894.593 8
 14 11 14 12 10  0.0000000  0  9G06G30G32G04G17G20G28G11G01
  23320948.492   122552309.052 7  23320957.582    95495415.312 7
  23030173.906   121024292.098 7  23030182.594    94304736.570 7
  23927017.617   125737243.089 6  23927024.996    97977153.63443
  23579515.492   123911415.974 7  23579522.227    96554194.61444
  21056899.711   110654738.602 8  21056904.348    86224516.507 8
  22894439.922   120311062.293 7  22894446.031    93748929.82945
  20518290.328   107824323.463 8  20518294.242    84019000.01646
  23115471.086   121472581.514 7  23115476.352    94654000.51344
  21658612.969   113816754.166 8  21658620.684    88688447.444 8
 14 11 14 12 15  0.0000000  0  9G06G30G32G04G17G20G28G11G01
  23123275.086   121513526.739 7  23123284.152    94685974.356 7
  23229977.641   122074260.299 7  23229986.449    95122892.353 7
  23925995.828   125731869.694 6  23926002.840    97972965.89544
  23779782.531   124963825.958 7  23779789.957    97374253.04344
  21010447.086   110410627.059 8  21010451.824    86034299.461 8
  22775199.211   119684450.220 7  22775206.184    93260660.84345
  20516848.672   107816747.893 7  20516852.984    84013096.63246
  23308363.859   122486238.461 7  23308369.426    95443862.01344
  21796210.914   114539836.340 7  21796219.469    89251887.538 8
 14 11 14 12 20  0.0000000  0 10G06G24G30G32G04G17G20G28G11G01
  22929848.922   120497065.372 7  22929857.703    93893926.558 7
  24929330.438   131004462.805 5                 102081472.436 6
  23432736.008   123139762.704 7  23432744.980    95953152.668 7
  23935462.641   125781615.105 6  23935470.094    98011728.30644
  23983491.648   126034316.696 7  23983498.988    98208400.31444
  20968245.203   110188853.123 8  20968249.742    85861488.325 8
  22663360.391   119096731.290 7  22663365.414    92802698.22945
  20522552.078   107846717.592 7  20522555.684    84036449.24046
  23504212.750   123515423.800 7  23504218.422    96245823.38644
  21941111.469   115301291.451 8  21941120.047    89845228.598 8
 14 11 14 12 25  0.0000000  0 10G06G24G30G32G04G17G20G28G11G01
  22741049.727   119504918.780 7  22741059.426    93120825.328 7
  24784600.516   130243897.793 6  24784608.199   101488823.959 7
  23637900.305   124217898.010 7  23637907.520    96793256.694 6
  23955501.984   125886926.142 6  23955509.379    98093789.10644
  24190146.398   127120281.724 7  24190152.891    99054605.29144
  20930247.031   109989172.292 8  20930251.637    85705892.619 8
  22559435.938   118550608.445 7  22559441.957    92377148.15745
  20535615.141   107915361.016 7  20535618.961    84089937.20146
  23702599.813   124557950.739 7  23702605.477    97058180.74243
  22092823.695   116098542.596 7  22092832.270    90466462.576 7
 14 11 14 12 30  0.0000000  0 10G06G24G30G32G04G17G20G28G11G01
  22557241.789   118539004.414 7  22557251.539    92368164.695 7
  24647287.688   129522308.289 6  24647295.066   100926545.706 7
  23844915.727   125305766.777 7  23844925.703    97640945.059 7
  23986150.164   126047981.893 7  23986158.063    98219286.79944
  24399258.953   128219173.656 6  24399268.152    99910882.83844
  20896408.492   109811347.273 8  20896413.379    85567327.397 8
  22463914.031   118048638.682 7  22463920.004    91986003.03945
  20556232.094   108023702.634 8  20556236.039    84174358.82946
  23903123.055   125611700.655 6  23903128.945    97879283.05344
  22250850.789   116928976.740 7  22250859.813    91113553.332 7
 14 11 14 12 35  0.0000000  0 10G06G24G30G32G04G17G20G28G11G01
  22378780.469   117601181.835 7  22378789.961    91637393.801 8
  24517811.852   128841905.704 6  24517818.605   100396361.067 6
  24053239.383   126400506.694 6  24053250.730    98493987.493 7
  24027395.953   126264723.866 7  24027403.191    98388175.56844
  24610365.688   129328535.364 7  24610373.621   100775318.31243
  20866690.164   109655176.549 8  20866695.305    85445635.700 8
  22377256.563   117593247.265 7  22377262.102    91631152.35645
  20584580.453   108172674.191 7  20584584.988    84290440.10446
  24105396.625   126674648.781 6  24105403.148    98707552.69443
  22414696.063   117789986.652 7  22414704.695    91784469.484 7
 14 11 14 12 40  0.0000000  0 10G06G24G30G32G04G17G20G28G11G01
  22206002.938   116693227.294 7  22206011.816    90929896.658 8
  24396571.797   128204782.393 6  24396579.543    99899900.571 6
  24262330.586   127499283.442 6  24262340.113    99350175.333 6
  24079178.305   126536844.797 7  24079186.191    98600217.42643
  24823012.109   130445990.340 6  24823020.098   101646059.98443
  20841058.211   109520477.465 8  20841063.094    85340675.129 8
  22299891.352   117186691.514 7  22299896.996    91314355.74445
  20620815.242   108363087.032 8  20620819.965    84438813.32846
  24309050.945   127744852.532 6  24309057.469    99541475.98143
  22583864.141   118678968.166 7  22583872.906    92477181.618 7
 14 11 14 12 45  0.0000000  0 10G06G24G30G32G04G17G20G28G11G01
  22039231.438   115816838.955 7  22039241.227    90246996.689 8
  24283942.438   127612907.652 6  24283950.441    99438697.853 7
  24471659.609   128599311.604 6  24471671.695   100207338.179 6
  24141395.250   126863795.153 6  24141403.863    98854982.83243
  25036764.977   131569264.502 6  25036773.121   102521337.23743
  20819485.211   109407108.472 8  20819489.699    85252335.338 8
  22232215.375   116831051.769 7  22232220.063    91037233.75745
  20665068.375   108595637.161 8  20665072.762    84620020.79046
  24513734.961   128820464.497 6  24513742.371   100379613.02543
  22757865.516   119593347.171 7  22757874.238    93189683.960 7
 14 11 14 12 50  0.0000000  0 10G06G24G30G32G02G17G20G28G11G01
  21878773.211   114973623.552 8  21878782.332    89589945.839 8
  24180269.898   127068104.584 6  24180278.492    99014175.119 6
  24680708.039   129697855.342 6  24680718.453   101063344.129 6
  24213899.563   127244797.496 6  24213908.066    99151866.49544
  25123969.180   132027284.950 6  25123974.957   102878474.44443
  20801949.992   109314960.860 8  20801955.035    85180531.723 8
  22174587.414   116528213.482 7  22174592.863    90801255.63345
  20717447.164   108870888.110 8  20717451.922    84834501.57746
  24719113.828   129899730.856 6  24719121.156   101220597.64142
  22936216.398   120530585.931 7  22936226.168    93919999.063 7
 14 11 14 12 55  0.0000000  0 10G06G24G30G32G02G17G20G28G11G01
  21724912.125   114165080.593 8  21724921.145    88959912.517 8
  24085870.352   126572030.119 6  24085879.176    98627622.841 6
  24888962.992   130792227.210 6  24888974.004   101916099.163 6
  24296496.750   127678838.628 6  24296504.520    99490079.50843
  24939268.578   131056680.624 6  24939274.082   102122159.45043
  20788438.602   109243956.078 8  20788443.441    85125203.077 8
  22127324.359   116279846.657 7  22127330.457    90607722.90045
  20778031.313   109189258.688 8  20778036.117    85082582.14746
  24924870.063   130980984.692 6  24924878.863   102063131.78843
  23118441.813   121488185.776 7  23118452.523    94666179.819 7
 14 11 14 13  0  0.0000000  0 10G06G24G30G32G02G17G20G28G11G01
  21577916.891   113392614.152 8  21577925.398    88357990.757 8
  24001028.703   126126178.471 7  24001037.789    98280205.248 7
  25095924.023   131879811.536 6  25095937.055   102763565.010 6
  24388951.453   128164699.232 6  24388961.324    99868670.97343
  24756428.469   130095843.460 6  24756433.203   101373454.61043
  20778943.688   109194061.122 8  20778949.227    85086323.592 8
  22090704.406   116087404.828 8  22090710.742    90457768.11445
  20846874.906   109551031.992 8  20846880.172    85364483.01046
  25130707.867   132062660.680 6  25130717.176   102905994.17343
  23304080.703   122463714.902 7  23304090.641    95426331.159 7
 14 11 14 13  5  0.0000000  0  8G06G24G32G02G17G20G28G01
  21438031.227   112657512.426 8  21438040.332    87785184.403 8
  23925991.070   125731850.832 6  23925999.648    97972936.229 7
  24490999.078   128700957.110 6  24491008.305   100286533.43143
  24575693.336   129146081.925 6  24575700.805   100633380.61844
  20773467.898   109165282.037 8  20773473.004    85063898.118 8
  22064957.906   115952104.480 7  22064963.625    90352339.14945
  20924001.820   109956334.987 8  20924006.531    85680303.06546
  23492680.680   123454804.117 7  23492690.527    96198607.085 7
 14 11 14 13 10  0.0000000  0  9G10G06G24G32G02G17G20G28G01
  25158169.813   132207017.713 6  25158180.781   103018543.27643
  21305478.125   111960942.183 8  21305487.012    87242402.568 8
  23860967.414   125390145.927 6  23860976.125    97706672.005 7
  24602330.000   129285997.241 6  24602338.992   100742408.07343
  24397307.984   128208652.585 6  24397314.418    99902916.18144
  20772017.898   109157661.375 8  20772022.664    85057959.654 8
  22050268.852   115874911.923 7  22050274.707    90292188.95945
  21009406.742   110405139.825 8  21009412.113    86030020.61146
  23683802.094   124459153.486 7  23683813.301    96981215.420 6
 14 11 14 13 15  0.0000000  0  9G10G06G24G32G02G17G20G28G01
  24941088.688   131066263.604 6  24941101.402   102129645.60143
  21180455.930   111303947.492 8  21180464.934    86730458.662 8
  23806126.711   125101954.382 6  23806136.004    97482106.433 7
  24722602.109   129918030.413 6  24722611.867   101234900.14443
  24221495.070   127284762.055 6  24221502.379    99183002.04244
  20774609.453   109171280.951 8  20774614.809    85068571.955 8
  22046773.672   115856543.664 7  22046780.211    90277875.85945
  21103054.305   110897257.589 8  21103059.887    86413488.29146
  23877025.602   125474543.347 7  23877037.344    97772426.604 7
 14 11 14 13 20  0.0000000  0  9G10G06G24G32G02G17G20G28G01
  24722261.180   129916315.095 6  24722271.805   101233583.56343
  21063140.164   110687446.078 8  21063148.867    86250067.936 8
  23761597.430   124867948.043 7  23761607.355    97299763.043 7
  24851449.070   130595113.102 6  24851457.813   101762495.98043
  24048481.219   126375561.852 7  24048486.496    98474534.98444
  20781267.469   109206266.037 8  20781272.691    85095832.732 8
  22054559.891   115897459.363 8  22054565.855    90309758.18745
  21204878.289   111432343.297 8  21204884.633    86830437.40146
  24071944.516   126498839.260 7  24071954.973    98570577.458 6
 14 11 14 13 25  0.0000000  0  9G10G06G24G32G02G17G20G28G01
  24502197.656   128759874.092 7  24502207.555   100332461.67343
  20953679.266   110112226.240 8  20953688.625    85801844.603 8
  23727464.422   124688571.027 7  23727474.145    97159987.818 7
  24988468.617   131315160.486 6  24988479.516   102323570.44842
  23878470.594   125482147.726 7  23878476.301    97778368.12145
  20792022.031   109262781.548 8  20792027.852    85139870.399 8
  22073665.805   115997861.491 8  22073671.492    90387993.41045
  21314782.906   112009892.909 8  21314788.289    87280475.37546
  24268169.047   127529997.463 6  24268181.523    99374075.366 7
 14 11 14 13 30  0.0000000  0 10G10G06G24G12G32G02G17G20G28G01
  24281427.742   127599726.406 7  24281435.492    99428451.60943
  20852198.492   109578940.859 8  20852207.695    85386297.491 8
  23703766.484   124564036.173 7  23703776.160    97062946.791 7
  24672081.523   129652596.438 6  24672087.512   101028073.883 6
  25133246.148   132075962.422 6  25133257.617   102916401.02343
  23711659.844   124605556.282 7  23711666.078    97095309.93444
  20806913.094   109341030.824 8  20806918.918    85200843.479 8
  22104079.852   116157689.959 8  22104086.758    90512534.54145
  21432641.836   112629242.517 8  21432647.871    87763084.75846
  24465326.742   128566064.041 7  24465339.234   100181397.683 6
 14 11 14 13 35  0.0000000  0 10G10G06G24G12G32G02G17G20G28G01
  24060496.773   126438731.427 7  24060507.172    98523780.82944
  20758795.297   109088103.437 8  20758804.270    85003826.749 8
  23690500.039   124494316.826 6  23690509.879    97008619.148 7
  24471060.781   128596220.202 6  24471066.945   100204922.292 6
  25285337.203   132875199.796 6  25285347.953   103539181.95842
  23548236.594   123746758.499 7  23548241.613    96426117.08745
  20825983.734   109441248.503 8  20825989.629    85278934.812 8
  22145743.109   116376626.877 7  22145749.469    90683133.88845
  21558298.227   113289567.409 8  21558303.797    88277622.86946
  24663065.883   129605178.457 6  24663079.820   100991094.755 6
 14 11 14 13 40  0.0000000  0  9G10G06G24G12G02G17G20G28G01
  23839964.063   125279827.408 7  23839973.914    97620739.93944
  20673541.641   108640092.347 8  20673550.684    84654727.336 8
  23687614.172   124479147.318 6  23687623.863    96996798.057 7
  24271793.141   127549058.210 6  24271800.176    99388950.793 6
  23388370.359   122906660.117 7  23388376.348    95771495.09945
  20849286.531   109563703.149 8  20849292.598    85374353.670 8
  22198546.148   116654104.095 7  22198552.441    90899348.98645
  21691565.656   113989890.099 8  21691571.609    88823328.04445
  24861048.484   130645576.479 6  24861063.848   101801791.671 6
 14 11 14 13 45  0.0000000  0  9G10G06G24G12G02G17G20G28G01
  23620400.328   124126016.090 6  23620409.734    96721666.71544
  20596483.875   108235150.826 8  20596492.863    84339188.432 8
  23695013.563   124518029.725 6  23695023.863    97027095.393 7
  24074719.273   126513426.767 6  24074727.047    98581964.499 6
  23232224.711   122086107.320 7  23232229.449    95132103.71945
  20876878.336   109708697.324 8  20876884.348    85487335.724 8
  22262334.063   116989311.199 7  22262341.402    91160548.92145
  21832230.844   114729086.338 8  21832237.043    89399324.25345
  25058960.336   131685594.423 5  25058975.109   102612192.087 6
 14 11 14 13 50  0.0000000  0  9G10G06G24G12G02G17G20G28G01
  23402389.609   122980365.001 7  23402397.961    95828952.61944
  20527642.391   107873386.400 8  20527651.344    84057293.957 8
  23712558.805   124610228.551 7  23712569.195    97098938.017 7
  23880295.195   125491717.479 7  23880302.676    97785827.089 6
  23079944.844   121285873.993 7  23079949.777    94508545.52545
  20908821.656   109876558.232 8  20908827.715    85618135.918 8
  22336909.242   117381202.998 8  22336916.430    91465918.48445
  21980051.867   115505887.159 7  21980058.277    90004622.61445
  25256501.023   132723669.285 6  25256516.824   103421079.186 6
 14 11 14 13 55  0.0000000  0  8G10G06G24G12G02G17G20G28
  23186525.023   121845991.572 7  23186533.102    94945026.16944
  20467012.703   107554775.105 8  20467021.902    83809025.397 8
  23740066.414   124754779.342 6  23740077.582    97211574.453 7
  23688989.195   124486395.096 6  23688996.438    97002458.856 6
  22931666.906   120506670.573 7  22931671.813    93901374.35445
  20945183.273   110067637.419 8  20945189.492    85767028.325 8
  22422029.523   117828510.500 7  22422036.547    91814468.94245
  22134761.570   116318886.432 7  22134767.785    90638127.47745
 14 11 14 14  0  0.0000000  0  8G10G06G24G12G02G17G20G28
  22973405.828   120726053.824 7  22973415.578    94072348.63545
  20414564.297   107279157.329 8  20414573.820    83594258.184 8
  23777309.359   124950489.444 7  23777320.230    97364075.215 7
  23501279.570   123499976.903 7  23501287.043    96233821.284 6
  22787512.156   119749133.261 7  22787517.395    93311085.98945
  20986032.242   110282299.752 8  20986038.324    85934297.384 8
  22517413.547   118329753.981 7  22517420.332    92205047.78245
  22296065.172   117166541.261 7  22296072.848    91298636.66745
 14 11 14 14  5  0.0000000  0  8G10G06G24G12G02G17G20G28
  22763644.750   119623751.821 7  22763652.527    93213413.18545
  20370245.453   107046259.458 8  20370254.945    83412779.311 8
  23824021.586   125195960.915 7  23824032.238    97555350.914 7
  23317659.852   122535046.437 7  23317666.418    95481927.480 7
  22647590.406   119013839.859 8  22647595.566    92738130.49946
  21031442.695   110520932.627 8  21031448.809    86120244.867 8
  22622743.719   118883267.664 7  22622751.254    92636356.56145
  22463649.375   118047197.078 7  22463657.805    91984860.79645
 14 11 14 14 10  0.0000000  0  8G10G06G24G12G02G17G20G28
  22557850.133   118542298.967 7  22557859.113    92370722.74145
  20333979.070   106855677.340 8  20333988.145    83264273.561 8
  23879896.758   125489582.137 6  23879906.695    97784145.937 6
  23138626.219   121594220.302 7  23138633.477    94748816.229 7
  22511996.656   118301288.627 8  22512001.801    92182895.55745
  21081488.258   110783921.653 8  21081494.672    86325171.016 8
  22737669.133   119487200.031 7  22737676.766    93106952.44944
  22637174.094   118959073.318 7  22637181.660    92695412.31644
 14 11 14 14 15  0.0000000  0  8G10G06G24G12G02G17G20G28
  22356639.258   117484928.351 7  22356647.883    91546797.94445
  20305667.992   106706901.434 8  20305677.227    83148344.400 8
  23944589.930   125829552.813 6  23944602.098    98049057.374 7
  22964684.922   120680152.239 7  22964690.883    94036555.540 7
  22380814.203   117611921.252 8  22380819.250    91645726.27846
  21136243.727   111071662.682 8  21136250.215    86549384.436 8
  22861807.070   120139542.754 7  22861814.324    93615270.32944
  22816284.086   119900290.530 7  22816290.805    93428826.61044
 14 11 14 14 20  0.0000000  0  8G10G06G24G12G02G17G20G28
  22160625.023   116454866.328 7  22160633.352    90744152.83145
  20285194.430   106599313.166 8  20285203.551    83064509.459 8
  24017730.227   126213894.185 7  24017741.441    98348543.218 7
  22796343.414   119795513.884 7  22796350.766    93347226.995 7
  22254114.352   116946109.168 7  22254119.137    91126912.01146
  21195784.047   111384546.494 8  21195790.496    86793189.489 8
  22994748.305   120838146.247 7  22994755.363    94159635.24144
  23000599.531   120868870.467 7  23000608.410    94183562.33544
 14 11 14 14 25  0.0000000  0  8G10G06G24G12G02G17G20G28
  21970417.234   115455320.262 7  21970426.500    89965285.88645
  20272422.680   106532196.413 8  20272431.641    83012210.232 8
  24098903.266   126640460.212 6  24098915.492    98680931.218 7
  22634112.500   118942983.589 7  22634119.480    92682917.656 7
  22131955.586   116304160.808 7  22131960.109    90626692.80146
  21260181.750   111722958.051 8  21260188.805    87056886.185 8
  23136059.414   121580737.992 7  23136067.227    94738276.55544
  23189730.359   121862749.205 7  23189740.324    94958011.13544
 14 11 14 14 30  0.0000000  0  8G10G06G24G12G02G17G20G28
  21786622.781   114489471.547 8  21786630.859    89212676.55945
  20267200.484   106504751.045 8  20267209.672    82990823.777 8
  24187675.914   127106957.902 7  24187686.195    99044434.729 6
  22478500.180   118125236.892 7  22478507.215    92045712.440 7
  22014385.453   115686326.543 7  22014390.098    90145263.64646
  21329508.266   112087269.594 8  21329515.426    87340764.663 8
  23285288.961   122364942.096 7  23285298.145    95349343.29744
  23383268.281   122879786.639 6  23383277.891    95750505.57144
 14 11 14 14 35  0.0000000  0  9G10G06G24G12G02G17G20G28G23
  21609833.789   113560443.690 7  21609842.117    88488759.11046
  20269358.383   106516090.650 8  20269368.027    82999659.631 8
  24283583.625   127610953.623 6  24283596.039    99437157.427 7
  22330009.758   117344914.607 8  22330017.391    91437669.049 7
  21901439.492   115092790.849 7  21901444.012    89682768.19046
  21403830.117   112477830.002 8  21403837.129    87645096.842 8
  23441969.109   123188289.101 7  23441976.863    95990911.02344
  23580791.648   123917772.459 7  23580801.961    96559323.49243
  25485810.602   133928797.949 6  25485823.160   104360186.71142
 14 11 14 14 40  0.0000000  0 10G10G06G24G12G02G17G20G28G23G09
  21440635.234   112671299.932 8  21440643.719    87795920.08646
  20278716.070   106565264.358 8  20278725.492    83037976.471 8
  24386142.633   128149898.636 6  24386155.230    99857113.212 7
  22189138.641   116604627.885 8  22189145.582    90860822.177 7
  21793143.563   114523692.648 7  21793148.305    89239314.99446
  21483209.406   112894967.434 8  21483216.355    87970138.441 7
  23605613.961   124048248.150 7  23605623.496    96661007.70344
  23781871.000   124974443.625 6  23781882.395    97382701.55143
  25390854.234   133429791.823 6  25390862.871   103971333.69542
  25201224.648   132433198.135 6  25201240.359   103194859.747 6
 14 11 14 14 45  0.0000000  0 11G10G06G24G12G02G17G20G28G23G09G05
  21279591.430   111825013.036 8  21279599.832    87136476.71246
  20295080.367   106651257.002 8  20295090.336    83104983.237 8
  24494847.703   128721139.919 6  24494860.031   100302234.869 6
  22056368.953   115906921.675 8  22056376.887    90317154.969 7
  21689512.938   113979110.127 8  21689518.211    88814964.98646
  21567701.695   113338974.332 8  21567709.152    88316117.077 7
  23775734.156   124942232.147 6  23775744.145    97357617.32944
  23986064.578   126047482.668 6  23986076.086    98218833.90643
  25301500.258   132960234.879 6  25301511.766   103605444.85543
  25063114.703   131707416.437 5  25063129.957   102629313.376 6
  25134989.055   132085337.751 5                 102923629.715 5
 14 11 14 14 50  0.0000000  0 11G10G06G24G12G02G17G20G28G23G09G05
  21127248.633   111024446.647 8  21127256.641    86512659.12346
  20318247.930   106773002.055 8  20318257.840    83199849.189 8
  24609175.703   129321933.950 6  24609189.422   100770384.577 7
  21932172.711   115254264.760 8  21932179.789    89808591.158 7
  21590553.023   113459073.910 8  21590557.879    88409741.89546
  21657355.633   113810106.072 8  21657363.438    88683231.751 8
  23951829.578   125867612.602 6  23951839.508    98078691.27143
  24192925.070   127134534.994 6  24192938.078    99065885.99543
  25218201.148   132522498.765 6  25218212.324   103264352.16343
  24927576.914   130995145.332 6  24927592.844   102074294.184 6
  24913438.766   130921092.214 6  24913451.980   102016426.639 6
 14 11 14 14 55  0.0000000  0 11G10G06G24G12G02G17G20G28G23G09G05
  20984125.773   110272331.818 8  20984133.363    85926595.22646
  20348007.680   106929386.786 8  20348017.383    83321707.132 8
  24728592.016   129949461.767 6  24728605.313   101259365.982 7
  21816998.867   114649023.240 8  21817005.801    89336974.413 7
  21496260.398   112963563.783 8  21496265.656    88023630.24646
  21752211.320   114308570.685 8  21752219.496    89071644.604 7
  24133396.297   126821743.944 6  24133405.387    98822168.74943
  24401998.594   128233208.900 6  24402011.191    99921993.19843
  25141390.344   132118847.784 7  25141402.523   102949818.13543
  24795180.117   130299398.602 6  24795196.020   101532155.165 6
  24691957.008   129757204.580 6  24691969.871   101109502.652 6
 14 11 14 15  0  0.0000000  0 12G10G06G24G12G02G17G20G28G23G09G05G25
  20850718.766   109571273.410 7  20850726.715    85380316.20646
  20384142.375   107119277.256 8  20384152.281    83469673.503 8
  24852548.711   130600856.927 6  24852562.914   101766945.461 6
  21711278.539   114093458.846 8  21711286.223    88904067.196 7
  21406626.031   112492529.981 8  21406630.676    87656591.05146
  21852299.992   114834536.668 7  21852308.160    89481487.082 7
  24319929.297   127801977.402 6  24319938.777    99585985.22542
  24612826.320   129341106.775 6  24612839.531   100785287.41043
  25071476.398   131751450.628 6  25071488.211   102663534.97343
  24666499.008   129623174.843 6  24666514.059   101005227.778 6
  24471007.523   128596110.434 7  24471018.988   100204756.046 6
  24769033.406   130162137.943 6  24769046.234   101425104.762 6
 14 11 14 15  5  0.0000000  0 11G10G06G24G12G02G17G20G23G09G05G25
  20727487.813   108923690.490 8  20727495.949    84875706.31146
  20426431.836   107341508.776 8  20426441.520    83642840.686 8
  24980491.773   131273203.559 5  24980507.414   102290850.989 6
  21615414.094   113589687.597 8  21615420.703    88511518.213 7
  21321630.508   112045875.961 8  21321635.098    87308548.98946
  21957642.656   115388111.859 7  21957650.988    89912843.363 7
  24510927.625   128805668.729 6  24510937.691   100368080.51043
  25008847.719   131422340.953 6  25008858.180   102407087.89343
  24542101.484   128969454.724 6  24542116.512   100495834.174 6
  24251056.195   127440264.220 7  24251067.871    99304097.760 6
  24581666.227   129177513.888 6  24581678.910   100657864.840 6
 14 11 14 15 10  0.0000000  0 11G10G06G24G12G02G17G20G23G09G05G25
  20614859.547   108331825.374 8  20614867.398    84414512.90446
  20474652.547   107594908.309 8  20474662.629    83840294.607 8
  25111864.305   131963560.672 6  25111878.805   102828790.569 6
  21529779.305   113139674.464 8  21529786.230    88160858.722 7
  21241250.492   111623479.559 8  21241256.125    86979409.06146
  22068248.750   115969348.572 8  22068257.242    90365754.261 7
  24705888.641   129830195.243 6  24705901.215   101166410.98642
  24953863.898   131133414.296 6  24953875.887   102181951.78243
  24422546.875   128341198.730 6  24422562.180   100006285.442 6
  24032575.727   126292148.117 6  24032586.336    98409462.513 6
  24399151.563   128218393.324 6  24399164.289    99910498.008 6
 14 11 14 15 15  0.0000000  0 11G10G06G24G12G02G17G20G23G09G05G25
  20513220.914   107797712.921 8  20513228.906    83998321.82646
  20528579.352   107878297.011 8  20528589.422    84061116.877 8
  25246099.211   132668972.677 6  25246114.117   103378461.601 6
  21454715.117   112745210.241 7  21454722.734    87853484.024 7
  21165458.266   111225188.316 7  21165462.969    86669052.44946
  22184117.266   116578235.250 7  22184125.809    90840210.533 7
  24904323.039   130872967.478 5  24904336.090   101978959.23242
  24906862.586   130886414.913 6  24906875.004   101989483.95444
  24308389.016   127741304.665 6  24308403.422    99538837.545 6
  23816041.555   125154257.987 6  23816052.414    97522796.431 6
  24222008.961   127287501.564 6  24222021.734    99185127.774 6
 14 11 14 15 20  0.0000000  0  9G10G06G12G02G17G23G09G05G25
  20422916.695   107323161.928 8  20422924.023    83628542.15946
  20587989.250   108190497.278 8  20587999.273    84304389.603 8
  21390525.102   112407890.868 8  21390532.625    87590637.910 7
  21094220.297   110850827.575 8  21094224.555    86377343.04646
  22305231.242   117214690.037 8  22305240.309    91336148.336 7
  24868141.945   130682937.652 7  24868152.664   101830932.16844
  24200168.500   127172605.609 6  24200182.813    99095696.146 6
  23601928.906   124029089.892 7  23601937.742    96646043.435 6
  24050754.789   126387556.594 6  24050767.367    98483872.333 6
 14 11 14 15 25  0.0000000  0  9G10G06G12G02G17G23G09G05G25
  20344245.906   106909745.153 8  20344253.164    83306399.47346
  20652660.547   108530343.944 8  20652670.227    84569204.763 8
  21337473.508   112129103.201 8  21337480.551    87373400.929 7
  21027498.375   110500203.170 8  21027502.848    86104129.33946
  22431562.273   117878561.547 7  22431571.125    91853449.703 7
  24837969.586   130524390.768 7  24837979.945   101707390.64043
  24098408.898   126637866.392 6  24098423.227    98679019.277 7
  23390711.125   122919139.476 7  23390721.391    95781147.479 6
  23885902.945   125521253.891 6  23885915.457    97808831.393 6
 14 11 14 15 30  0.0000000  0  9G10G06G12G02G17G23G09G05G25
  20277459.109   106558778.567 8  20277466.539    83032919.27946
  20722374.266   108896689.800 8  20722383.891    84854668.791 8
  21295781.742   111910009.391 8  21295788.531    87202678.520 8
  20965254.234   110173109.859 8  20965258.844    85849251.58346
  22563067.867   118569623.064 7  22563077.523    92391938.065 7
  24816582.258   130412004.868 6  24816594.977   101619816.35643
  24003616.320   126139741.647 6  24003631.273    98290872.370 7
  23182863.352   121826895.743 7  23182874.363    94930049.254 7
  23727958.523   124691252.996 6  23727971.105    97162077.835 7
 14 11 14 15 35  0.0000000  0  9G10G06G12G02G17G23G09G05G25
  20222756.273   106271314.889 8  20222763.832    82808921.80746
  20796916.055   109288410.762 8  20796926.301    85159905.583 8
  21265624.109   111751531.608 8  21265631.074    87079189.298 8
  20907446.969   109869332.327 8  20907451.953    85612541.89246
  22699689.750   119287570.605 7  22699699.574    92951376.600 7
  24804181.102   130346828.203 6  24804191.473   101569029.45743
  23916279.086   125680776.154 6  23916291.063    97933236.598 6
  22978854.500   120754825.604 7  22978864.965    94094670.722 7
  23577417.297   123900157.103 6  23577430.781    96545639.876 7
 14 11 14 15 40  0.0000000  0 10G10G06G12G13G02G17G23G09G05G25
  20180286.219   106048134.467 8  20180293.695    82635015.17447
  20876079.570   109704414.936 8  20876089.848    85484064.310 8
  21247130.461   111654345.022 8  21247137.266    87003459.323 7
  25311752.711   133014135.094 6  25311767.984   103647453.53842
  20854036.148   109588654.727 8  20854040.785    85393832.02747
  22841355.203   120032021.731 7  22841365.332    93531467.130 7
  24800924.602   130329707.884 7  24800934.852   101555688.79444
  23836855.180   125263395.922 7  23836867.527    97608005.264 7
  22779149.656   119705368.838 7  22779159.195    93276913.087 7
  23434762.398   123150500.928 7  23434774.855    95961492.562 7
 14 11 14 15 45  0.0000000  0 10G10G06G12G13G02G17G23G09G05G25
  20150143.250   105889731.009 8  20150150.883    82511583.99246
  20959662.039   110143643.612 8  20959672.383    85826320.034 8
  21240378.609   111618864.119 8  21240385.727    86975811.755 8
  25140841.070   132115983.425 6  25140855.336   102947594.21142
  20804979.148   109330861.272 8  20804984.004    85192954.22546
  22987975.281   120802511.971 7  22987986.547    94131847.821 7
  24806934.125   130361287.304 7  24806944.508   101580295.24743
  23765774.461   124889877.953 6  23765789.684    97316954.078 7
  22584203.750   118680929.155 7  22584213.070    92478649.692 7
  23300458.000   122444727.687 7  23300470.625    95411539.901 7
 14 11 14 15 50  0.0000000  0 10G10G06G12G13G02G17G23G09G05G25
  20132367.031   105796317.510 8  20132374.070    82438794.21246
  21047470.344   110605077.852 8  21047480.961    86185878.777 8
  21245397.625   111645237.152 8  21245404.172    86996362.009 8
  24969200.469   131214004.662 6  24969215.871   102244752.69343
  20760237.609   109095741.801 8  20760242.027    85009744.31446
  23139447.234   121598494.382 7  23139458.102    94752092.334 7
  24822293.953   130442011.172 6  24822304.359   101643197.27343
  23703444.156   124562330.032 7  23703456.738    97061722.757 7
  22394466.523   117683858.081 7  22394475.887    91701712.094 7
  23174948.953   121785172.988 6  23174960.734    94897601.479 7
 14 11 14 15 55  0.0000000  0 10G10G06G12G13G02G17G23G09G05G25
  20126945.070   105767823.719 8  20126952.086    82416591.22446
  21139318.711   111087742.760 8  21139329.508    86561980.861 8
  21262164.023   111733344.173 8  21262170.922    87065016.642 8
  24797388.750   130311135.264 6  24797403.418   101541220.10343
  20719772.859   108883097.526 8  20719777.523    84844047.38446
  23295650.250   122419339.943 7  23295662.332    95391710.596 7
  24847051.539   130572107.470 7  24847062.773   101744570.64444
  23650230.570   124282692.730 7  23650243.641    96843824.073 7
  22210375.352   116716453.581 8  22210384.504    90947891.208 7
  23058655.414   121174048.350 7  23058667.621    94421400.791 7
 14 11 14 16  0  0.0000000  0 10G10G06G12G13G02G17G23G09G05G25
  20133810.469   105803901.406 8  20133817.926    82444703.62647
  21235031.234   111590712.294 8  21235041.438    86953904.780 8
  21290604.328   111882799.011 8  21290611.789    87181474.574 8
  24625976.008   129410373.350 6  24625990.520   100839332.06643
  20683550.828   108692748.533 8  20683555.246    84695723.39547
  23456449.750   123264341.167 7  23456461.508    96050151.231 6
  24881209.477   130751604.456 6  24881219.520   101884437.31142
  23606467.672   124052719.192 7  23606479.926    96664624.692 7
  22032353.773   115780946.402 8  22032362.781    90218925.461 7
  22951971.914   120613422.908 7  22951983.883    93984550.173 7
 14 11 14 16  5  0.0000000  0 10G10G06G12G13G02G17G23G09G05G25
  20152844.211   105903922.865 8  20152851.594    82522642.31246
  21334438.844   112113103.316 8  21334450.059    87360962.276 8
  21330593.602   112092941.287 8  21330600.574    87345221.443 7
  24455546.133   128514763.428 6  24455559.063   100141456.54943
  20651539.320   108524526.628 8  20651543.914    84564641.35146
  23621694.086   124132701.285 7  23621706.168    96726793.447 6
  24924732.945   130980317.645 6  24924744.758   102062654.60143
  23572449.172   123873951.915 7  23572462.063    96525325.636 7
  21860809.570   114879484.091 8  21860818.230    89516488.536 7
  22855259.250   120105198.449 7  22855271.234    93588531.437 7
 14 11 14 16 10  0.0000000  0 10G10G06G12G13G02G17G23G09G05G25
  20183875.734   106066994.742 8  20183883.145    82649711.10546
  21437384.367   112654082.304 8  21437395.055    87782503.871 8
  21381954.445   112362846.128 8  21381962.418    87555536.536 7
  24286686.492   127627409.743 6  24286699.770    99450013.87743
  20623710.797   108378286.482 8  20623715.195    84450687.98546
  23791219.156   125023545.176 7  23791230.316    97420955.584 6
  24977547.102   131257856.956 6  24977558.770   102278918.23743
  23548428.547   123747721.586 7  23548440.766    96426964.037 7
  21696136.258   114014119.719 8  21696145.016    88842179.207 7
  22768846.938   119651095.972 7  22768857.863    93234685.580 7
 14 11 14 16 15  0.0000000  0 10G10G06G12G13G02G17G23G09G05G25
  20226688.070   106291974.687 8  20226695.234    82825019.85746
  21543718.938   113212871.278 7  21543729.965    88217923.288 8
  21444464.492   112691336.735 8  21444472.285    87811502.767 7
  24119998.086   126751452.674 6  24120010.328    98767449.01243
  20600043.000   108253910.998 8  20600047.145    84353771.92947
  23964839.344   125935921.710 7  23964853.332    98131896.712 6
  25039541.461   131583636.151 6  25039551.930   102532771.18943
  23534617.359   123675140.784 7  23534629.246    96370407.513 7
  21538704.695   113186813.084 8  21538713.008    88197525.387 7
  22693023.547   119252645.274 7  22693035.855    92924204.598 7
 14 11 14 16 20  0.0000000  0 10G10G06G12G13G02G17G23G09G05G25
  20281017.953   106577478.865 8  20281025.488    83047490.47046
  21653302.344   113788737.316 7  21653314.250    88666649.456 8
  21517851.492   113076982.969 8  21517859.168    88112005.757 7
  23956081.930   125890070.873 7  23956093.078    98096243.92743
  20580517.883   108151305.848 8  20580522.277    84273819.77347
  24142359.648   126868794.985 6  24142373.945    98858809.243 6
  25110565.609   131956868.797 6  25110576.852   102823601.24742
  23531180.648   123657080.939 6  23531192.965    96356334.255 7
  21388864.828   112399403.500 8  21388873.047    87583960.058 8
  22628041.063   118911157.149 7  22628053.027    92658109.953 7
 14 11 14 16 25  0.0000000  0 10G10G06G12G13G02G17G23G09G05G25
  20346559.914   106921904.481 8  20346567.480    83315873.89546
  21766008.406   114381005.384 8  21766019.809    89128156.336 8
  21601798.508   113518126.292 8  21601806.887    88455753.121 7
  23795544.117   125046454.959 7  23795555.789    97438883.87944
  20565124.453   108070413.281 8  20565129.086    84210786.48247
  24323571.766   127821059.820 7  24323583.207    99600831.699 5
  25190435.695   132376588.003 5  25190448.527   103150654.82743
  23538242.109   123694186.187 7  23538254.102    96385247.034 7
  21246945.867   111653614.859 8  21246953.711    87002826.602 8
  22574105.039   118627724.285 7  22574117.461    92437253.105 7
 14 11 14 16 30  0.0000000  0 11G10G06G12G13G02G17G29G23G09G05G25
  20422971.383   107323447.869 8  20422979.664    83628764.53446
  21881715.484   114989048.938 8  21881727.395    89601955.617 8
  21695948.492   114012884.477 8  21695956.008    88841278.311 7
  23638996.328   124223797.330 7  23639007.453    96797853.67844
  20553858.258   108011206.521 8  20553862.559    84164651.20347
  24508249.367   128791540.225 6  24508264.840   100357047.784 6
  24557062.305   129048195.432 6  24557075.223   100557131.894 6
  25278934.266   132841644.997 7  25278945.156   103513036.42743
  23555875.469   123786855.965 7  23555888.727    96457457.322 7
  21113248.781   110951035.228 8  21113257.090    86455362.435 8
  22531379.477   118403199.447 7  22531391.352    92262298.736 7
 14 11 14 16 35  0.0000000  0 11G10G06G12G13G02G17G29G23G09G05G25
  20509872.453   107780113.649 8  20509880.160    83984607.49046
  22000314.063   115612284.426 7  22000325.641    90087592.871 7
  21799901.875   114559162.642 8  21799910.762    89266948.858 7
  23487042.875   123425278.195 7  23487054.781    96175631.27944
  20546718.078   107973685.100 8  20546722.809    84135413.60747
  24696155.352   129778987.401 6  24696169.352   101126485.881 6
  24364799.711   128037849.798 6  24364812.973    99769850.536 6
  25375806.961   133350716.095 6  25375819.344   103909714.29043
  23584112.422   123935237.510 7  23584125.340    96573078.997 7
  20988048.844   110293105.768 8  20988056.770    85942690.516 8
  22499977.914   118238179.819 7  22499989.688    92133711.870 7
 14 11 14 16 40  0.0000000  0 10G10G06G12G13G02G17G29G09G05G25
  20606854.516   108289754.948 8  20606861.875    84381730.18246
  22121702.352   116250180.604 7  22121714.480    90584654.142 8
  21913226.188   115154680.635 8  21913234.715    89730988.032 7
  23340285.508   122654067.239 7  23340295.609    95574688.83844
  20543711.750   107957887.767 8  20543716.418    84123103.74147
  24887040.469   130782086.210 6  24887055.160   101908119.715 5
  24172972.477   127029793.362 6  24172983.777    98984353.073 6
  23622933.859   124139242.925 7  23622945.766    96732043.903 7
  20871591.672   109681119.870 8  20871600.008    85465818.736 8
  22479964.922   118133012.851 7  22479976.816    92051763.416 7
 14 11 14 16 45  0.0000000  0  9G10G06G12G13G02G29G09G05G25
  20713481.945   108850084.317 8  20713489.551    84818350.10146
  22245787.117   116902250.705 7  22245799.262    91092759.848 7
  22035453.281   115796986.286 8  22035462.387    90231484.997 7
  23199319.609   121913287.404 7  23199330.117    94997459.18944
  20544854.156   107963889.801 8  20544858.504    84127780.59547
  23981908.727   126025756.989 7  23981921.945    98201988.374 6
  23672276.836   124398542.649 7  23672290.258    96934095.221 7
  20764093.000   109116211.651 8  20764100.461    85025630.831 8
  22471359.336   118087783.987 7  22471369.926    92016520.000 7
 14 11 14 16 50  0.0000000  0  9G10G06G12G13G02G29G09G05G25
  20829297.047   109458695.838 8  20829304.691    85292592.38546
  22372485.992   117568052.821 7  22372499.035    91611565.948 7
  22166088.766   116483474.539 7  22166097.438    90766409.967 7
  23064727.875   121206006.506 7  23064738.250    94446331.10644
  20550165.211   107991799.756 8  20550170.227    84149528.55147
  23791958.477   125027561.546 7  23791970.297    97424174.982 6
  23732035.641   124712572.924 6  23732047.703    97178793.581 6
  20665737.461   108599352.501 8  20665745.168    84622883.688 8
  22474123.031   118102315.277 7  22474135.789    92027842.707 7
 14 11 14 16 55  0.0000000  0  9G10G06G12G13G02G29G09G05G25
  20953823.352   110113081.227 8  20953831.180    85802502.43646
  22501719.586   118247174.927 7  22501732.059    92140751.132 7
  22304607.906   117211395.026 7  22304617.402    91333619.672 7
  22937080.898   120535221.327 7  22937090.676    93923642.33644
  20559671.297   108041753.483 8  20559676.137    84188453.21447
  23603480.242   124037108.298 7  23603492.113    96652394.200 7
  23802056.500   125080531.976 6  23802070.039    97465514.033 7
  20576675.859   108131330.998 8  20576683.922    84258191.787 8
  22488175.875   118176155.739 7  22488187.816    92085380.253 7
 14 11 14 17  0  0.0000000  0 10G10G06G26G12G13G02G29G09G05G25
  21086570.477   110810673.489 7  21086578.969    86346080.35246
  22633418.688   118939257.370 7  22633431.848    92680035.235 7
  25252517.977   132702837.020 6  25252534.227   103404899.88543
  22450469.766   117977897.619 7  22450479.344    91930893.340 7
  22816933.648   119903846.039 7  22816943.180    93431663.27045
  20573407.203   108113934.476 8  20573412.230    84244697.90247
  23416857.828   123056404.288 7  23416868.613    95888210.662 6
  23882148.320   125501414.194 6  23882162.137    97793473.337 7
  20497027.656   107712776.992 8  20497035.230    83932045.955 8
  22513380.914   118308606.795 7  22513392.199    92188588.466 7
 14 11 14 17  5  0.0000000  0 10G10G06G26G12G13G02G29G09G05G25
  21227040.523   111548843.811 8  21227048.668    86921277.26246
  22767521.422   119643966.330 7  22767534.570    93229158.204 7
  25033257.891   131550619.322 6  25033273.609   102507069.10143
  22603110.180   118780023.214 7  22603119.535    92555925.032 7
  22704817.102   119314674.322 7  22704827.281    92972568.83745
  20591412.492   108208551.323 8  20591417.078    84318425.15946
  23232485.586   122087528.551 7  23232496.828    95133243.699 7
  23972078.070   125973995.801 6  23972092.520    98161717.622 7
  20426877.188   107344135.637 8  20426884.418    83644793.155 8
  22549555.469   118498704.641 7  22549567.414    92336716.198 7
 14 11 14 17 10  0.0000000  0 10G10G06G26G12G13G02G29G09G05G25
  21374723.984   112324925.838 8  21374732.840    87526015.97346
  22903967.461   120360990.096 7  22903980.457    93787877.001 7
  24811942.969   130387601.505 6  24811960.383   101600819.76543
  22761950.492   119614728.779 7  22761960.395    93206343.699 7
  22601239.539   118770374.688 7  22601249.684    92548439.97045
  20613730.383   108325834.386 8  20613735.434    84409814.45046
  23050774.547   121132633.486 7  23050785.293    94389170.775 6
  24071575.125   126496850.313 7  24071589.656    98569135.943 7
  20366274.055   107025664.126 8  20366281.586    83396633.691 8
  22596467.883   118745228.260 7  22596480.016    92528812.017 7
 14 11 14 17 15  0.0000000  0 10G10G06G26G12G13G02G29G09G05G25
  21529113.703   113136244.850 8  21529122.180    88158212.03846
  23042704.477   121090052.279 7  23042718.012    94355976.241 7
  24589116.211   129216650.856 6  24589131.211   100688394.26443
  22926399.734   120478913.907 7  22926410.914    93879733.326 7
  22506682.094   118273476.271 7  22506691.547    92161247.38345
  20640413.063   108466049.741 8  20640417.691    84519073.10247
  22872147.891   120193951.881 7  22872159.176    93657731.707 7
  24180333.563   127068373.261 6  24180345.379    99014477.473 6
  20315234.859   106757451.164 8  20315242.391    83187636.750 8
  22653840.734   119046724.347 7  22653853.844    92763743.413 7
 14 11 14 17 20  0.0000000  0 10G10G06G26G12G13G02G29G09G05G25
  21689700.125   113980127.873 7  21689708.461    88815782.30346
  23183684.117   121830899.314 7  23183697.520    94933258.427 7
  24365339.867   128040705.046 6  24365356.789    99772074.82843
  23095861.742   121369436.049 7  23095873.355    94573645.375 7
  22421595.102   117826341.770 7  22421603.789    91812831.58645
  20671514.398   108629489.116 8  20671520.027    84646428.21247
  22697045.188   119273785.350 7  22697056.352    92940719.898 7
  24298014.078   127686794.436 6  24298029.320    99496363.234 6
  20273742.930   106539409.407 8  20273750.133    83017734.235 8
  22721354.914   119401511.512 7  22721368.980    93040200.064 7
 14 11 14 17 25  0.0000000  0 10G10G06G26G12G13G02G29G09G05G25
  21855977.797   114853920.337 7  21855986.844    89496658.77645
  23326860.109   122583292.587 7  23326874.070    95519537.770 7
  24141192.742   126862812.393 7  24141206.375    98854240.06143
  23269730.297   122283116.144 7  23269741.773    95285602.499 7
  22346391.992   117431150.212 7  22346401.953    91504890.42545
  20707094.445   108816462.679 8  20707099.613    84792121.64146
  22525914.508   118374492.567 7  22525925.402    92239973.369 7
  24424254.984   128350183.671 6  24424270.012   100013288.816 6
  20241747.805   106371276.046 8  20241754.973    82886721.384 8
  22798648.984   119807689.783 7  22798662.344    93356701.636 7
 14 11 14 17 30  0.0000000  0 10G10G06G26G12G13G02G29G09G05G25
  22027448.211   115755001.396 7  22027457.777    90198799.07745
  23472191.375   123347008.979 7  23472205.824    96114640.177 7
  23917269.336   125686100.672 7  23917281.598    97937324.84844
  23447398.750   123216764.365 7  23447410.625    96013118.915 7
  22281451.563   117089883.116 8  22281460.277    91238968.00045
  20747215.352   109027300.373 8  20747221.188    84956410.58046
  22359214.500   117498482.131 7  22359224.633    91557368.791 7
  24558658.320   129056475.463 6  24558672.895   100563644.934 6
  20219168.781   106252622.675 8  20219176.133    82794264.317 8
  22885323.352   120263160.688 7  22885336.285    93711613.192 7
 14 11 14 17 35  0.0000000  0 10G10G06G26G12G13G02G29G09G05G25
  22203620.930   116680793.180 7  22203630.453    90920194.38245
  23619636.305   124121831.856 7  23619651.059    96718396.884 7
  23694182.445   124513780.501 7  23694197.730    97023829.47144
  23628257.430   124167182.773 6  23628270.555    96753702.954 6
  22227107.969   116804308.572 7  22227117.418    91016442.94345
  20791942.422   109262340.087 8  20791948.004    85139558.09446
  22197411.352   116648202.827 7  22197421.398    90894814.206 7
  24700809.398   129803478.543 5  24700824.922   101145724.012 6
  20205893.109   106182857.649 8  20205900.242    82739902.024 8
  22980941.633   120765636.802 7  22980955.574    94103152.216 7
 14 11 14 17 40  0.0000000  0 10G10G06G26G12G13G02G29G09G05G25
  22384016.664   117628773.844 7  22384027.156    91658879.54045
  23769155.563   124907552.625 7  23769171.551    97330645.238 7
  23472559.953   123349152.340 7  23472572.797    96116329.20544
  23811705.609   125131189.993 7  23811717.121    97504875.500 7
  22183654.547   116575961.324 7  22183662.938    90838510.53045
  20841341.602   109521932.185 7  20841347.316    85341837.31346
  22040976.188   115826133.001 7  22040985.422    90254240.933 7
  24850270.852   130588898.102 6  24850286.395   101757737.987 6
  20201778.867   106161237.679 8  20201785.859    82723055.388 8
  23085038.391   121312665.317 7  23085051.625    94529407.265 7
 14 11 14 17 45  0.0000000  0 10G10G06G26G12G13G02G29G09G05G25
  22568167.906   118596491.085 7  22568177.863    92412943.98845
  23920708.156   125703964.004 6  23920724.070    97951223.946 7
  23253040.516   122195575.421 7  23253053.469    95217439.79244
  23997135.930   126105623.963 7  23997148.723    98264172.481 6
  22151337.617   116406135.462 8  22151346.223    90706178.93645
  20895479.742   109806429.794 8  20895485.266    85563523.45546
  21890385.164   115034772.068 8  21890394.680    89637596.699 7
  25006588.109   131410349.960 6  25006603.418   102397829.152 6
  20206657.789   106186877.273 8  20206664.996    82743034.247 8
  23197118.008   121901643.781 7  23197132.547    94988350.639 7
 14 11 14 17 50  0.0000000  0 10G10G06G26G12G13G02G29G09G05G25
  22755622.188   119581567.757 7  22755632.180    93180535.24745
  24074256.523   126510856.883 7  24074272.375    98579970.077 7
  23036275.367   121056475.680 7  23036287.773    94329831.37245
  24183955.234   127087358.233 6  24183968.871    99029157.774 6
  22130355.797   116295875.379 8  22130364.832    90620262.01045
  20954425.289   110116186.982 8  20954430.496    85804892.45646
  21746113.719   114276621.501 8  21746122.645    89046830.663 7
  25169296.563   132265377.526 6  25169311.254   103064083.410 6
  20220336.305   106258759.093 8  20220343.813    82799046.063 8
  23316659.289   122529838.426 7  23316674.543    95477851.892 7
 14 11 14 17 55  0.0000000  0 10G10G06G15G26G12G13G02G29G05G25
  22945943.859   120581707.681 7  22945954.930    93959863.79944
  24229757.023   127328015.677 6  24229774.516    99216715.676 7
  24920184.063   130956514.868 5  24920201.785   102044067.719 6
  22822927.031   119935327.554 7  22822938.410    93456210.67445
  24371577.219   128073309.944 6  24371591.895    99797429.014 6
  22120858.164   116245965.586 8  22120867.020    90581371.49645
  21018242.719   110451549.716 8  21018247.898    86066213.78146
  21608635.617   113554173.180 8  21608643.914    88483884.439 7
  20242597.711   106375743.909 8  20242605.141    82890203.027 8
  23443122.742   123194401.944 7  23443137.453    95995692.402 7
 14 11 14 18  0  0.0000000  0 10G10G06G15G26G12G13G02G29G05G25
  23138711.641   121594701.560 7  23138721.977    94749208.41844
  24387168.195   128155210.368 6  24387185.027    99861281.469 6
  24700577.789   129802493.438 6  24700593.102   101144833.366 5
  22613663.203   118835646.148 7  22613674.793    92599318.00245
  24559424.109   129060444.001 6  24559438.984   100566621.862 6
  22122942.289   116256918.950 7  22122951.043    90589906.57945
  21086995.805   110812849.005 8  21087001.414    86347745.27446
  21478420.680   112869891.398 8  21478429.281    87950678.463 7
  20273203.984   106536579.833 8  20273211.211    83015529.597 8
  23575946.242   123892388.179 7  23575961.793    96539576.319 7
 14 11 14 18  5  0.0000000  0 10G10G06G15G26G12G13G02G29G05G25
  23333522.477   122618437.731 6  23333534.684    95546923.45744
  24546444.805   128992203.030 6  24546462.367   100513481.637 6
  24480607.320   128646550.942 6  24480623.359   100244101.569 6
  22409158.250   117760972.134 7  22409169.824    91761910.88845
  24746932.602   130045791.170 6  24746946.801   101334422.683 6
  22136656.117   116328984.222 7  22136664.660    90646061.24845
  21160745.484   111200405.281 8  21160750.977    86649736.70246
  21355930.727   112226201.742 8  21355939.563    87449102.407 7
  20311899.695   106739925.272 8  20311906.863    83173980.449 8
  23714555.953   124620779.085 6  23714572.539    97107152.121 7
 14 11 14 18 10  0.0000000  0 10G10G06G15G26G12G13G02G29G05G25
  23529994.727   123650901.719 6  23530006.867    96351439.31944
  24707535.867   129838737.916 6  24707552.973   101173117.660 6
  24260767.188   127491294.915 6  24260782.793    99343904.742 6
  22210089.609   116714862.042 7  22210099.199    90946761.55545
  24933545.984   131026444.657 6  24933560.543   102098565.751 5
  22161995.180   116462142.606 7  22162003.883    90749820.95845
  21239548.117   111614513.321 8  21239554.223    86972417.71246
  21241614.641   111625471.187 8  21241623.355    86981000.986 7
  20358412.375   106984352.427 8  20358420.078    83364442.935 8
  23858365.641   125376494.368 7  23858379.883    97696019.421 6
 14 11 14 18 15  0.0000000  0 10G10G06G15G26G12G13G02G29G05G25
  23727762.891   124690173.030 7  23727775.113    97161259.45844
  24870389.672   130694532.891 6  24870406.922   101839969.644 6
  24041562.422   126339369.608 7  24041577.508    98446301.448 6
  22017130.242   115700860.279 7  22017141.172    90156631.68345
  25118726.891   131999566.339 6  25118742.199   102856839.428 5
  22198903.852   116656098.272 8  22198912.844    90900954.97445
  21323453.133   112055435.466 8  21323459.348    87315992.89546
  21135908.766   111069983.542 8  21135917.633    86548153.815 8
  20412457.266   107268358.147 8  20412464.773    83585745.901 8
  24006778.969   126156404.414 6  24006794.926    98303739.572 7
 14 11 14 18 20  0.0000000  0  9G10G06G15G26G13G02G29G05G25
  23926480.055   125734430.126 6  23926491.906    97974964.59444
  25034945.844   131559282.477 6  25034964.504   102513799.139 6
  23823504.313   125193473.062 7  23823518.824    97553397.577 6
  21830951.953   114722490.880 8  21830961.551    89394267.10746
  22247277.563   116910297.886 8  22247285.797    91099032.16945
  21412504.602   112523400.741 8  21412510.395    87680640.64846
  21039228.688   110561926.252 8  21039237.449    86152265.286 8
  20473736.836   107590384.292 8  20473744.594    83836675.134 8
  24159196.188   126957352.953 6  24159211.930    98927853.183 6
 14 11 14 18 25  0.0000000  0 10G10G06G15G26G21G13G02G29G05G25
  24125820.141   126781967.520 6  24125833.043    98791225.73843
  25201145.875
  23607111.953   124056336.516 7  23607125.141    96667320.406 6
  21652218.461   113783243.518 8  21652228.441    88662386.75546
  25698846.617   135048380.723 5
  22306961.258   117223939.478 7  22306971.348    91343427.72145
  21506739.656   113018605.800 8  21506745.703    88066513.97146
  20951970.398   110103381.965 8  20951978.664    85794958.168 8
  20541947.914   107948834.959 8  20541955.434    84115987.074 8
  24315014.242   127776177.889 6  24315032.301    99565896.411 6
 14 11 14 18 30  0.0000000  0  9G10G15G26G21G13G02G29G05G25
  24325478.805   127831169.642 6  24325492.969    99608784.13743
  23392908.703   122930702.617 7  23392921.602    95790204.893 6
  21481580.328   112886537.484 8  21481590.129    87963655.55346
  25547653.711   134253861.706 6  25547667.813   104613418.00642
  22377756.383   117595967.658 7  22377766.059    91633319.19545
  21606185.195   113541194.327 8  21606191.699    88473725.03546
  20874502.711   109696288.285 8  20874511.457    85477742.456 8
  20616778.805   108342074.049 8  20616786.852    84422406.806 8
  24473630.492   128609707.231 5  24473648.785   100215397.623 6
 14 11 14 18 35  0.0000000  0  9G10G15G26G21G13G02G29G05G25
  24525165.945   128880526.893 7  24525180.980   100426463.51944
  23181423.609   121819349.030 7  23181434.570    94924217.865 6
  21319673.039   112035710.217 8  21319682.555    87300673.74546
  25395314.844   133453327.514 6  25395329.652   103989626.93242
  22459417.523   118025097.233 8  22459427.293    91967705.20945
  21710860.641   114091264.107 8  21710867.211    88902350.03246
  20807167.016   109342436.031 8  20807175.621    85202013.577 8
  20697916.242   108768449.997 8  20697924.109    84754647.472 8
  24634446.891   129454786.724 5  24634465.082   100873898.839 6
 14 11 14 18 40  0.0000000  0  9G10G15G26G21G13G02G29G05G25
  24724616.164   129928631.726 6  24724629.910   101243166.81144
  22973184.680   120725055.560 7  22973195.762    94071524.126 7
  21167111.195   111233993.998 8  21167120.609    86675960.28846
  25241900.898   132647138.109 6  25241915.203   103361428.95043
  22551659.148   118509827.040 7  22551668.816    92345415.97345
  21820774.805   114668860.466 8  21820780.773    89352424.25046
  20750271.336   109043447.673 8  20750280.371    84969035.750 8
  20785043.328   109226303.766 8  20785050.879    85111416.195 8
  24796864.609   130308288.398 4                 101538963.032 5
 14 11 14 18 45  0.0000000  0  9G10G15G26G21G13G02G29G05G25
  24923576.023   130974171.778 6  24923590.504   102057871.84543
  22768720.578   119650592.283 7  22768731.918    93234280.677 7
  21024483.594   110484483.797 8  21024492.816    86091927.21246
  25087490.164   131835710.861 6  25087504.063   102729149.38743
  22654155.703   119048448.059 7  22654165.418    92765119.86845
  21935922.078   115273962.809 8  21935929.281    89823931.76146
  20704087.820   108800750.954 8  20704096.000    84779921.542 8
  20877843.953   109713973.991 8  20877851.984    85491418.556 8
  24960295.758   131167114.333 5                 102208176.123 5
 14 11 14 18 50  0.0000000  0  9G10G15G26G21G13G02G29G05G25
  25121819.383   132015941.656 6  25121833.996   102869639.54043
  22568557.297   118598735.428 7  22568568.914    92414653.233 7
  20892350.570   109790121.962 8  20892359.629    85550866.53346
  24932176.805   131019540.648 6  24932190.648   102093174.39043
  22766547.961   119639066.157 7  22766557.586    93225340.98045
  22056289.539   115906493.425 8  22056296.383    90316811.93945
  20668850.328   108615578.707 8  20668858.707    84635631.484 8
  20976006.055   110229818.675 8  20976014.109    85893375.125 8
  25124157.711   132028217.367 5                 102879163.650 5
 14 11 14 18 55  0.0000000  0  9G30G15G26G21G13G02G18G29G05
  25219983.820   132532145.658 6  25220000.336   103271692.364 6
  22373219.164   117572231.180 7  22373230.680    91614781.557 7
  20771237.461   109153671.387 8  20771246.348    85054931.38846
  24776067.953   130199187.274 7  24776080.484   101453939.91743
  22888442.266   120279623.248 7  22888452.020    93724475.29244
  22181848.258   116566308.343 7  22181855.672    90830952.48645
  25205187.461   132454104.147 5  25205204.699   103211091.25542
  20644753.078   108488945.571 8  20644761.586    84536956.233 8
  21079221.063   110772215.755 8  21079229.145    86316021.690 8
 14 11 14 19  0  0.0000000  0  9G30G15G26G21G13G02G18G29G05
  25150540.344   132167219.673 6  25150556.910   102987334.383 6
  22183220.406   116573783.878 7  22183230.832    90836771.707 7
  20661630.164   108577682.344 8  20661639.309    84606109.15246
  24619280.578   129375278.987 6  24619293.926   100811935.37843
  23019418.508   120967903.125 7  23019428.676    94260796.13744
  22312558.148   117253186.558 7  22312565.297    91366181.21445
  25051170.961   131644747.290 6  25051188.512   102580424.61843
  20631943.398   108421631.082 8  20631952.098    84484503.335 8
  21187185.398   111339568.207 8  21187194.023    86758113.961 8
 14 11 14 19  5  0.0000000  0  9G30G15G26G21G13G02G18G29G05
  25088900.484   131843303.197 6  25088917.215   102734932.956 6
  21999066.969   115606057.958 8  21999077.336    90082700.630 7
  20563970.836   108064479.543 8  20563979.422    84206211.21846
  24461953.516   128548520.041 6  24461966.098   100167709.26343
  23159029.453   121701564.910 7  23159040.996    94832479.52344
  22448362.031   117966836.427 7  22448370.332    91922270.87045
  24899019.203   130845189.657 6  24899034.926   101957395.05143
  20630524.781   108414175.879 8  20630533.754    84478693.928 8
  21299601.938   111930320.905 8  21299610.473    87218440.339 8
 14 11 14 19 10  0.0000000  0  9G30G15G26G21G13G02G18G29G05
  25035435.859   131562343.827 6  25035451.641   102516004.230 6
  21821255.891   114671656.052 8  21821265.891    89354596.285 7
  20478653.813   107616136.960 8  20478662.367    83856853.68846
  24304232.320   127719694.800 6  24304243.355    99521873.12644
  23306811.750   122478156.897 7  23306821.801    95437615.03544
  22589190.992   118706893.734 7  22589199.797    92498937.71545
  24748789.875   130055736.656 6  24748803.730   101342238.91742
  20640553.836   108466876.893 8  20640561.949    84519759.542 8
  21416184.445   112542962.892 8  21416192.855    87695823.168 8
 14 11 14 19 15  0.0000000  0  9G30G15G26G21G13G02G18G29G05
  24990484.281   131326125.273 7  24990500.410   102331938.160 6
  21650266.141   113773106.312 7  21650276.348    88654428.520 7
  20406021.969   107234455.882 8  20406030.344    83559440.17046
  24146280.930   126889665.885 6  24146292.168    98875099.07444
  23462277.531   123295131.296 6  23462288.527    96074217.07643
  22734960.852   119472914.989 7  22734968.668    93095836.23545
  24600534.133   129276651.392 6  24600548.031   100735161.43943
  20662037.469   108579775.207 8  20662046.363    84607732.213 8
  21536654.125   113176032.651 8  21536662.641    88189123.770 8
 14 11 14 19 20  0.0000000  0  9G30G15G26G21G13G02G18G29G05
  24954352.695   131136256.070 6  24954368.805   102183988.532 6
  21486565.031   112912853.856 8  21486574.559    87984103.060 7
  20346363.680   106920950.259 8  20346372.219    83315150.27646
  23988280.641   126059377.047 6  23988292.871    98228122.11544
  23624931.094   124149871.142 7  23624942.184    96740246.85743
  22885573.070   120264381.034 7  22885582.422    93712561.75645
  24454292.602   128508160.485 7  24454307.375   100136339.06343
  20694936.875   108752659.173 8  20694945.004    84742446.836 8
  21660743.727   113828126.876 8  21660752.789    88697248.592 7
 14 11 14 19 25  0.0000000  0  9G30G15G26G21G13G02G18G29G05
  24927312.023   130994151.040 7  24927327.980   102073257.309 7
  21330596.945   112093238.418 8  21330606.180    87345442.558 7
  20299908.758   106676827.703 8  20299916.723    83124925.11447
  23830427.477   125229853.203 6  23830437.957    97581741.23444
  23794260.141   125039702.120 6  23794272.625    97433620.41043
  23040912.625   121080692.736 7  23040920.992    94348647.38844
  24310103.547   127750452.790 7  24310117.711    99545920.27044
  20739160.906   108985058.230 8  20739169.391    84923536.718 8
  21788198.258   114497899.928 7  21788206.508    89219148.972 7
 14 11 14 19 30  0.0000000  0  9G30G15G26G21G13G02G18G29G05
  24909589.461   130901025.629 6  24909605.621   102000692.267 6
  21182784.281   111316480.305 8  21182793.160    86740177.177 8
  20266825.719   106502975.791 8  20266833.703    82989456.19846
  23672929.391   124402201.456 7  23672939.559    96936818.92044
  23969751.578   125961908.535 7  23969762.828    98152221.26643
  23200851.070   121921168.938 7  23200860.410    95003562.49244
  24167995.016   127003673.573 6  24168008.594    98964016.24743
  20794572.648   109276248.001 8  20794581.324    85150437.449 8
  21918771.867   115184066.966 8  21918780.789    89753824.005 7
 14 11 14 19 35  0.0000000  0  9G30G15G26G21G13G02G18G29G05
  24901380.352   130857885.201 6  24901396.691   101967076.765 6
  21043525.555   110584672.219 8  21043534.016    86169937.826 8
  20247221.102   106399956.148 8  20247230.066    82909181.22146
  23516014.359   123577611.398 7  23516024.035    96294282.26345
  24150883.617   126913752.221 6  24150894.797    98893916.18443
  23365243.016   122785049.437 7  23365254.313    95676714.47444
  24027988.977   126267941.568 7  24028000.902    98390720.05043
  20860986.930   109625253.599 8  20860995.246    85422389.448 8
  22052232.063   115885407.215 8  22052241.551    90300322.373 7
 14 11 14 19 40  0.0000000  0  9G30G15G26G21G13G02G18G29G05
  24902834.148   130865522.943 6  24902850.320   101973028.244 6
  20913190.523   109899762.868 8  20913199.547    85636242.929 8
  20241141.211   106368003.879 8  20241149.332    82884283.33447
  23359924.789   122757360.924 7  23359934.852    95655127.18345
  24337131.820   127892494.325 6  24337144.723    99656571.11843
  23533931.477   123671499.850 7  23533942.078    96367453.25144
  23890102.570   125543346.211 7  23890114.980    97826101.14244
  20938171.578   110030862.150 8  20938180.426    85738447.637 8
  22188362.633   116600770.733 8  22188371.219    90857747.849 7
 14 11 14 19 45  0.0000000  0  9G30G15G26G21G13G02G18G29G05
  24914057.906   130924505.953 7  24914072.969   102018989.242 6
  20792121.078   109263537.801 8  20792129.398    85140483.544 8
  20248564.813   106407015.734 8  20248573.594    82914682.04347
  23204919.141   121942804.020 7  23204929.184    95020408.48645
  24527978.344   128895393.473 6  24527992.863   100438049.52843
  23706737.820   124579603.059 6  23706750.094    97075064.30344
  23754346.336   124829951.060 7  23754358.773    97270210.21044
  21025851.781   110491624.877 8  21025860.934    86097483.052 8
  22326953.750   117329068.132 8  22326962.590    91425251.553 7
 14 11 14 19 50  0.0000000  0  9G30G15G26G21G13G02G18G29G05
  24935119.188   131035182.331 6  24935135.285   102105230.177 6
  20680624.070   108677619.168 8  20680632.250    84683924.030 8
  20269412.258   106516567.220 8  20269420.324    83000046.66946
  23051271.852   121135384.067 7  23051280.777    94391250.98345
  24722904.883   129919737.360 6  24722919.418   101236238.62742
  23883477.797   125508371.973 6  23883489.180    97798778.66343
  23620730.031   124127799.397 7  23620742.973    96723080.50044
  21123711.273   111005875.705 8  21123720.551    86498197.297 8
  22467812.617   118069285.888 8  22467822.234    92002043.711 7
 14 11 14 19 55  0.0000000  0  9G30G15G26G21G13G02G18G29G05
  24966039.828   131197674.156 6  24966055.801   102231846.969 6
  20578973.297   108143443.309 8  20578981.934    84267683.484 8
  20303539.984   106695910.360 8  20303548.828    83139794.41347
  22899271.539   120336622.877 7  22899281.090    93768840.52945
  24921403.125   130962843.996 6  24921416.684   102049048.50142
  24063949.266   126456745.456 6  24063959.645    98537769.50443
  23489257.727   123436914.229 7  23489270.121    96184729.53444
  21231392.945   111571740.993 8  21231401.992    86939130.499 8
  22610760.133   118820474.945 8  22610770.297    92587385.066 7
 14 11 14 20  0  0.0000000  0  9G30G15G26G21G13G02G18G29G05
  25006801.086   131411875.818 6  25006817.109   102398757.303 6
  20487405.289   107662252.296 8  20487413.730    83892729.839 8
  20350746.969   106943985.492 8  20350755.813    83333099.59846
  22749223.914   119548118.669 7  22749232.582    93154422.48545
  25122966.844   132022074.312 6  25122980.559   102874423.23942
  24247934.797   127423588.135 7  24247945.789    99291152.15443
  23359932.656   122757305.454 7  23359944.004    95655165.37344
  21348501.570   112187152.519 8  21348511.508    87418671.260 7
  22755626.852   119581751.732 7  22755636.609    93180587.000 7
 14 11 14 20  5  0.0000000  0  8G30G15G26G21G02G18G29G05
  25057340.563   131677462.288 6  25057357.023   102605707.957 6
  20406119.164   107235090.970 8  20406127.508    83559877.256 8
  20410776.891   107259442.360 8  20410785.379    83578909.86346
  22601447.617   118771552.805 7  22601456.430    92549306.92445
  24435205.938   128407703.661 6  24435218.152   100057994.03743
  23232752.203   122088977.088 7  23232763.891    95134391.43145
  21474613.734   112849870.480 8  21474622.930    87935074.149 7
  22902258.023   120352301.799 7  22902268.703    93781014.775 7
 14 11 14 20 10  0.0000000  0  9G30G15G26G21G24G02G18G29G05
  25117554.078   131993882.528 6  25117569.148   102852268.977 6
  20335272.227   106862788.153 8  20335280.238    83269771.423 8
  20483318.313   107640647.001 8  20483326.875    83875951.99746
  22456275.133   118008670.127 7  22456283.828    91954853.60745
  25036810.180   131569278.396 6  25036829.781   102521636.960 6
  24625524.125   129407824.963 6  24625537.207   100837307.90643
  23107718.352   121431921.326 7  23107728.809    94622401.00845
  21609269.438   113557486.868 7  21609278.887    88486462.739 7
  23050510.250   121131369.836 7  23050521.199    94388079.772 7
 14 11 14 20 15  0.0000000  0  8G30G15G26G21G24G18G29G05
  25187296.336   132360380.397 6  25187311.988   103137851.763 6
  20274982.133   106545964.584 8  20274990.055    83022896.213 8
  20568012.102   108085714.562 8  20568020.988    84222757.50846
  22314053.367   117261291.291 7  22314061.574    91372481.20445
  24847190.234   130572827.823 6  24847209.086   101745185.342 7
  22984828.484   120786134.335 7  22984839.535    94119191.26545
  21751984.500   114307459.223 7  21751994.719    89070856.013 7
  23200252.539   121918267.328 6  23200264.457    95001245.796 7
 14 11 14 20 20  0.0000000  0  8G30G15G26G21G24G18G29G05
  25266384.000   132775988.233 6  25266398.293   103461702.436 6
  20225325.516   106285018.962 8  20225333.711    82819562.242 8
  20664454.375   108592520.953 8  20664463.145    84617671.24946
  22175139.547   116531294.187 7  22175147.500    90803652.86746
  24656051.922   129568392.866 6  24656069.441   100962510.303 6
  22864082.539   120151614.183 7  22864092.500    93624761.21945
  21902250.758   115097112.513 7  21902261.559    89686169.382 7
  23351364.391   122712360.482 7  23351374.980    95620018.808 7
 14 11 14 20 25  0.0000000  0  7G15G26G21G24G18G29G05
  20186337.313   106080133.367 8  20186345.152    82659911.398 8
  20772201.695   109158736.655 8  20772211.004    85058877.96146
  22039901.617   115820618.761 7  22039909.816    90249880.42746
  24463917.430   128558730.019 6  24463935.430   100175762.074 7
  22745481.531   119528368.554 7  22745491.555    93139116.43445
  22059540.813   115923670.542 8  22059551.164    90330239.636 7
  23503735.750   123513076.603 7  23503747.520    96243952.597 7
 14 11 14 20 30  0.0000000  0  7G15G26G21G24G18G29G05
  20158009.156   105931268.724 8  20158016.617    82543913.225 8
  20890775.336   109781844.430 8  20890784.797    85544416.13146
  21908718.977   115131252.843 7  21908727.094    89712712.83446
  24271326.305   127546662.091 6  24271342.473    99387139.697 6
  22629029.906   118916414.643 7  22629040.121    92662270.24145
  22223306.750   116784262.198 7  22223317.219    91000829.594 7
  23657268.820   124319892.361 7  23657279.664    96872639.377 6
 14 11 14 20 35  0.0000000  0  7G15G26G21G24G18G29G05
  20140293.672   105838173.766 8  20140301.160    82471371.913 8
  21019666.641   110459170.518 8  21019675.777    86072202.25246
  21781977.695   114465226.285 8  21781985.887    89193731.71646
  24078826.703   126535086.193 6  24078843.961    98598901.131 6
  22514734.219   118315788.766 8  22514743.836    92194250.81745
  22392988.211   117675944.721 7  22393000.313    91695646.077 7
  23811872.211   125132335.438 7  23811884.391    97505710.991 7
 14 11 14 20 40  0.0000000  0  7G15G26G21G24G18G29G05
  20133102.555   105800384.852 8  20133110.047    82441926.201 8
  21158342.297   111187910.438 8  21158351.043    86640051.01946
  21660071.297   113824603.952 7  21660078.844    88694545.96446
  23886984.828   125526959.718 6  23887000.363    97813350.877 7
  22402604.906   117726548.549 7  22402613.727    91735103.38545
  22568016.922   118595717.393 7  22568028.102    92412350.820 7
  23967465.273   125949982.884 7  23967477.102    98142838.138 6
 14 11 14 20 45  0.0000000  0  8G15G26G21G24G22G18G29G05
  20136308.266   105817232.094 8  20136315.648    82455054.004 8
  21306245.609   111965149.146 8  21306255.133    87245691.14346
  21543395.461   113211468.409 8  21543402.574    88216778.53346
  23696370.742   124525287.820 6  23696386.078    97032830.022 7
  25273504.578   132813114.428 6  25273519.160   103490833.74843
  22292657.688   117148772.596 7  22292666.648    91284889.20345
  22747809.781   119540533.916 7  22747822.113    93148570.175 7
  24123976.414   126772446.832 7  24123987.914    98783718.492 6
 14 11 14 20 50  0.0000000  0  8G15G26G21G24G22G18G29G05
  20149748.000   105887857.183 8  20149755.008    82510086.625 8
  21462810.117   112787897.499 8  21462819.215    87886793.19746
  21432349.648   112627921.959 8  21432357.516    87762067.54146
  23507568.492   123533130.478 7  23507583.055    96259721.965 7
  25119445.867   132003539.423 7  25119461.273   102859997.64543
  22184911.906   116582574.085 8  22184922.203    90843696.41945
  22931785.688   120507326.293 7  22931797.727    93901913.397 7
  24281338.492   127599385.949 7  24281348.695    99428085.988 6
 14 11 14 20 55  0.0000000  0  9G15G26G21G24G22G18G29G27G05
  20173222.672   106011219.343 8  20173230.098    82606213.018 8
  21627454.500   113653109.897 8  21627464.406    88560984.04245
  21327334.820   112076066.008 8  21327341.961    87332050.32846
  23321165.750   122553585.358 7  23321181.020    95496441.518 7
  24965718.758   131195700.826 6  24965733.605   102230514.98843
  22079398.852   116028099.185 8  22079407.422    90411638.80746
  23119357.055   121493013.712 7  23119369.527    94669979.808 7
  24931445.352   131015529.769 5  24931460.008   102090177.824 6
  24439492.750   128430492.825 7  24439504.781   100075701.260 6
 14 11 14 21  0  0.0000000  0  9G15G26G21G24G22G18G29G27G05
  20206501.930   106186102.159 8  20206509.316    82742485.405 8
  21799593.961   114557704.558 7  21799603.828    89265862.29545
  21228747.859   111557988.872 8  21228754.926    86928354.25746
  23137757.188   121589773.609 7  23137772.098    94745421.172 7
  24812343.547   130389721.733 6  24812358.469   101602481.40443
  21976150.641   115485527.357 8  21976158.871    89988856.09946
  23309937.141   122494511.648 7  23309949.797    95450366.049 7
  24807879.117   130366191.351 6  24807897.250   101584201.876 6
  24598387.531   129265487.614 7  24598397.766   100726346.093 6
 14 11 14 21  5  0.0000000  0  9G15G26G21G24G22G18G29G27G05
  20249324.133   106411136.433 8  20249331.930    82917836.849 8
  21978639.500   115498591.961 7  21978649.578    89999020.70145
  21136980.984   111075753.350 8  21136988.090    86552586.68746
  22957940.109   120644833.398 7  22957953.742    94009105.958 7
  24659351.219   129585745.582 6  24659365.129   100976008.79244
  21875209.258   114955082.166 8  21875218.219    89575522.92246
  23502941.867   123508748.559 7  23502954.707    96240678.736 6
  24692778.813   129761352.095 6  24692799.422   101112900.712 6
  24757973.867   130104119.382 6  24757986.520   101379825.177 6
 14 11 14 21 10  0.0000000  0  9G15G26G21G24G22G18G29G27G05
  20301402.898   106684811.031 8  20301410.281    83131089.812 8
  22164004.281   116472690.465 7  22164014.891    90758057.82245
  21052419.547   110631383.951 8  21052426.828    86206325.16046
  22782311.570   119721907.049 7  22782323.887    93289944.387 7
  24506770.547   128783935.985 7  24506783.914   100351223.79344
  21776626.586   114437028.827 8  21776635.258    89171845.81146
  23697788.977   124532675.686 7  23697803.234    97038542.260 6
  24586505.398   129202885.070 6  24586523.785   100677733.542 7
  24918208.891   130946160.531 6  24918220.355   102035961.326 6
 14 11 14 21 15  0.0000000  0  9G15G26G21G24G22G18G29G27G05
  20362425.453   107005486.066 8  20362432.969    83380966.386 8
  22355108.383   117476944.318 7  22355118.684    91540592.59045
  20975438.688   110226848.965 8  20975445.906    85891103.48746
  22611467.648   118824125.041 7  22611481.254    92590375.648 7
  24354637.305   127984482.532 6  24354649.977    99728275.44843
  21680461.578   113931679.337 8  21680469.426    88778067.63446
  23893909.039   125563275.944 7  23893922.492    97841605.602 7
  24489382.852   128692505.391 7  24489399.840   100280036.732 7
  25079051.641   131791401.189 6  25079063.633   102694590.954 6
 14 11 14 21 20  0.0000000  0  9G15G26G21G24G22G18G29G27G05
  20432058.508   107371412.213 8  20432066.336    83666103.634 8
  22551376.195   118508340.364 7  22551387.066    92344277.18845
  20906399.867   109864046.586 8  20906406.953    85608400.71946
  22446000.641   117954593.379 7  22446012.945    91912819.904 7
  24202994.188   127187600.580 7  24203005.648    99107330.55844
  21586781.914   113439392.528 8  21586789.625    88394468.08846
  24090729.422   126597573.131 7  24090743.359    98647549.736 6
  24401702.773   128231755.480 6  24401720.297    99921012.476 7
  25240466.820   132639644.675 6  25240479.051   103355560.549 5
 14 11 14 21 25  0.0000000  0  9G15G26G21G24G22G18G29G27G05
  20509951.516   107780742.760 8  20509959.699    83985062.417 8
  22752247.930   119563920.193 7  22752258.352    93166806.27245
  20845646.445   109544784.967 7  20845652.605    85359625.66546
  22286492.867   117116378.216 7  22286504.664    91259666.343 7
  24051887.211   126393537.561 7  24051899.363    98488582.38145
  21495665.922   112960576.891 8  21495673.824    88021365.66946
  24287696.734   127632638.209 6  24287712.625    99454092.149 6
  24323726.000   127821989.613 7  24323742.961    99601716.003 6
  25402418.500   133490703.627 5                 104018724.303 5
 14 11 14 21 30  0.0000000  0  9G14G15G26G21G24G22G18G29G27
  25066040.672   131722820.918 6  25066056.828   102641306.91342
  20595740.047   108231563.370 8  20595747.754    84336351.077 8
  22957171.875   120640805.517 7  22957182.797    94005937.26244
  20793505.172   109270781.645 7  20793511.980    85146116.74646
  22133518.344   116312496.420 7  22133530.754    90633266.041 8
  23901372.602   125602584.926 7  23901382.816    97872257.73944
  21407202.516   112495701.931 8  21407210.055    87659126.12946
  24484266.375   128665607.751 6  24484281.973   100259001.643 6
  24255673.359   127464371.697 7  24255690.227    99323053.964 7
 14 11 14 21 35  0.0000000  0  9G14G15G26G21G24G22G18G29G27
  24876530.789   130726956.926 5  24876547.430   101865311.93742
  20689045.219   108721883.979 8  20689052.805    84718419.003 8
  23165616.641   121736183.553 7  23165626.465    94859478.21644
  20750277.797   109043623.126 8  20750284.852    84969110.36046
  21987635.672   115545878.778 8  21987647.207    90035902.575 8
  23751509.719   124815060.919 7  23751521.148    97258604.60744
  21321489.313   112045277.123 8  21321496.609    87308146.22946
  24679900.938   129693667.891 6  24679916.445   101060085.459 6
  24197722.469   127159842.099 7  24197738.289    99085759.178 7
 14 11 14 21 40  0.0000000  0  9G14G15G26G21G24G22G18G29G27
  24689439.516   129743791.097 5  24689454.973   101099210.87242
  20789481.656   109249680.877 8  20789489.355    85129689.232 8
  23377063.758   122847344.455 6  23377075.590    95725317.51744
  20716243.758   108864771.007 7  20716250.188    84829745.23846
  21849386.156   114819377.015 7  21849397.555    89469798.167 8
  23602371.789   124031340.221 7  23602381.844    96647915.14145
  21238635.547   111609879.258 8  21238642.875    86968875.79746
  24874082.813   130714089.160 6  24874098.047   101855216.995 5
  24150013.219   126909133.953 6  24150028.703    98890403.098 6
 14 11 14 21 45  0.0000000  0  8G14G15G26G21G24G22G18G27
  24505014.008   128774638.888 6  24505029.273   100344029.79143
  20896657.406   109812895.239 8  20896665.598    85568557.554 8
  23591016.125   123971673.567 6  23591027.141    96601417.86944
  20691651.320   108735539.345 7  20691657.852    84729045.35346
  21719291.719   114135733.492 7  21719303.707    88937089.908 8
  23454036.344   123251840.152 7  23454045.145    96040514.49545
  21158760.406   111190136.174 8  21158767.957    86641803.85946
  24112642.555   126712750.355 7  24112658.082    98737377.672 7
 14 11 14 21 50  0.0000000  0  8G14G15G26G21G24G22G18G27
  24323494.273   127820758.738 6  24323509.270    99600749.23543
  21010179.352   110409454.839 8  21010187.145    86033409.125 8
  23806998.664   125106660.456 7  23807008.230    97485823.20244
  20676720.563   108657079.721 7  20676727.586    84667908.12246
  21597850.953   113497560.136 7  21597861.930    88439812.856 8
  23306593.641   122477029.808 7  23306602.133    95436768.08545
  21081994.094   110786730.694 8  21082001.633    86327462.36646
  24085659.820   126570960.723 7  24085675.828    98626892.812 7
 14 11 14 21 55  0.0000000  0  8G14G15G26G21G24G22G18G27
  24145107.883   126883343.899 6  24145122.320    98870298.56943
  21129650.227   111037278.481 8  21129658.105    86522622.443 8
  24024546.406   126249898.951 6  24024559.707    98376658.88843
  20671636.977   108630363.558 7  20671643.313    84647090.47246
  21485531.578   112907321.638 8  21485542.266    87979887.616 8
  23160141.141   121707426.332 7  23160150.039    94837078.75145
  21008476.766   110400395.364 8  21008483.520    86026422.43446
  24069072.344   126483792.006 6  24069087.332    98558969.525 7
 14 11 14 22  0  0.0000000  0  8G14G15G26G21G24G22G18G27
  23970072.742   125963529.636 7  23970085.645    98153561.93143
  21254677.148   111694301.489 8  21254684.957    87034588.412 8
  24243233.445   127399103.359 6  24243244.086    99272143.93043
  20676550.172   108656184.036 7  20676556.668    84667210.50646
  21382772.789   112367324.412 7  21382784.016    87559111.317 8
  23014790.813   120943610.680 7  23014799.355    94241899.00145
  20938358.797   110031923.066 8  20938365.465    85739301.78146
  24062839.852   126451040.018 7  24062854.930    98533448.851 7
 14 11 14 22  5  0.0000000  0  8G14G15G26G21G24G22G18G27
  23798588.680   125062383.301 7  23798600.977    97451371.92644
  21384871.750   112378478.345 8  21384879.656    87567713.255 7
  24462639.563   128552098.573 6  24462649.723   100170583.27943
  20691573.242   108735131.578 7  20691579.363    84728728.19846
  21289979.008   111879689.189 8  21289989.535    87179136.560 8
  22870662.398   120186220.880 7  22870670.863    93651726.73745
  20871799.008   109682151.295 8  20871805.559    85466752.84746
  24066876.352   126472256.338 7  24066891.461    98549981.563 7
 14 11 14 22 10  0.0000000  0  8G14G15G26G21G24G22G18G27
  23630847.805   124180907.460 7  23630859.773    96764510.32644
  21519851.242   113087798.857 8  21519858.609    88120430.619 7
  24682376.945   129706832.057 5  24682387.535   101070376.93243
  20716780.414   108867597.346 7  20716786.930    84831948.29146
  21207515.289   111446344.858 8  21207525.801    86841466.359 8
  22727891.719   119435959.538 7  22727899.719    93067109.21945
  20808968.227   109351973.678 8  20808974.344    85209471.95646
  24081053.422   126546760.220 6  24081069.172    98608036.747 7
 14 11 14 22 15  0.0000000  0  9G14G15G26G21G24G22G18G19G27
  23467025.703   123320029.529 7  23467037.012    96093698.38344
  21659240.055   113820293.975 8  21659247.672    88691206.046 7
  24902078.180   130861371.027 6  24902087.281   101970019.27543
  20752206.047   109053759.793 7  20752213.027    84977009.83346
  21135709.258   111069005.652 7  21135720.004    86547436.555 8
  22586623.375   118693591.266 7  22586630.547    92488641.70345
  20750043.844   109042326.994 8  20750050.367    84968189.22446
  24980020.086
  24105197.797   126673638.157 6  24105213.203    98706902.830 7
 14 11 14 22 20  0.0000000  0  8G14G15G21G24G22G18G19G27
  23307287.578   122480607.354 7  23307299.055    95439605.28144
  21802674.430   114574044.785 8  21802681.738    89278544.339 7
  20797843.133   109293583.021 8  20797849.848    85163884.97446
  21074844.195   110749158.626 8  21074854.430    86298205.738 8
  22447014.977   117959947.959 8  22447021.375    91916972.76245
  20695213.102   108754191.698 8  20695219.766    84743668.75346
  24924953.258   130981468.354 6  24924966.098   102063570.25742
  24139091.531   126851750.928 7  24139106.141    98845692.055 7
 14 11 14 22 25  0.0000000  0  8G14G15G21G24G22G18G19G27
  23151779.273   121663414.409 6  23151790.762    94802833.15844
  21949797.078   115347182.088 8  21949804.480    89880989.126 7
  20853640.906   109586801.812 7  20853647.148    85392367.05046
  21025155.203   110488042.721 7  21025164.715    86094739.329 8
  22309235.961   117235920.021 8  22309241.379    91352796.71445
  20644667.281   108488574.582 7  20644673.707    84536694.88346
  24880036.102   130745427.215 6  24880048.484   101879642.90443
  24182474.891   127079732.745 7  24182490.629    99023340.159 7
 14 11 14 22 30  0.0000000  0  8G14G15G21G24G22G18G19G27
  23000637.258   120869158.942 7  23000647.613    94183934.13245
  22100267.086   116137907.187 8  22100274.602    90497138.761 7
  20919508.680   109932940.706 8  20919515.582    85662085.64046
  20986832.813   110286657.371 8  20986842.207    85937816.203 8
  22173469.383   116522470.922 8  22173476.137    90796863.65046
  20598606.383   108246525.496 8  20598612.879    84348085.71146
  24845354.109   130563178.386 6  24845365.980   101737631.94043
  24235050.727   127356017.595 7  24235065.730    99238626.852 7
 14 11 14 22 35  0.0000000  0  8G14G15G21G24G22G18G19G27
  22853980.297   120098477.971 7  22853990.250    93583405.06644
  22253755.539   116944494.036 7  22253762.746    91125648.199 7
  20995316.617   110331312.382 8  20995323.320    85972505.11146
  20960017.406   110145746.520 8  20960027.063    85828016.195 8
  22039914.570   115820638.590 8  22039920.660    90249982.34646
  20557236.281   108029125.381 8  20557242.426    84178683.50446
  24820953.953   130434959.438 6  24820966.047   101637722.03443
  24296483.531   127678848.624 7  24296498.016    99490183.237 7
 14 11 14 22 40  0.0000000  0  8G14G15G21G24G22G18G19G27
  22711914.117   119351925.325 7  22711924.465    93001677.47845
  22409946.133   117765282.748 7  22409953.867    91765223.944 7
  21080890.438   110781005.482 8  21080897.273    86322915.22746
  20944800.961   110065785.842 7  20944810.023    85765709.775 8
  21908779.008   115131521.417 7  21908784.902    89713009.29246
  20520764.508   107837467.548 8  20520770.758    84029340.18347
  24806835.555   130360765.445 6  24806845.992   101579909.29544
  24366403.078   128046276.115 6  24366418.078    99776489.975 6
 14 11 14 22 45  0.0000000  0  8G14G15G21G24G22G18G19G27
  22574531.938   118629983.276 7  22574541.477    92439126.96645
  22568539.047   118598693.648 7  22568546.719    92414635.300 7
  21176018.023   111280905.548 8  21176024.566    86712447.61246
  20941223.203   110046988.417 8  20941232.992    85751062.933 8
  21780285.273   114456285.423 8  21780290.156    89186852.62846
  20489403.305   107672664.612 8  20489409.109    83900922.86746
  24802950.758   130340357.520 6  24802963.129   101564007.81244
  24444406.250   128456185.054 7  24444422.473   100095899.115 7
 14 11 14 22 50  0.0000000  0  8G14G15G21G24G22G18G19G27
  22441912.102   117933066.911 7  22441921.164    91896076.84545
  22729248.422   119443230.927 7  22729256.363    93072716.575 7
  21280451.617   111829704.729 7  21280458.172    87140083.21546
  20949276.773   110089311.168 8  20949286.066    85784042.291 8
  21654668.594   113796170.150 8  21654673.617    88672478.01246
  20463365.992   107535840.072 8  20463371.918    83794306.82647
  24809213.953   130373268.275 6  24809224.109   101589653.39543
  24530062.719   128906311.563 7  24530078.980   100446646.528 7
 14 11 14 22 55  0.0000000  0  8G14G15G21G24G22G18G19G27
  22314117.906   117261508.349 7  22314126.313    91372785.55245
  22891804.414   120297469.749 7  22891812.098    93738357.333 7
  21393901.969   112425890.726 8  21393908.652    87604643.58046
  20968900.461   110192435.879 8  20968909.672    85864399.686 8
  21532175.484   113152468.970 7  21532180.215    88170893.70546
  20442865.070   107428109.233 8  20442870.902    83710361.20646
  24825485.023   130458785.650 5  24825496.188   101656291.32443
  24622913.594   129394241.967 7  24622928.168   100826851.841 6
 14 11 14 23  0  0.0000000  0  9G14G15G12G21G24G22G18G19G27
  22191199.086   116615568.789 7  22191207.305    90869457.16345
  23055951.320   121160064.456 7  23055958.520    94410509.179 7
  24965458.219   131194259.908 6  24965467.891   102229421.667 5
  21516046.977   113067766.125 8  21516053.469    88104806.06846
  20999985.117   110355788.105 8  20999994.227    85991687.557 8
  21413062.859   112526532.464 7  21413067.547    87683152.03446
  20428110.688   107350573.825 7  20428116.164    83649944.44646
  24851590.906   130595967.455 7  24851600.727   101763187.02343
  24722473.539   129917433.075 6  24722488.793   101234532.609 6
 14 11 14 23  5  0.0000000  0  9G14G15G12G21G24G22G18G19G27
  22073194.023   115995455.728 7  22073202.004    90386253.72045
  23221449.602   122029765.413 7  23221456.836    95088198.329 7
  24805699.203   130354713.414 6  24805707.809   101575229.677 6
  21646534.352   113753480.771 8  21646541.441    88639129.07346
  21042376.242   110578558.278 8  21042385.547    86165275.155 8
  21297601.313   111919782.161 8  21297605.957    87210360.52546
  20419310.586   107304332.768 7  20419315.965    83613912.86946
  24887307.031   130783664.754 6  24887316.898   101909445.27543
  24828242.820   130473251.619 6  24828257.879   101667637.729 6
 14 11 14 23 10  0.0000000  0  9G14G15G12G21G24G22G18G19G27
  21960129.242   115401300.174 7  21960136.941    89923276.88345
  23388075.398   122905395.023 7  23388083.137    95770507.283 7
  24647694.352   129524400.597 6  24647702.875   100928233.434 6
  21784979.281   114481015.549 8  21784986.082    89206039.24045
  21095874.063   110859690.253 8  21095882.457    86384339.480 8
  21186069.883   111333683.502 8  21186073.875    86753661.27546
  20416668.211   107290449.080 7  20416673.574    83603094.78547
  24932376.516   131020507.458 6  24932386.605   102093998.65543
  24939698.477   131058960.052 6  24939715.039   102124033.712 7
 14 11 14 23 15  0.0000000  0  9G14G15G12G21G24G22G18G19G27
  21852018.633   114833180.389 7  21852025.676    89480587.47946
  23555624.109   123785863.383 7  23555630.875    96456586.726 7
  24492070.227   128706593.333 6  24492079.527   100290982.223 6
  21930972.352   115248213.702 7  21930979.363    89803855.84845
  21160234.820   111197913.081 7  21160243.402    86647890.113 8
  21078757.039   110769756.832 8  21078761.395    86314238.81946
  20420380.195   107309956.182 7  20420385.547    83618295.52446
  24986500.523   131304929.761 6  24986510.258   102315627.05344
  25056309.586   131671751.897 6  25056325.727   102601533.852 5
 14 11 14 23 20  0.0000000  0  9G14G15G12G21G24G22G18G19G27
  21748864.258   114291108.861 7  21748871.285    89058195.20945
  23723898.375   124670151.753 7  23723905.078    97145642.871 7
  24339450.250   127904577.500 6  24339459.539    99666036.146 6
  22084077.156   116052783.061 7  22084083.754    90430792.89145
  21235177.461   111591736.560 8  21235186.094    86954765.933 8
  20975959.852   110229556.227 8  20975963.645    85893304.07646
  20430632.633   107363835.389 8  20430638.105    83660279.66246
  25049341.570   131635168.025 6  25049351.633   102572956.24644
  25177525.883   132308750.559 5  25177542.848   103097896.104 6
 14 11 14 23 25  0.0000000  0  8G14G15G12G21G24G22G18G19
  21650661.883   113775052.369 8  21650668.391    88656074.37246
  23892722.078   125557329.101 7  23892727.840    97836950.223 6
  24190465.531   127121659.978 6  24190473.922    99055971.739 6
  22243835.297   116892320.024 7  22243842.500    91084977.43545
  21320380.094   112039485.031 8  21320388.879    87303661.150 8
  20877982.117   109714679.852 8  20877985.559    85492102.23347
  20447604.313   107453022.309 8  20447609.223    83729776.29846
  25120533.867   132009287.936 7  25120544.672   102864478.75344
 14 11 14 23 30  0.0000000  0  9G14G15G12G21G24G22G18G25G19
  21557392.570   113284925.319 8  21557398.980    88274158.36446
  24061931.477   126446533.286 7  24061939.055    98529836.880 6
  24045742.547   126361140.499 7  24045750.617    98463360.356 6
  22409771.820   117764317.467 7  22409777.953    91764455.72745
  21415492.133   112539303.844 8  21415500.871    87693130.724 8
  20785131.547   109226749.416 8  20785134.664    85111897.19947
  20471459.664   107578384.165 8  20471464.434    83827461.19247
  25022483.430   131493998.977 6  25022495.414   102462950.606 6
  25199676.938   132425188.149 6  25199687.566   103188557.13443
 14 11 14 23 35  0.0000000  0  9G14G15G12G21G24G22G18G25G19
  21469033.047   112820597.421 8  21469039.441    87912345.37846
  24231377.578   127336978.758 7  24231384.383    99223690.731 6
  23905906.789   125626302.542 6  23905913.766    97890760.717 6
  22581390.992   118666179.672 7  22581397.094    92467205.24344
  21520131.180   113089182.796 8  21520139.012    88121608.160 8
  20697721.078   108767407.027 8  20697724.410    84753968.60547
  20502349.797   107740716.076 7  20502355.367    83953953.88447
  24842565.031   130548530.376 6  24842577.098   101726224.124 6
  25286342.188   132880618.064 6  25286350.855   103543437.84343
 14 11 14 23 40  0.0000000  0 10G14G15G12G21G24G22G18G25G19G31
  21385551.055   112381899.335 7  21385557.594    87570503.39746
  24400923.180   128227947.633 7  24400930.723    99917952.391 6
  23771575.055   124920392.875 7  23771582.340    97340702.693 6
  22758185.102   119595242.141 7  22758192.016    93191149.74044
  21633886.273   113686972.768 7  21633894.438    88587418.851 8
  20616065.445   108338305.668 7  20616068.938    84419604.43847
  20540411.805   107940733.366 8  20540416.973    84109811.74247
  24661928.953   129599288.771 6  24661940.645   100986556.643 6
  25380076.398   133373194.025 6  25380085.508   103927263.38043
  24743410.414   130027469.013 6  24743422.027   101320192.993 6
 14 11 14 23 45  0.0000000  0 11G14G15G12G21G24G22G18G25G19G04G31
  21306908.172   111968627.052 8  21306913.844    87248473.55346
  24570445.359   129118791.918 7  24570452.020   100612117.192 6
  23643356.766   124246606.663 6  23643364.309    96815675.978 7
  22939637.781   120548779.699 7  22939645.000    93934165.66344
  21756327.461   114330407.311 8  21756335.191    89088796.753 8
  20540478.727   107941097.271 8  20540481.473    84110091.96347
  20585763.852   108179060.086 7  20585768.605    84295521.15346
  24481148.039   128649287.962 6  24481161.016   100246297.241 6
  25480402.313   133900411.917 6  25480411.910   104338082.67543
  24476667.406   128625865.152 6  24476678.773   100227908.39043
  24521447.086   128861060.092 6  24521457.922   100411307.088 6
 14 11 14 23 50  0.0000000  0 10G14G15G12G21G24G22G18G25G04G31
  21233059.500   111580552.360 8  21233064.930    86946078.31546
  24739832.406   130008928.332 6  24739839.363   101305730.074 6
  23521845.758   123608070.564 7  23521853.102    96318116.764 7
  23125221.336   121524022.276 7  23125227.469    94694094.61344
  21887004.578   115017122.935 7  21887012.590    89623900.209 8
  20471274.063   107577426.669 8  20471277.344    83826712.76947
  20638506.969   108456227.256 8  20638511.211    84511495.84046
  24300812.898   127701617.111 6  24300824.047    99507853.792 6
  24317985.641   127791994.280 7  24317995.922    99578141.46644
  24301014.945   127702689.993 7  24301024.262    99508683.858 6
 14 11 14 23 55  0.0000000  0 10G14G15G12G21G24G22G18G25G04G31
  21163956.852   111217420.280 8  21163962.258    86663119.07446
  24908984.141   130897832.996 6  24908991.246   101998383.158 6
  23407621.789   123007822.332 6  23407627.754    95850392.074 7
  23314399.492   122518166.700 7  23314407.176    95468752.39444
  22025452.844   115744674.060 8  22025460.965    90190823.504 8
  20408760.711   107248918.318 8  20408763.469    83570732.65647
  20698721.430   108772657.937 8  20698726.301    84758065.40346
  24121518.805   126759424.909 6  24121528.875    98773680.109 6
  24166652.633   126996745.646 6  24166662.996    98958468.77943
  24082561.695   126554719.877 7  24082570.887    98614163.777 6
