     2.11           OBSERVATION DATA    M (MIXED)           RINEX VERSION / TYPE
teqc  2013Mar15                         20141116 18:04:52UTCPGM / RUN BY / DATE
OSX ker:10.8.0|Core 2 Duo|gcc 4.2 -m64|OSX ker:10.8.0+|=+   COMMENT
teqc  2013Mar15                         20141116 17:52:23UTCCOMMENT
teqc  2013Mar15                         20141116 17:46:22UTCCOMMENT
teqc  2014Jan16     NOAA/NOS/NGS/CORS   20141115 03:12:33UTCCOMMENT
Solaris x86 5.10|AMD64|cc SC5.8 -xarch=amd64|=+|=+          COMMENT
+39.645881594 (latitude)                                    COMMENT
-079.96991451 (longitude)                                   COMMENT
+327.375      (elevation)                                   COMMENT
+.000000      (antenna height)                              COMMENT
BIT 2 OF LLI FLAGS DATA COLLECTED UNDER A/S CONDITION       COMMENT
WVMO                                                        MARKER NAME
4                                                           MARKER NUMBER
Peter J Dailey      RTI                                     OBSERVER / AGENCY
4922K62068          TRIMBLE NETR5       4.48                REC # / TYPE / VERS
30963142            TRM57971.00     NONE                    ANT # / TYPE
   856569.1150 -4842972.9950  4047997.0520                  APPROX POSITION XYZ
        0.0000        0.0000        0.0000                  ANTENNA: DELTA H/E/N
     1     1                                                WAVELENGTH FACT L1/2
     4    C1    L1    P2    L2                              # / TYPES OF OBSERV
   300.0000                                                 INTERVAL
    16                                                      LEAP SECONDS
 SNR is mapped to RINEX snr flag value [0-9]                COMMENT
  L1 & L2: min(max(int(snr_dBHz/6), 0), 9)                  COMMENT
teqc windowed: start @ 2014 Nov 14 00:00:00.000             COMMENT
teqc windowed: delta = 86400.000 sec                        COMMENT
teqc edited: all SBAS satellites excluded                   COMMENT
teqc edited: all Galileo satellites excluded                COMMENT
teqc edited: all Compass satellites excluded                COMMENT
teqc edited: all QZSS satellites excluded                   COMMENT
teqc edited: all GLONASS satellites excluded                COMMENT
Forced Modulo Decimation to 300 seconds                     COMMENT
  2014    11    14     0     0    0.0000000     GPS         TIME OF FIRST OBS
                                                            END OF HEADER
 14 11 14  0  0  0.0000000  0 10G04G12G14G15G18G21G22G24G25G31
  24231708.648   127338450.716 7  24231715.586    99224819.20344
  23369607.391   122808162.331 7  23369611.758    95694706.681 6
  21162616.992   111210452.793 8  21162620.523    86657561.82846
  24937298.094   131046527.938 6  24937303.434   102114230.490 5
  20698833.016   108773249.108 8  20698836.098    84758459.30446
  23323181.641   122564273.126 7  23323186.633    95504713.55844
  20406116.430   107235030.918 8  20406117.152    83559840.98547
  22056443.625   115907551.275 8  22056449.742    90317694.652 7
  24056967.641   126420173.392 6  24056975.887    98509325.022 6
  24026160.648   126258357.196 6  24026167.133    98383163.529 6
 14 11 14  0  5  0.0000000  0 11G04G11G12G14G15G18G21G22G24G25G31
  24087467.320   126580467.017 6  24087474.281    98634183.86343
  24931440.117   131015581.528 6  24931446.961   102090112.85643
  23265950.273   122263441.115 7  23265954.719    95270249.085 7
  21099413.742   110878315.367 8  21099416.645    86398753.70346
  25105306.992   131929413.918 7  25105313.230   102802193.106 6
  20766772.938   109130275.237 8  20766775.816    85036661.46446
  23515409.164   123574428.578 7  23515412.887    96291847.22543
  20350714.039   106943890.833 8  20350715.398    83332978.77947
  22204069.016   116683324.791 8  22204074.758    90922193.512 7
  23880222.852   125491374.960 6  23880231.285    97785586.541 6
  23811058.008   125127992.613 6  23811063.688    97502361.163 6
 14 11 14  0 10  0.0000000  0 11G04G11G12G14G15G18G21G22G24G25G31
  23951424.648   125865562.980 7  23951431.117    98077116.63144
  24838411.398   130526716.424 6  24838417.516   101709180.28743
  23170804.828   121763451.762 7  23170809.758    94880647.546 7
  21040782.070   110570209.328 8  21040785.441    86158671.33846
  25272896.359   132810099.880 6  25272902.445   103488441.288 5
  20842306.422   109527205.032 8  20842308.602    85345957.36946
  23710097.953   124597523.976 7  23710102.500    97089063.91444
  20302620.172   106691156.450 8  20302620.906    83136043.06447
  22358351.422   117494088.313 7  22358358.012    91553957.225 8
  23705920.367   124575410.292 6  23705927.578    97071848.464 6
  23598955.070   124013378.190 7  23598959.133    96633831.175 6
 14 11 14  0 15  0.0000000  0 10G04G11G12G14G18G21G22G24G25G31
  23824011.234   125195997.498 7  23824016.039    97555378.15844
  24754867.375   130087695.982 6  24754873.941   101367087.47542
  23084669.117   121310805.355 7  23084673.441    94527936.516 7
  20986668.016   110285837.871 8  20986671.746    85937083.47346
  20925447.516   109964113.576 8  20925450.281    85686405.53846
  23906711.063   125630730.655 6  23906715.180    97894159.50643
  20262120.008   106478324.942 8  20262120.539    82970200.43447
  22518802.602   118337264.716 7  22518808.938    92210977.709 7
  23534685.930   123675568.960 7  23534692.496    96370673.967 6
  23390285.594   122916814.441 7  23390289.895    95779366.589 7
 14 11 14  0 20  0.0000000  0 10G04G11G12G14G18G21G22G24G25G31
  23705628.117   124573895.642 7  23705632.648    97070624.29844
  24681034.742   129699700.480 7  24681039.695   101064754.44543
  23008004.688   120907938.180 7  23008009.902    94214014.420 7
  20937013.461   110024901.791 8  20937016.781    85733756.89746
  21016185.648   110440945.419 8  21016188.098    86057962.71346
  24104713.461   126671235.352 6  24104718.367    98704941.92543
  20229483.570   106306821.177 8  20229484.516    82836561.24647
  22684930.422   119210269.398 7  22684935.945    92891241.063 7
  23367147.117   122795156.406 6  23367156.648    95684638.745 7
  23185480.336   121840562.208 7  23185483.543    94940729.491 6
 14 11 14  0 25  0.0000000  0 10G04G11G12G14G18G21G22G24G25G31
  23596652.555   124001229.478 7  23596656.730    96624391.67144
  24617094.570   129363701.243 6  24617100.219   100802937.78843
  22941241.773   120557092.810 7  22941245.488    93940628.886 7
  20891761.883   109787105.397 8  20891765.438    85548461.14446
  21114484.797   110957512.854 8  21114487.605    86460482.65646
  24303570.992   127716245.125 5
  20204965.930   106177981.621 8  20204966.840    82736166.85747
  22856242.516   120110522.895 7  22856249.168    93592737.290 7
  23203937.438   121937477.495 7  23203945.559    95016318.148 7
  22984961.453   120786830.847 8  22984966.910    94119640.975 7
 14 11 14  0 30  0.0000000  0 11G04G11G12G14G18G21G22G24G25G31G32
  23497429.492   123479808.409 7  23497433.973    96218090.18444
  24563195.383   129080459.006 7  24563200.223   100582230.16043
  22884764.898   120260306.515 7  22884768.852    93709367.245 7
  20850859.852   109572166.016 8  20850863.016    85380976.12846
  21220285.742   111513497.876 8  21220288.191    86893717.59546
  24502763.602   128763005.752 6  24502770.027   100334738.14743
  20188803.656   106093049.098 8  20188804.656    82669985.73847
  23032253.977   121035469.865 7  23032260.813    94313475.127 7
  23045678.953   121105829.899 7  23045686.941    94368281.686 7
  22789137.602   119757779.235 7  22789142.395    93317783.228 7
  24939414.031   131057514.469 6  24939420.129   102122771.51043
 14 11 14  0 35  0.0000000  0 11G04G11G12G14G18G21G22G24G25G31G32
  23408266.719   123011261.702 7  23408272.676    95852989.38944
  24519437.188   128850512.376 6  24519442.152   100403051.55843
  22838919.750   120019392.060 7  22838923.777    93521642.083 7
  20814257.281   109379817.840 8  20814259.773    85231094.60246
  21333501.867   112108452.357 8  21333504.613    87357318.29346
  24701774.227   129808807.731 6  24701779.992   101149648.61243
  20181212.609   106053157.448 8  20181213.613    82638901.44247
  23212485.703   121982591.212 7  23212491.785    95051491.690 7
  22892997.039   120303484.213 7  22893004.566    93743077.973 7
  22598410.102   118755502.685 7  22598416.320    92536789.047 7
  24755014.648   130088500.582 6  24755021.355   101367697.49743
 14 11 14  0 40  0.0000000  0 11G01G04G11G12G14G18G22G24G25G31G32
  25075114.766   131770615.789 6  25075123.359   102678428.341 6
  23329438.781   122597015.296 7  23329442.305    95530200.53544
  24485879.813   128674169.233 6  24485884.203   100265641.59443
  22804006.492   119835919.225 8  22804010.000    93378676.630 7
  20781905.992   109209810.651 8  20781908.832    85098621.66146
  21454021.617   112741788.136 7  21454025.063    87850826.54245
  20182384.195   106059314.809 8  20182385.219    82643699.47047
  23396463.734   122949405.981 6  23396469.844    95804853.853 7
  22746504.352   119533661.657 7  22746511.816    93143216.886 7
  22413163.039   117782018.588 7  22413166.660    91778230.576 7
  24571221.797   129122662.510 7  24571228.281   100615097.56344
 14 11 14  0 45  0.0000000  0 11G01G04G11G12G14G18G22G24G25G31G32
  24934759.719   131033047.580 5  24934768.000   102103700.785 6
  23261173.477   122238286.338 7  23261180.230    95250671.88644
  24462537.898   128551504.373 6  24462542.887   100170059.02143
  22780273.070   119711205.021 7  22780277.070    93281497.061 7
  20753762.828   109061917.462 8  20753766.320    84983380.40146
  21581709.422   113412789.469 8  21581712.844    88373684.54146
  20192485.930   106112398.967 8  20192486.426    82685063.84847
  23583729.867   123933489.676 7  23583735.961    96571672.275 7
  22606801.836   118799524.254 7  22606809.320    92571162.306 7
  22233762.211   116839261.954 7  22233765.844    91043615.406 7
  24388323.273   128161530.765 7  24388329.461    99866165.38044
 14 11 14  0 50  0.0000000  0 11G01G04G11G12G14G18G22G24G25G31G32
  24802068.109   130335755.954 5  24802077.621   101560357.484 6
  23203664.773   121936072.236 7  23203668.395    95015180.60744
  24449377.711   128482363.948 6  24449385.629   100116183.78042
  22767924.063   119646310.378 7  22767927.762    93230930.103 7
  20729791.336   108935944.750 8  20729794.945    84885219.95846
  21716403.500   114120613.690 8  21716408.000    88925235.64145
  20211658.039   106213150.372 8  20211658.570    82763571.48547
  23773832.203   124932485.803 7  23773838.855    97350110.787 7
  22474476.859   118104157.274 7  22474485.414    92029318.527 7
  22060559.789   115929082.069 8  22060564.832    90334384.783 7
  24206626.219   127206717.210 6  24206630.824    99122156.03143
 14 11 14  0 55  0.0000000  0 11G01G04G11G12G14G18G22G24G25G31G32
  24677452.625   129680895.057 6  24677459.508   101050077.297 5
  23157053.453   121691134.265 7  23157058.793    94824320.15044
  24446334.375   128466357.777 7  24446338.422   100103711.81043
  22767107.500   119642020.228 7  22767110.898    93227587.385 7
  20709959.188   108831727.835 7  20709962.254    84804012.11346
  21857921.141   114864289.133 8  21857924.656    89504722.73545
  20240012.609   106362153.805 8  20240012.402    82879678.11847
  23966337.078   125944103.325 6  23966342.816    98138384.095 7
  22350098.961   117450543.067 7  22350105.926    91520009.306 7
  21893889.250   115053224.539 7  21893893.336    89651898.946 7
  24026455.492   126259907.802 7  24026460.234    98384383.31744
 14 11 14  1  0  0.0000000  0 11G01G04G11G12G14G18G22G24G25G31G32
  24561296.406   129070491.824 6  24561304.215   100574439.161 6
  23121442.695   121503990.712 8  23121446.684    94678494.38645
  24453280.859   128502864.673 6  24453284.383   100132158.93543
  22777920.180   119698842.460 7  22777923.723    93271864.697 7
  20694241.906   108749132.698 8  20694244.609    84739652.41746
  22006050.750   115642720.814 7  22006053.945    90111292.63445
  20277630.359   106559836.102 8  20277631.402    83033716.31547
  24160820.836   126966127.822 7  24160827.367    98934766.826 6
  22234209.789   116841543.089 8  22234216.211    91045464.301 7
  21734061.727   114213324.478 8  21734063.902    88997431.764 7
  23848140.734   125322861.656 7  23848145.375    97654218.09944
 14 11 14  1  5  0.0000000  0 11G01G04G11G12G14G18G22G24G25G31G32
  24453959.977   128506436.830 6  24453967.859   100134916.376 7
  23096879.375   121374912.122 7  23096883.387    94577913.86844
  24470058.906   128591037.306 7  24470063.398   100200865.12043
  22800406.727   119817009.442 7  22800410.617    93363943.080 7
  20682620.594   108688063.935 7  20682623.602    84692066.50246
  22160565.625   116454697.236 7  22160569.086    90744001.26945
  20324561.086   106806459.607 8  20324561.496    83225890.46147
  24356880.727   127996427.435 6  24356887.477    99737597.758 7
  22127328.906   116279881.602 8  22127335.422    90607806.398 7
  21581364.930   113410901.551 8  21581368.898    88372167.437 7
  23672033.188   124397413.641 7  23672037.715    96933090.33244
 14 11 14  1 10  0.0000000  0 11G01G04G11G12G14G18G22G24G25G31G32
  24355770.008   127990460.978 5  24355779.359    99732857.615 6
  23083366.102   121303912.885 6  23083371.211    94522589.95643
  24496466.047   128729805.945 6  24496469.410   100308996.87843
  22834557.078   119996469.515 7  22834559.820    93503782.261 7
  20675084.219   108648461.604 7  20675087.340    84661207.67246
  22321210.234   117298891.970 7  22321214.543    91401815.04945
  20380822.492   107102113.394 8  20380823.316    83456269.98247
  24554125.719   129032955.525 5  24554132.004   100545281.705 7
  22029943.539   115768120.555 8  22029949.945    90209031.938 7
  21436065.773   112647348.616 8  21436069.645    87777191.589 8
  23498492.984   123485460.858 7  23498497.695    96222478.64844
 14 11 14  1 15  0.0000000  0 11G01G04G11G12G14G18G22G24G25G31G32
  24267030.305   127524124.902 7  24267038.004    99369479.422 6
  23080862.961   121290755.454 6  23080867.664    94512337.49044
  24532256.211   128917889.505 6  24532260.258   100455555.81543
  22880308.094   120236896.597 7  22880312.074    93691128.150 7
  20671629.016   108630304.967 7  20671632.105    84647059.79646
  22487713.852   118173871.826 7  22487717.016    92083617.18444
  20446397.313   107446713.729 8  20446398.039    83724789.65547
  24752183.352   130073755.891 6  24752190.211   101356294.811 6
  21942507.781   115308642.881 7  21942513.570    89850997.704 7
  21298402.289   111923926.535 8  21298406.273    87213486.513 8
  23327895.508   122588962.670 7  23327899.395    95523909.17345
 14 11 14  1 20  0.0000000  0 11G01G04G11G12G14G18G22G24G25G31G32
  24187998.070   127108804.098 7  24188005.105    99045853.289 7
  23089271.898   121334944.110 7  23089277.910    94546770.23244
  24577149.391   129153801.789 6  24577153.645   100639383.80843
  22937547.320   120537690.515 7  22937550.484    93925513.120 7
  20672258.422   108633611.066 8  20672261.039    84649636.11246
  22659782.992   119078101.012 7  22659787.059    92788211.02944
  20521237.070   107839998.109 8  20521237.410    84031244.97647
  24950698.805   131116961.140 6  24950704.945   102169182.135 6
  21865436.227   114903632.038 7  21865442.434    89535405.156 8
  21168589.914   111241755.930 8  21168593.266    86681925.397 8
  23160621.469   121709934.874 7  23160625.258    94838952.99445
 14 11 14  1 25  0.0000000  0 11G01G04G11G12G14G18G22G24G25G31G32
  24118896.211   126745680.542 6  24118904.441    98762900.342 6
  23108451.758   121435737.879 7  23108456.859    94625310.94744
  24630825.594   129435870.414 6  24630829.145   100859177.65543
  23006111.055   120897993.213 8  23006114.270    94206268.534 7
  20676983.211   108658440.535 8  20676986.012    84668983.78346
  22837109.688   120009956.268 7  22837114.367    93514331.52745
  20605258.359   108281531.875 8  20605258.992    84375297.20546
  25149335.523   132160804.855 6  25149342.027   102982567.036 6
  21799104.766   114555059.227 7  21799111.656    89263790.294 8
  21046812.859   110601818.067 8  21046816.234    86183273.017 8
  22997065.766   120850446.898 7  22997069.742    94169222.55345
 14 11 14  1 30  0.0000000  0 10G01G04G11G12G14G18G22G25G31G32
  24059914.930   126435724.124 7  24059922.047    98521375.997 6
  23138215.883   121592145.672 7  23138220.914    94747187.22544
  24692931.313   129762239.434 6  24692934.594   101113491.21543
  23085786.242   121316688.756 8  23085788.281    94532524.888 6
  20685821.961   108704889.697 7  20685825.016    84705177.98346
  23019366.938   120967719.507 7  23019370.539    94260640.07444
  20698343.570   108770698.838 8  20698344.227    84756466.18347
  21743843.141   114264659.055 7  21743849.703    89037504.720 8
  20933230.398   110004941.194 8  20933233.535    85718174.542 8
  22837629.375   120012606.685 7  22837633.996    93516360.50845
 14 11 14  1 35  0.0000000  0 10G01G04G11G12G14G18G22G25G31G32
  24011190.414   126179684.537 6  24011198.613    98321865.001 6
  23178328.586   121802936.029 7  23178333.438    94911439.50245
  24763082.148   130130887.275 6  24763087.059   101400749.31143
  23176314.188   121792419.878 7  23176316.859    94903224.531 6
  20698800.305   108773091.621 7  20698803.449    84758322.37146
  23206212.000   121949595.338 7  23206216.789    95025737.60444
  20800343.617   109306710.221 8  20800344.727    85174137.28246
  21699934.359   114033917.910 7  21699940.500    88857706.658 7
  20827971.352   109451800.707 8  20827974.590    85287156.261 8
  22682720.969   119198555.811 7  22682725.563    92882035.46445
 14 11 14  1 40  0.0000000  0 10G01G04G11G12G14G18G22G25G31G32
  23972828.977   125978086.098 7  23972835.324    98164775.349 6
  23228511.367   122066649.737 7  23228516.074    95116930.80345
  24840865.758   130539640.336 6  24840868.738   101719258.19443
  23277395.266   122323604.582 7  23277398.758    95317134.656 6
  20715950.211   108863216.525 7  20715953.336    84828549.60046
  23397289.680   122953715.170 6  23397294.023    95808168.08543
  20911073.922   109888605.363 8  20911075.402    85627561.94046
  21667611.977   113864062.074 8  21667617.699    88725351.667 8
  20731133.945   108942917.275 8  20731137.383    84890623.963 8
  22532751.008   118410460.943 7  22532754.961    92267935.83045
 14 11 14  1 45  0.0000000  0 10G01G04G11G12G14G18G22G25G31G32
  23944881.039   125831222.798 6  23944887.695    98050336.394 6
  23288446.969   122381613.685 7  23288451.711    95362357.16944
  24925841.617   130986193.948 6  24925845.699   102067222.01143
  23388688.344   122908454.098 7  23388691.762    95772861.503 6
  20737311.602   108975472.027 8  20737315.246    84916021.47446
  23592233.141   123978149.189 6  23592237.512    96606427.86843
  21030323.320   110515264.326 8  21030324.977    86115867.43546
  21647057.977   113756051.254 8  21647063.918    88641187.549 8
  20642788.586   108478660.595 8  20642791.605    84528865.784 8
  22388135.938   117650507.212 7  22388139.184    91675764.31345
 14 11 14  1 50  0.0000000  0 10G01G04G11G12G14G18G22G25G31G32
  23927359.484   125739150.686 6  23927368.012    97978591.906 7
  23357777.992   122745948.796 7  23357781.809    95646254.75944
  25017549.102   131468119.524 6  25017553.207   102442748.39643
  23509817.195   123544987.158 7  23509820.879    96268861.121 7
  20762930.188   109110095.826 8  20762932.773    85020923.13946
  23790664.695   125020911.265 7  23790669.715    97418969.23943
  21157847.930   111185405.837 8  21157848.570    86638055.42246
  21638402.742   113710565.659 8  21638408.258    88605744.326 8
  20562975.789   108059241.619 8  20562978.359    84202046.036 8
  22249293.539   116920882.285 8  22249296.129    91107225.63046
 14 11 14  1 55  0.0000000  0 10G01G04G11G12G14G18G22G25G31G32
  23920231.734   125701688.893 6  23920239.867    97949400.950 7
  23436110.266   123157589.665 6  23436115.984    95967013.58744
  25115506.523   131982886.758 6  25115509.805   102843865.70442
  23640370.508   124231049.632 7  23640373.664    96803455.034 7
  20792856.391   109267359.095 8  20792858.840    85143465.95446
  23992197.180   126079966.801 6  23992200.504    98244206.84143
  21293374.289   111897601.718 7  21293375.309    87193012.99046
  21641721.156   113728005.191 8  21641726.785    88619333.699 8
  20491707.125   107684721.216 8  20491709.594    83910212.147 8
  22116636.219   116223767.765 8  22116640.734    90564019.66646
 14 11 14  2  0  0.0000000  0 10G01G04G11G12G14G18G22G25G31G32
  23923413.430   125718414.521 6  23923422.570    97962433.875 7
  23523018.094   123614293.825 7  23523023.684    96322887.06044
  25219213.102   132527873.118 6  25219217.730   103268530.36142
  23779909.945   124964332.480 6  23779912.980    97374844.062 6
  20827146.016   109447553.789 8  20827149.215    85283877.40446
  24196434.680   127153238.234 6  24196438.766    99080521.50543
  21436604.250   112650278.032 8  21436605.316    87779513.74946
  21657035.031   113808482.933 8  21657040.988    88682043.722 7
  20428964.063   107355006.822 8  20428966.887    83653291.981 8
  21990576.953   115561322.548 8  21990581.453    90047828.75146
 14 11 14  2  5  0.0000000  0 10G01G04G11G12G14G18G22G25G31G32
  23936782.469   125788668.991 6  23936791.719    98017177.630 7
  23618045.664   124113662.037 7  23618049.348    96712004.84944
  25328159.273   133100390.747 5
  23927969.117   125742390.883 6  23927972.770    97981123.066 6
  20865860.125   109650996.070 8  20865863.324    85442403.81746
  24402975.586   128238617.116 6  24402979.660    99926270.66743
  21587211.914   113441729.231 8  21587212.391    88396228.67146
  21684313.094   113951829.616 8  21684319.266    88793742.472 8
  20374702.219   107069858.714 8  20374704.090    83431098.782 8
  21871520.195   114935672.130 8  21871524.355    89560309.02846
 14 11 14  2 10  0.0000000  0  9G01G04G12G14G18G22G25G31G32
  23960169.086   125911560.587 7  23960176.152    98112937.238 6
  23720708.430   124653155.106 7  23720711.813    97132388.90345
  24084062.867   126562666.607 7  24084066.102    98620299.037 6
  20909060.836   109878019.902 8  20909063.551    85619305.49346
  24611415.266   129333969.902 6  24611419.953   100779791.70443
  21744851.555   114270127.566 7  21744852.738    89041733.54746
  21723469.438   114157596.976 7  21723475.066    88954080.714 7
  20328847.992   106828896.096 8  20328851.109    83243335.808 8
  21759859.609   114348893.767 8  21759863.414    89103079.26146
 14 11 14  2 15  0.0000000  0  9G01G04G12G14G20G22G25G31G32
  23993360.367   126085974.948 7  23993364.586    98248844.661 6
  23830500.406   125230115.765 7  23830503.445    97581968.44544
  24247686.359   127422509.968 7  24247689.676    99290306.710 6
  20956816.297   110128975.441 8  20956818.555    85814855.22346
  24844051.781   130556377.089 6  24844056.539   101732252.39443
  21909152.430   115133535.036 7  21909154.703    89714518.23746
  21774367.320   114425068.948 8  21774373.535    89162500.448 7
  20291306.125   106631608.447 8  20291307.473    83089605.263 8
  21655980.406   113803006.205 8  21655984.605    88677712.42046
 14 11 14  2 20  0.0000000  0  9G01G04G12G14G20G22G25G31G32
  24036097.758   126310575.121 6  24036106.426    98423858.015 7
  23946894.117   125841774.707 6  23946899.914    98058585.68444
  24418316.734   128319188.246 6  24418321.590    99989016.825 6
  21009193.555   110404216.559 8  21009195.902    86029328.76846
  24649210.852   129532480.775 6  24649214.344   100934411.65043
  22079727.305   116029909.329 7  22079729.355    90412991.29046
  21836820.539   114753262.426 8  21836827.098    89418235.654 7
  20261951.914   106477352.233 8  20261953.773    82969405.679 8
  21560251.172   113299945.626 8  21560254.234    88285717.27546
 14 11 14  2 25  0.0000000  0  9G01G04G12G14G20G22G25G31G32
  24088096.445   126583816.566 7  24088102.988    98636773.192 7
  24069348.859   126485276.582 6  24069354.297    98560015.52743
  24595429.680   129249913.596 7  24595432.805   100714257.303 6
  21066259.617   110704102.260 8  21066262.313    86263005.87446
  24458047.289   128527907.907 6
  22256169.227   116957116.354 7  22256170.941    91135489.88845
  21910594.281   115140945.920 8  21910599.863    89720326.695 7
  20240641.070   106365364.924 8  20240644.512    82882142.942 8
  21473023.148   112841556.097 8  21473026.652    87928530.75446
 14 11 14  2 30  0.0000000  0  9G01G04G12G14G20G22G25G31G32
  24149015.352   126903955.467 6  24149020.723    98886232.206 6
  24197305.164   127157693.019 6  24197309.789    99083976.28044
  24778480.703   130211855.675 7  24778483.875   101463822.645 5
  21128082.695   111028986.534 8  21128085.941    86516162.39146
  24271049.555   127545225.742 6  24271052.664    99385893.53744
  22438057.297   117912942.170 7  22438059.707    91880288.70446
  21995409.070   115586650.877 8  21995414.645    90067629.271 7
  20227208.398   106294775.552 8  20227210.961    82827138.292 8
  21394624.578   112429572.026 8  21394628.695    87607504.33946
 14 11 14  2 35  0.0000000  0  9G01G04G12G14G20G22G25G31G32
  24218495.469   127269069.996 6  24218501.941    99170736.791 7
  24330197.922   127856046.413 7  24330202.609    99628147.52643
  24966929.883   131202165.422 6  24966934.262   102235492.562 6
  21194730.320   111379221.526 7  21194733.539    86789072.67146
  24088710.039   126587028.360 6  24088713.902    98639246.77444
  22624957.945   118895108.190 7  22624958.363    92645612.42045
  22090944.969   116088694.992 7  22090950.637    90458832.478 7
  20221468.977   106264617.756 8  20221471.520    82803638.774 8
  21325364.875   112065609.687 8  21325368.973    87323897.36746
 14 11 14  2 40  0.0000000  0  8G01G04G14G20G22G25G31G32
  24296131.930   127677062.650 6  24296138.602    99488653.106 5
  24467452.063   128577315.230 7  24467456.035   100190174.98143
  21266265.719   111755141.350 8  21266268.082    87081997.09946
  23911525.484   125655918.878 6  23911528.918    97913707.21344
  22816426.031   119901274.087 7  22816427.316    93429637.21845
  22196842.844   116645190.965 7  22196849.059    90892465.671 7
  20223222.500   106273832.217 8  20223225.508    82810818.900 8
  21265524.508   111751142.888 8  21265527.000    87078858.38846
 14 11 14  2 45  0.0000000  0  8G01G04G14G20G22G25G31G32
  24381503.234   128125682.405 7  24381510.453    99838226.727 7
  24608485.758   129318454.917 7  24608490.320   100767686.28743
  21342748.938   112157062.513 8  21342751.750    87395182.29846
  23739991.195   124754501.996 7  23739994.672    97211304.79544
  23012005.188   120929052.184 7  23012006.648    94230502.82345
  22312708.773   117254071.821 7  22312714.859    91366918.227 7
  20232252.500   106321283.965 8  20232255.059    82847794.291 8
  21215353.586   111487495.394 8  21215356.555    86873418.78446
 14 11 14  2 50  0.0000000  0 10G01G04G14G16G20G22G25G29G31G32
  24474147.477   128612535.521 6  24474155.578   100217592.663 6
  24752719.656   130076408.953 7  24752723.043   101358299.86843
  21424234.859   112585274.053 7  21424237.711    87728853.48446
  24895476.180   130826621.311 7  24895479.953   101942833.89342
  23574599.664   123885366.646 7  23574602.055    96534056.58343
  23211236.266   121976017.141 7  23211238.645    95046319.03845
  22438119.125   117913106.878 7  22438125.289    91880451.956 7
  24970007.594   131218281.337 6  24970013.918   102248028.843 6
  20248330.055   106405771.356 8  20248332.348    82913628.644 8
  21175073.313   111275823.755 8  21175076.539    86708479.84546
 14 11 14  2 55  0.0000000  0 10G01G04G14G16G20G22G25G29G31G32
  24573588.984   129135102.941 6  24573597.133   100624787.792 6
  24899570.883   130848122.926 6  24899575.641   101959635.49943
  21510773.039   113040035.144 8  21510775.938    88083212.62146
  24664402.094   129612319.841 7  24664405.930   100996625.75344
  23415839.258   123051072.468 7  23415843.000    95883957.44044
  23413650.922   123039714.757 7  23413653.375    95875173.89444
  22572621.641   118619923.421 7  22572627.609    92431218.113 7
  24843095.055   130551350.700 6  24843100.992   101728343.143 6
  20271215.102   106526034.906 8  20271218.387    83007340.546 8
  21144870.641   111117106.902 8  21144874.645    86584804.33946
 14 11 14  3  0  0.0000000  0 10G01G04G14G16G20G22G25G29G31G32
  24679326.016   129690756.102 6  24679333.848   101057764.124 6
  25048464.852   131630556.904 7  25048468.223   102569324.40643
  21602405.320   113521565.649 7  21602408.781    88458431.01446
  24433688.672   128399917.934 6  24433693.008   100051897.44543
  23264185.773   122254133.838 7  23264189.391    95262966.58444
  23618780.281   124117671.434 6  23618782.945    96715139.65844
  22715743.031   119372027.939 7  22715748.160    93017273.581 7
  24720279.633   129905962.961 6  24720286.707   101225444.334 6
  20300661.320   106680773.589 8  20300663.434    83127916.199 8
  21124894.773   111012133.939 8  21124898.523    86503007.23146
 14 11 14  3  5  0.0000000  0 10G01G04G14G16G20G22G25G29G31G32
  24790842.578   130276778.241 6  24790850.402   101514404.547 6
  25198824.555   132420702.281 6  25198828.141   103185022.06443
  21699167.109   114030049.929 7  21699170.223    88854652.34546
  24203856.469   127192142.262 5  24203860.246    99110773.67743
  23120109.914   121497009.590 7  23120113.582    94672999.80344
  23826150.789   125207409.208 7  23826153.004    97564285.52744
  22866988.617   120166831.245 7  22866994.348    93636600.709 7
  24602132.617   129285090.914 6  24602137.309   100741648.807 6
  20336414.078   106868657.425 8  20336416.957    83274319.246 8
  21115260.234   110961501.757 8  21115263.504    86463553.54246
 14 11 14  3 10  0.0000000  0 10G01G04G14G16G20G22G25G29G31G32
  24907604.688   130890368.337 6  24907613.051   101992526.592 6
  25350083.820   133215579.564 6  25350088.629   103804406.96543
  21801082.492   114565617.562 7  21801085.922    89271977.52846
  23975428.852   125991748.490 6  23975433.352    98175402.25143
  22984062.828   120782074.829 7  22984065.484    94115907.93945
  24035289.906   126306440.732 7  24035291.430    98420673.19244
  23025850.906   121001657.385 7  23025856.160    94287114.387 7
  24489204.211   128691652.241 6  24489209.043   100279229.724 6
  20378216.398   107088327.990 8  20378218.355    83445491.140 8
  21116038.984   110965594.662 8  21116042.672    86466742.78247
 14 11 14  3 15  0.0000000  0  9G01G14G16G20G22G25G29G31G32
  25029069.492   131528667.125 6  25029076.734   102489902.350 6
  21908167.563   115128347.772 7  21908169.746    89710468.32145
  23748936.344   124801520.913 6  23748939.391    97247952.69743
  22856478.125   120111612.677 7  22856480.191    93593470.06444
  24245726.750   127412291.255 7  24245729.566    99282374.27944
  23191809.117   121873773.190 7  23191814.965    94966684.924 7
  24382041.227   128128507.239 6  24382046.109    99840415.949 6
  20425807.172   107338420.044 8  20425808.992    83640368.064 8
  21127265.602   111024589.185 8  21127269.090    86512712.51346
 14 11 14  3 20  0.0000000  0 10G01G14G16G20G22G23G25G29G31G32
  25154682.297   132188768.631 6  25154689.414   103004267.492 6
  22020424.359   115718265.326 7  22020427.258    90170144.06045
  23524910.703   123624260.550 7  23524913.969    96330607.49344
  22737769.547   119487793.359 7  22737771.270    93107377.23245
  24456993.070   128522500.395 7  24456995.031   100147471.92743
  25478664.023   133891290.745 7  25478665.684   104330878.99943
  23364335.320   122780404.005 6  23364340.551    95673150.310 6
  24281172.031   127598439.416 7  24281176.535    99427376.502 6
  20478926.836   107617567.771 8  20478929.340    83857885.742 8
  21148931.508   111138447.669 8  21148936.305    86601433.33846
 14 11 14  3 25  0.0000000  0 10G01G14G16G20G22G23G25G29G31G32
  25283884.680   132867736.919 6  25283893.141   103533333.850 6
  22137848.414   116335333.005 7  22137851.063    90650975.74845
  23303887.805   122462780.451 7  23303891.238    95425558.38644
  22628325.477   118912661.280 7  22628328.180    92659222.49345
  24668624.289   129634630.599 6  24668627.590   101014066.46043
  25296877.594   132936002.113 6  25296880.477   103586498.52843
  23542897.461   123718752.905 7  23542903.375    96404331.075 7
  24187109.969   127104141.221 7  24187114.629    99042209.536 6
  20537318.664   107924416.655 8  20537320.773    84096988.755 8
  21180990.953   111306917.807 8  21180994.668    86732708.64546
 14 11 14  3 30  0.0000000  0  9G14G16G20G22G23G25G29G31G32
  22260419.289   116979444.020 7  22260422.320    91152880.11145
  23086402.234   121319885.057 7  23086405.672    94534990.91144
  22528505.242   118388105.033 7  22528508.559    92250477.48345
  24880162.133   130746269.163 6  24880165.574   101880278.61843
  25113925.445   131974577.872 7  25113926.332   102837337.02944
  23726960.055   124686007.353 7  23726966.297    97158035.590 7
  24100344.359   126648185.968 7  24100348.531    98686920.257 6
  20600725.492   108257621.253 8  20600727.828    84356628.684 8
  21223351.250   111529523.571 8  21223355.410    86906167.59146
 14 11 14  3 35  0.0000000  0  8G14G16G20G23G25G29G31G32
  22388103.281   117650426.576 7  22388106.813    91675723.36945
  22872984.977   120198374.044 7  22872989.750    93661086.64645
  22438638.961   117915854.963 8  22438640.430    91882490.42845
  24929988.781   131007989.088 7  24929990.504   102084151.40244
  23915990.602   125679368.987 5  23915997.043    97932083.314 6
  24021341.898   126233029.211 7  24021345.074    98363422.021 6
  20668897.844   108615869.398 8  20668900.371    84635783.052 8
  21275883.352   111805581.016 8  21275887.441    87121277.21046
 14 11 14  3 40  0.0000000  0  8G14G16G20G23G25G29G31G32
  22520851.828   118348027.212 7  22520855.980    92219307.90845
  22664165.008   119101015.426 7  22664167.746    92806002.30045
  22359018.430   117497450.018 7  22359021.363    91556460.69945
  24745269.953   130037287.556 7  24745270.797   101327760.66943
  24109459.125   126696050.514 7  24109465.277    98724302.488 6
  23950542.047   125860972.303 7  23950545.672    98073507.939 6
  20741590.352   108997871.334 8  20741592.289    84933446.859 8
  21338415.156   112134185.925 8  21338418.527    87377332.84446
 14 11 14  3 45  0.0000000  0  8G14G16G20G23G25G29G31G32
  22658606.727   119071926.325 7  22658610.961    92783384.60145
  22460461.914   118030550.696 7  22460465.328    91971874.18745
  22289902.961   117134242.657 7  22289905.285    91273441.91645
  24559988.484   129063624.771 7  24559990.910   100569062.69045
  24306842.250   127733305.560 6  24306848.188    99532553.027 6
  23888351.930   125534165.676 7  23888356.313    97818853.752 5
  20818566.508   109402383.645 8  20818569.305    85248651.201 8
  21410736.469   112514237.362 8  21410740.863    87673476.66346
 14 11 14  3 50  0.0000000  0  8G14G16G20G23G25G29G31G32
  22801288.938   119821726.963 7  22801293.676    93367644.30245
  22262389.781   116989674.159 7  22262392.375    91160801.95245
  22231507.922   116827372.902 8  22231510.270    91034322.70445
  24374378.828   128088246.860 6  24374381.398    99809028.08743
  24507626.672   128788434.114 5  24507632.789   100354730.775 7
  23835149.672   125254587.564 6  23835154.379    97601000.926 6
  20899598.531   109828209.337 8  20899600.805    85580463.374 8
  21492600.891   112944438.510 8  21492604.195    88008698.12646
 14 11 14  3 55  0.0000000  0  8G14G16G20G23G25G29G31G32
  22948810.578   120596953.330 7  22948813.965    93971716.18544
  22070448.625   115981021.461 8  22070452.402    90374839.04345
  22184006.727   116577758.967 7  22184009.773    90839818.31245
  24188700.133   127112491.282 7  24188700.840    99048699.27944
  24711308.797   129858789.502 6  24711314.863   101188773.682 6
  23791275.414   125024025.418 7  23791279.957    97421342.366 6
  20984467.859   110274200.274 8  20984470.176    85927988.722 8
  21583726.477   113423303.161 8  21583729.973    88381839.15946
 14 11 14  4  0  0.0000000  0  8G14G16G20G23G25G29G31G32
  23101062.313   121397044.796 7  23101067.371    94595163.58444
  21885126.719   115007149.898 8  21885130.508    89615978.39446
  22147532.781   116386081.132 7  22147534.828    90690458.96545
  24003219.023   126137789.061 7  24003222.508    98289191.34044
  24917396.352   130941786.574 6  24917402.492   102032667.628 6
  23757029.523   124844062.579 6  23757033.840    97281111.789 6
  21072965.273   110739257.386 8  21072967.609    86290370.833 8
  21683794.492   113949164.548 8  21683798.984    88791601.04046
 14 11 14  4  5  0.0000000  0  7G14G16G20G23G29G31G32
  23257926.492   122221366.739 6  23257928.938    95237491.75943
  21706894.930   114070535.068 7  21706897.527    88886148.95545
  22122166.820   116252782.788 7  22122169.418    90586590.12445
  23818230.680   125165669.289 7  23818233.594    97531695.71244
  23732674.219   124716075.061 7  23732678.480    97181381.400 7
  21164893.609   111222345.443 8  21164896.297    86666803.016 8
  21792458.281   114520194.997 8  21792462.191    89236559.61946
 14 11 14  4 10  0.0000000  0  7G14G16G20G23G29G31G32
  23419264.234   123069201.216 7  23419267.984    95898141.64244
  21536204.664   113173549.783 8  21536207.469    88187199.63746
  22107946.828   116178057.263 7  22107948.691    90528362.35945
  23634043.539   124197755.679 7  23634045.102    96777477.48644
  23718428.484   124641213.152 6  23718432.758    97123047.526 7
  21260067.438   111722486.049 8  21260069.629    87056522.884 8
  21909339.781   115134411.782 8  21909344.000    89715169.83046
 14 11 14  4 15  0.0000000  0  7G14G16G20G23G29G31G32
  23584925.578   123939752.148 7  23584928.902    96576492.48244
  21373483.820   112318453.458 8  21373486.512    87520891.14546
  22104861.523   116161845.339 7  22104863.566    90515729.50345
  23450982.266   123235768.799 7  23450984.363    96027877.49844
  23714466.945   124620396.639 6  23714471.234    97106826.936 7
  21358312.547   112238766.199 8  21358314.680    87458819.027 8
  22034035.789   115789694.782 8  22034040.480    90225779.65146
 14 11 14  4 20  0.0000000  0  7G14G16G20G23G29G31G32
  23754741.445   124832144.140 6  23754746.238    97271862.34244
  21219141.055   111507375.511 8  21219143.777    86888882.60246
  22112852.281   116203836.323 7  22112854.727    90548449.68245
  23269394.961   122281520.176 7  23269396.328    95284307.35645
  23720919.664   124654307.890 6  23720924.121    97133251.281 6
  21459466.805   112770334.108 8  21459469.113    87873027.657 8
  22166119.797   116483797.239 8  22166124.777    90766638.43146
 14 11 14  4 25  0.0000000  0  7G14G16G20G23G29G31G32
  23928533.945   125745425.106 7  23928537.797    97983509.39043
  21073552.063   110742301.755 8  21073554.539    86292721.45646
  22131810.773   116303464.588 7  22131813.926    90626082.08045
  23089642.133   121336914.274 7  23089643.703    94548250.98745
  23737871.023   124743387.887 6  23737875.859    97202664.263 7
  21563380.188   113316403.956 8  21563382.512    88298536.507 7
  22305141.391   117214359.764 7  22305145.750    91335907.71146
 14 11 14  4 30  0.0000000  0  7G14G16G20G23G29G31G32
  24106104.836   126678567.533 6  24106109.586    98710632.96443
  20937066.109   110025062.462 8  20937067.891    85733833.94246
  22161583.406   116459917.705 7  22161586.461    90747993.51645
  22912104.500   120403942.174 8  22912106.105    93821259.95146
  23765358.430   124887830.733 7  23765362.117    97315217.172 7
  21669915.727   113876252.110 8  21669917.742    88734781.689 7
  22450633.445   117978925.134 7  22450638.820    91931672.65046
 14 11 14  4 35  0.0000000  0  8G14G16G20G23G27G29G31G32
  24287246.844   127630471.647 6  24287251.430    99452376.02243
  20809998.375   109357319.816 8  20810001.098    85213515.23046
  22201967.656   116672139.268 7  22201971.602    90913360.84145
  22737173.813   119484682.519 7  22737176.285    93104953.91645
  25082266.797   131808197.816 6  25082273.141   102707703.848 6
  23803370.594   125087590.849 6  23803374.871    97470874.474 6
  21778948.508   114449221.763 8  21778951.438    89181251.435 8
  22602114.117   118774955.425 8  22602118.539    92551955.69646
 14 11 14  4 40  0.0000000  0  9G09G14G16G20G23G27G29G31G32
  25195155.500   132401427.503 6  25195161.707   103169969.623 6
  24471736.500   128599970.846 6  24471741.719   100207829.36643
  20692632.586   108740558.043 8  20692635.086    84732921.81246
  22252719.758   116938841.732 7  22252722.754    91121180.76945
  22565265.836   118581296.803 7  22565267.000    92401017.10645
  24884736.750   130770174.052 5  24884745.824   101898853.712 7
  23851856.234   125342382.940 5  23851860.398    97669413.692 6
  21890365.180   115034720.944 8  21890368.156    89637484.425 8
  22759084.586   119599844.361 7  22759088.844    93194726.07245
 14 11 14  4 45  0.0000000  0  9G09G14G16G20G23G27G29G31G32
  24996928.594   131359733.670 6  24996933.816   102358260.268 6
  24659339.313   129585826.101 6  24659345.184   100976027.50443
  20585212.992   108176064.797 8  20585214.840    84293057.14946
  22313549.648   117258506.213 7  22313553.102    91370269.88245
  22396801.445   117696013.293 7  22396801.930    91711186.00645
  24685543.242   129723396.359 7  24685549.832   101083183.178 6
  23910713.898   125651676.846 6  23910716.746    97910421.937 6
  22004064.477   115632212.246 8  22004067.098    90103061.907 7
  22921040.570   120450922.759 7  22921042.602    93857903.82345
 14 11 14  4 50  0.0000000  0  9G09G14G16G20G23G27G29G31G32
  24798934.766   130319271.644 7  24798940.930   101547510.771 7
  24849807.625   130586739.861 6  24849812.438   101755959.60243
  20487947.258   107664929.256 8  20487948.852    83894769.88946
  22384129.438   117629404.703 7  22384133.320    91659281.43745
  22232220.445   116831132.290 8  22232221.039    91037252.96345
  24485197.172   128670572.028 7  24485204.125   100262800.804 6
  23979796.758   126014714.955 7  23979800.605    98193308.859 5
  22119954.906   116241221.405 8  22119957.652    90577614.346 7
  23087463.219   121325481.707 7  23087467.348    94539378.14345
 14 11 14  4 55  0.0000000  0  8G09G16G20G23G27G29G31G32
  24601517.992   129281853.799 5  24601526.719   100739133.358 7
  20401002.648   107208033.033 8  20401004.988    83538747.02047
  22464090.438   118049606.765 7  22464094.242    91986711.48545
  22071969.352   115989010.142 8  22071971.191    90381054.01246
  24284228.633   127614482.404 6  24284236.285    99439874.083 7
  24058921.063   126430516.861 7  24058925.340    98517310.384 6
  22237957.336   116861327.956 8  22237959.855    91060814.151 7
  23257832.000   122220778.287 7  23257838.078    95237011.62145
 14 11 14  5  0  0.0000000  0  8G09G16G20G23G27G29G31G32
  24405049.820   128249389.959 7  24405053.672    99934616.251 6
  20324506.852   106806047.126 8  20324509.574    83225511.36547
  22553034.203   118517001.478 7  22553036.590    92350914.73445
  21916509.266   115172059.985 8  21916510.863    89744469.60246
  24083183.906   126557983.663 7  24083190.625    98616628.621 6
  24147860.656   126897893.281 7  24147864.121    98881499.763 6
  22358002.750   117492170.650 8  22358005.969    91552379.702 7
  23431623.938   123134055.784 7  23431628.703    95948656.10945
 14 11 14  5  5  0.0000000  0  8G09G16G20G23G27G29G31G32
  24209899.570   127223872.607 7  24209904.727    99135512.005 7
  20258546.211   106459421.721 8  20258548.543    82955413.77447
  22650523.195   119029308.396 7  22650526.965    92750114.67045
  21766304.375   114382728.998 8  21766306.254    89129406.56346
  23882615.633   125503987.761 7  23882621.301    97795333.494 6
  24246347.852   127415449.819 7  24246351.906    99284790.500 7
  22480030.844   118133433.365 7  22480034.211    92052064.720 7
  23608307.281   124062542.344 6  23608312.555    96672151.93643
 14 11 14  5 10  0.0000000  0  8G09G16G20G23G27G29G31G32
  24016466.773   126207383.490 6  24016473.605    98343442.859 7
  20203164.883   106168389.632 7  20203167.359    82728635.63247
  22756095.578   119584092.921 7  22756098.891    93182414.14345
  21621827.141   113623494.751 8  21621827.887    88537795.53046
  23683087.602   124455463.481 7  23683093.484    96978301.999 7
  24354082.563   127981604.337 5  24354087.770    99725949.808 6
  22603991.711   118784847.989 8  22603994.387    92559660.224 7
  23787361.992   125003469.916 7  23787366.957    97405341.94244
 14 11 14  5 15  0.0000000  0  8G09G16G20G23G27G29G31G32
  23825164.445   125202085.779 7  23825170.207    97560094.332 6
  20158364.578   105932964.776 7  20158366.461    82545187.81146
  22869262.344   120178786.333 7  22869264.242    93645811.35644
  21483550.797   112896848.828 8  21483551.859    87971577.95246
  23485174.383   123415427.928 7  23485181.129    96167885.200 7
  24470734.031   128594604.025 6  24470737.871   100203611.773 6
  22729841.508   119446190.744 7  22729844.363    93074991.951 7
  23968257.117   125954081.296 7  23968262.418    98146077.71244
 14 11 14  5 20  0.0000000  0  8G09G16G20G23G27G29G31G32
  23636420.273   124210221.426 7  23636425.973    96787213.312 7
  20124108.602   105752948.338 8  20124111.074    82404915.34047
  22989513.000   120810706.157 7  22989514.516    94138216.13844
  21351950.867   112205287.278 8  21351951.824    87432698.85346
  23289459.594   122386938.098 7  23289465.164    95366464.903 7
  24595933.727   129252537.355 7  24595938.289   100716287.209 6
  22857545.016   120117277.914 7  22857547.398    93597916.740 7
  24150474.109   126911640.901 7  24150480.379    98892227.76744
 14 11 14  5 25  0.0000000  0  8G09G16G20G23G27G29G31G32
  23450670.430   123234101.158 7  23450675.898    96026600.434 7
  20100318.336   105627927.935 8  20100320.809    82307496.92047
  23116316.953   121477065.730 7  23116320.434    94657457.06944
  21227498.672   111551287.958 8  21227499.805    86923089.05146
  23096528.109   121373077.818 7  23096534.352    94576444.356 7
  24729294.117   129953349.378 6  24729297.965   101262374.621 6
  22987074.789   120797959.908 7  22987077.395    94128317.974 7
  24333500.008   127873438.589 7  24333504.563    99641680.18344
 14 11 14  5 30  0.0000000  0  8G09G16G20G23G27G29G31G32
  23268368.617   122276102.444 7  23268373.688    95280108.003 7
  20086875.211   105557287.813 8  20086877.730    82252452.74347
  23249128.141   122174999.942 6  23249132.809    95201301.78844
  21110660.969   110937300.200 8  21110661.348    86444657.09946
  22906971.031   120376951.593 7  22906976.387    93800242.543 7
  24870397.930   130694858.583 6  24870403.492   101840174.158 6
  23118407.344   121488116.773 7  23118410.664    94666102.144 7
  24516820.773   128836800.710 7  24516825.543   100392351.72944
 14 11 14  5 35  0.0000000  0  9G09G16G19G20G23G27G29G31G32
  23089978.789   121338657.164 7  23089983.555    94549631.378 7
  20083627.125   105540217.639 7  20083628.855    82239151.36747
  25060647.094   131694585.479 6  25060650.555   102619161.36343
  23387390.172   122901573.132 6  23387395.164    95767462.48744
  21001892.875   110365721.814 8  21001893.305    85999271.32746
  22721379.922   119401668.428 7  22721386.641    93040282.029 7
  25018812.000   131474772.659 6  25018815.156   102447899.428 6
  23251525.234   122187654.111 7  23251528.230    95211195.794 7
  24699939.938   129799093.145 7  24699944.199   101142189.59144
 14 11 14  5 40  0.0000000  0  9G07G09G16G19G20G23G27G31G32
  25219290.289   132528207.164 5                 103268799.699 5
  22915972.523   120424249.067 7  22915977.813    93837105.753 7
  20090383.969   105575723.541 8  20090385.758    82266818.35847
  24840848.203   130539539.286 6  24840851.488   101719125.52843
  23530536.484   123653802.738 7  23530540.434    96353615.17244
  20901639.938   109838887.920 8  20901640.551    85588751.41246
  22540346.914   118450335.767 7  22540353.770    92298984.274 7
  23386415.164   122896502.066 7  23386418.047    95763544.402 7
  24882363.141   130757733.701 7  24882366.484   101889182.05543
 14 11 14  5 45  0.0000000  0  9G07G09G16G19G20G23G27G31G32
  25061144.625   131697148.581 6  25061149.133   102621221.453 6
  22746829.070   119535392.741 7  22746834.563    93144490.637 8
  20106922.531   105662635.884 7  20106924.438    82334542.31847
  24619900.578   129378450.009 7  24619904.324   100814381.03644
  23677989.352   124428669.781 7  23677993.691    96957407.47544
  20810328.000   109359040.471 8  20810329.145    85214844.35046
  22364458.734   117526035.418 8  22364464.531    91578750.569 7
  23523064.992   123614601.177 7  23523067.953    96323101.658 6
  25063609.375   131710187.924 6  25063614.098   102631354.08343
 14 11 14  5 50  0.0000000  0 10G07G09G10G16G19G20G23G27G31G32
  24902445.789   130863175.718 6  24902448.418   101971372.498 5
  22583031.109   118674633.757 7  22583037.219    92473769.535 7
  24936171.789   131040445.246 6  24936175.684   102109467.87243
  20132991.039   105799628.239 7  20132993.391    82441289.63546
  24398345.594   128214173.471 6  24398348.793    99907152.99244
  23829169.281   125223133.343 6  23829174.055    97576469.80543
  20728364.898   108928321.273 8  20728366.098    84879219.03646
  22194294.898   116631819.682 8  22194300.805    90881959.441 8
  23661466.773   124341907.649 7  23661470.789    96889833.571 6
  25243205.844   132653981.986 6  25243213.332   103366777.92743
 14 11 14  5 55  0.0000000  0 10G07G09G10G16G19G20G23G27G31G32
  24743229.383   130026492.809 6  24743233.402   101319412.076 6
  22425068.906   117844531.882 8  22425073.082    91826936.985 7
  24867480.625   130679473.306 6  24867485.367   101828191.21343
  20168310.203   105985232.321 7  20168312.801    82585916.20547
  24176741.375   127049641.197 6  24176745.059    98999725.73343
  23983502.695   126034150.823 6  23983505.805    98208431.15044
  20656134.070   108548744.737 8  20656135.242    84583445.09946
  22030427.227   115770691.848 8  22030433.043    90210951.079 8
  23801613.992   125078384.671 7  23801618.363    97463711.355 6
  25420699.172   133586710.012 6  25420705.590   104093538.91043
 14 11 14  6  0  0.0000000  0  9G07G09G10G16G19G20G23G27G31
  24583547.078   129187351.522 7  24583549.703   100665535.540 6
  22273426.031   117047647.444 7  22273429.652    91205988.142 7
  24808830.492   130371264.544 6  24808834.953   101588028.33743
  20212576.453   106217850.265 8  20212578.367    82767176.96947
  23955660.867   125887856.191 6  23955663.809    98094439.10144
  24140406.344   126858684.417 7  24140410.020    98850924.63844
  20593990.961   108222182.710 8  20593991.742    84328981.15646
  21873415.680   114945590.096 8  21873421.586    89568015.043 8
  23943500.055   125823998.008 7  23943503.918    98044708.218 6
 14 11 14  6  5  0.0000000  0  9G07G09G10G16G19G20G23G27G31
  24423452.117   128346056.704 6  24423457.832   100009981.298 6
  22128589.633   116286524.108 8  22128593.168    90612905.103 7
  24760360.563   130116553.820 6  24760364.469   101389552.45743
  20265462.594   106495772.037 8  20265465.152    82983739.39447
  23735687.117   124731881.654 7  23735688.938    97193680.02744
  24299305.867   127693711.319 6  24299310.488    99501594.88444
  20542261.125   107950339.833 8  20542262.574    84117155.52447
  21723801.656   114159367.649 8  21723807.688    88955374.599 8
  24087118.133   126578709.290 7  24087122.156    98632794.340 7
 14 11 14  6 10  0.0000000  0  9G07G09G10G16G19G20G23G27G31
  24263020.422   127502973.545 7  24263023.832    99353033.756 7
  21991036.547   115563679.282 7  21991040.285    90049649.475 7
  24722169.063   129915855.626 6  24722173.375   101233164.16643
  20326627.063   106817193.958 8  20326629.414    83234198.05247
  23517412.008   123584841.086 7  23517415.129    96299882.53145
  24459633.859   128536242.040 6  24459639.355   100158112.24143
  20501234.461   107734741.936 8  20501235.117    83949157.14446
  21582111.578   113414781.345 8  21582117.137    88375177.833 8
  24232457.820   127342475.695 7  24232462.215    99227936.388 7
 14 11 14  6 15  0.0000000  0  9G07G09G10G16G19G20G23G27G31
  24102325.000   126658527.418 6  24102330.895    98695024.003 7
  21861237.391   114881581.394 8  21861241.121    89518144.784 7
  24694307.484   129769444.758 6  24694312.188   101119077.74343
  20395711.828   107180234.643 8  20395714.324    83517086.92947
  23301440.313   122449902.102 7  23301441.949    95415514.88045
  24620829.422   129383325.393 6  24620833.840   100818177.02143
  20471162.844   107576714.973 8  20471163.383    83826019.19946
  21448846.648   112714468.683 8  21448852.043    87829479.947 8
  24379510.758   128115243.708 6  24379515.305    99830092.786 6
 14 11 14  6 20  0.0000000  0  9G07G09G10G16G19G20G23G27G31
  23941468.164   125813206.970 7  23941471.621    98036333.054 7
  21739649.445   114242634.417 7  21739654.285    89020264.121 8
  24676785.539   129677361.204 6  24676789.617   101047324.24244
  20472345.258   107582947.153 8  20472347.520    83830888.87646
  23088380.680   121330270.787 7  23088383.160    94543075.17845
  24782337.266   130232054.799 5  24782340.152   101479524.53643
  20452257.672   107477369.182 8  20452258.750    83748606.84446
  21324482.156   112060931.209 8  21324487.789    87320230.238 8
  24528263.734   128896940.901 7  24528268.016   100439206.921 6
 14 11 14  6 25  0.0000000  0  9G07G09G10G16G19G20G23G27G31
  23780549.063   124967572.870 7  23780553.008    97377397.546 6
  21626715.656   113649160.565 8  21626719.918    88557817.034 8
  24669562.195   129639402.130 6  24669566.824   101017745.78944
  20556149.734   108023343.293 8  20556152.047    84174054.68546
  22878849.781   120229179.752 7  22878852.598    93685082.58245
  24943615.680   131079583.168 6  24943620.137   102139936.28143
  20444687.852   107437588.367 8  20444688.512    83717608.70646
  21209465.531   111456517.887 8  21209471.711    86849259.102 8
  24678698.250   129687479.553 6  24678702.848   101055210.541 6
 14 11 14  6 30  0.0000000  0  9G07G09G10G16G19G20G23G27G31
  23619689.258   124122256.060 6  23619693.094    96718709.519 6
  21522856.797   113103379.657 8  21522861.348    88132533.216 8
  24672555.266   129655128.601 6  24672559.414   101030000.07343
  20646741.328   108499401.367 8  20646742.934    84545008.96647
  22673465.250   119149877.270 8  22673468.145    92844067.88245
  25104136.109   131923124.064 6  25104139.742   102797240.92242
  20448575.586   107458014.216 8  20448576.527    83733524.85346
  21104211.695   110903405.471 8  21104217.465    86418262.659 8
  24830795.328   130486745.159 7  24830798.438   101678014.375 6
 14 11 14  6 35  0.0000000  0  8G07G09G10G16G19G23G27G31
  23459026.570   123277964.819 7  23459029.258    96060820.620 6
  21428473.305   112607391.122 8  21428478.211    87746048.629 8
  24685634.523   129723866.991 6  24685639.934   101083562.38343
  20743730.750   109009085.892 8  20743732.727    84942165.70547
  22472844.352   118095610.838 7  22472846.645    92022561.95045
  20463993.891   107539039.505 8  20463995.137    83796661.32346
  21009098.258   110403583.079 8  21009103.410    86028790.864 8
  24984524.117   131294597.914 6  24984527.355   102307509.764 6
 14 11 14  6 40  0.0000000  0  8G07G09G10G16G19G23G27G31
  23298707.875   122435486.061 7  23298710.105    95404343.927 6
  21343938.281   112163156.342 8  21343942.090    87399891.689 8
  24708630.078   129844712.693 5  24708636.012   101177727.80443
  20846731.844   109550360.798 8  20846734.340    85363938.30046
  22277605.141   117069621.317 7  22277607.211    91223089.92746
  20490970.109   107680801.770 8  20490971.801    83907125.29446
  20924465.992   109958837.176 8  20924471.148    85682235.849 8
  25139855.750   132110869.440 6  25139860.336   102943565.050 5
 14 11 14  6 45  0.0000000  0  8G07G09G10G16G19G23G27G31
  23138900.016   121595689.727 7  23138901.250    94749957.485 6
  21269595.219   111772480.528 8  21269599.723    87095468.980 8
  24741329.609   130016541.438 6  24741333.512   101311620.14543
  20955359.477   110121203.475 8  20955361.484    85808750.72446
  22088357.539   116075117.544 7  22088359.105    90448152.34046
  20529481.453   107883179.583 8  20529482.727    84064822.17246
  20850612.820   109570738.126 8  20850618.652    85379821.191 8
  25296751.391   132935358.505 6  25296755.074   103586023.670 6
 14 11 14  6 50  0.0000000  0  9G07G09G10G13G16G19G21G23G27
  22979784.328   120759529.152 7  22979785.660    94098403.941 6
  21205753.961   111436991.593 8  21205758.707    86834049.008 8
  24783473.727   130238009.632 6  24783477.676   101484192.55243
  25085788.727   131826717.270 6  25085792.297   102722119.99642
  21069233.648   110719614.219 8  21069235.484    86275044.76146
  21905703.172   115115268.096 7  21905706.477    89700218.06146
  25907967.328   136147251.682 5  25907977.281   106088830.24742
  20579454.477   108145789.694 8  20579455.715    84269453.25446
  20787794.711   109240624.094 8  20787799.746    85122589.627 8
 14 11 14  6 55  0.0000000  0  9G07G09G10G13G16G19G21G23G27
  22821555.086   119928038.954 7  22821558.438    93450489.700 7
  21152686.445   111158121.539 7  21152691.547    86616747.664 8
  24834768.070   130507567.423 6  24834773.684   101694237.52643
  24878973.922   130739897.788 6  24878977.422   101875247.83143
  21187979.070   111343625.006 8  21187981.195    86761286.84646
  21730235.102   114193174.784 8  21730236.844    88981704.11246
  25887405.086   136039169.036 5  25887408.977   106004610.19142
  20640766.297   108467984.090 8  20640767.504    84520513.71646
  20736217.969   108969588.434 8  20736223.203    84911393.160 8
 14 11 14  7  0  0.0000000  0  9G07G09G10G13G16G19G21G23G27
  22664432.398   119102344.495 7  22664434.262    92807091.566 7
  21110626.875   110937096.283 8  21110631.391    86444520.136 8
  24894884.102   130823473.122 6  24894888.551   101940397.61843
  24675171.109   129668904.663 6  24675174.105   101040707.60843
  21311230.180   111991315.718 8  21311232.840    87265980.82246
  21562525.906   113311861.562 8  21562528.836    88294966.92446
  25874081.797   135969160.206 5  25874086.313   105950057.95642
  20713244.844   108848861.928 8  20713246.164    84817301.47846
  20696044.563   108758476.582 8  20696049.371    84746890.535 8
 14 11 14  7  5  0.0000000  0  9G07G09G10G13G16G19G21G23G27
  22508640.359   118283660.714 7  22508644.633    92169156.294 7
  21079765.828   110774921.102 8  21079770.715    86318149.773 8
  24963453.430   131183810.264 6  24963457.734   102221179.71843
  24474899.305   128616467.572 6  24474901.410   100220626.53643
  21438632.992   112660821.316 8  21438635.008    87787673.38946
  21403135.125   112474255.724 8  21403136.871    87642287.42846
  25868169.875   135938084.167 5  25868173.070   105925843.05842
  20796672.219   109287274.309 8  20796672.926    85158921.36946
  20667386.984   108607879.415 8  20667392.219    84629542.203 8
 14 11 14  7 10  0.0000000  0 10G07G09G10G13G16G19G21G23G27G30
  22354432.273   117473287.976 8  22354435.371    91537697.220 7
  21060249.461   110672363.036 7  21060255.102    86238234.359 8
  25040081.594   131586490.111 6  25040086.031   102534956.21743
  24278685.883   127585362.475 6  24278689.359    99417168.19043
  21569843.125   113350333.620 8  21569844.832    88324955.64646
  21252594.516   111683162.644 8  21252596.152    87025851.55446
  25869796.914   135946636.551 5  25869800.352   105932507.44742
  20890782.961   109781828.643 8  20890784.625    85544288.22846
  20650307.031   108518123.953 7  20650311.910    84559602.992 8
  25143883.492   132131882.752 6  25143890.879   102960023.940 6
 14 11 14  7 15  0.0000000  0 10G07G09G10G13G16G19G21G23G27G30
  22202070.023   116672618.880 8  22202073.035    90913799.397 7
  21052178.063   110629948.420 7  21052183.641    86205183.914 8
  25124341.273   132029276.004 6  25124345.727   102879984.14243
  24087069.414   126578410.754 7  24087072.977    98632530.54244
  21704529.617   114058118.253 8  21704532.531    88876476.06846
  21111412.727   110941251.540 8  21111415.047    86447739.27346
  25879066.406   135995357.906 5  25879071.477   105970472.15242
  20995269.078   110330907.252 7  20995270.969    85972141.47346
  20644817.953   108489280.539 8  20644823.676    84537127.691 8
  24966996.844   131202338.521 5  24967004.074   102235703.813 6
 14 11 14  7 20  0.0000000  0 10G07G09G10G13G16G19G21G23G27G30
  22051834.344   115883129.270 8  22051837.930    90298612.796 7
  21055603.594   110647947.302 8  21055609.133    86219208.948 8
  25215780.891   132509796.113 5  25215786.258   103254414.96342
  23900590.391   125598455.585 7  23900593.617    97868929.24744
  21842376.820   114782508.714 8  21842379.039    89440936.03346
  20980068.961   110251031.790 8  20980069.816    85909905.93946
  25896053.539   136084621.171 5
  21109782.063   110932672.897 8  21109783.422    86441049.54746
  20650883.844   108521156.012 8  20650888.922    84561965.770 8
  24789470.188   130269425.742 6  24789476.977   101508758.986 6
 14 11 14  7 25  0.0000000  0 10G07G09G10G11G13G16G19G23G27G30
  21904025.984   115106388.598 7  21904028.996    89693360.439 7
  21070529.094   110726378.997 8  21070534.477    86280324.487 8
  25313928.578   133025562.647 5
  25444078.180   133709534.001 6  25444082.414   104189261.23942
  23719792.328   124648358.564 6  23719795.371    97128593.91143
  21983082.984   115521923.261 7  21983085.477    90017103.05346
  20859005.117   109614838.502 8  20859006.316    85414171.12246
  21233933.648   111585095.271 8  21233935.227    86949430.41746
  20668420.266   108613309.255 8  20668425.113    84633773.571 8
  24611463.789   129333993.352 6  24611469.074   100779851.157 6
 14 11 14  7 30  0.0000000  0 10G07G09G11G13G16G19G21G23G27G30
  21758955.625   114344041.719 7  21758958.148    89099324.018 7
  21096906.344   110864993.488 8  21096911.559    86388335.615 8
  25248011.063   132679187.207 6  25248014.484   103386393.51443
  23545219.984   123730972.922 7  23545223.594    96413748.04744
  22126360.797   116274852.703 7  22126362.633    90603801.20945
  20748627.250   109034801.886 8  20748628.957    84962194.75046
  25953300.813   136385457.042 5  25953303.957   106274440.51642
  21367301.570   112285948.628 8  21367303.824    87495549.67946
  20697293.844   108765042.637 8  20697298.352    84752007.417 8
  24433152.406   128396962.770 6  24433155.453   100049697.587 5
 14 11 14  7 35  0.0000000  0  9G07G09G11G13G16G19G23G27G30
  21616953.430   113597816.110 8  21616956.387    88517849.573 7
  21134640.297   111063284.711 8  21134644.145    86542848.122 8
  25049508.969   131636054.291 6  25049512.680   102573562.59343
  23377412.227   122849135.985 7  23377415.238    95726602.51444
  22271939.727   117039874.631 8  22271941.863    91199922.10945
  20649301.719   108512841.225 8  20649303.371    84555472.36347
  21509431.750   113032843.125 8  21509432.031    88077545.22946
  20737328.047   108975423.852 8  20737332.813    84915940.865 8
  24254729.219   127459343.080 6  24254733.621    99319085.309 6
 14 11 14  7 40  0.0000000  0  9G07G09G11G13G16G19G23G27G30
  21478362.492   112869511.506 8  21478364.414    87950339.570 7
  21183583.938   111320484.689 8  21183589.027    86743263.603 8
  24849030.844   130582536.154 6  24849034.680   101752639.36243
  23216901.992   122005648.634 7  23216904.988    95069339.66845
  22419564.891   117815648.629 7  22419567.102    91804421.15045
  20561346.625   108050636.353 8  20561348.297    84195312.91047
  21659838.000   113823235.320 8  21659839.621    88693435.10746
  20788300.977   109243289.424 8  20788305.875    85124667.321 8
  24076400.781   126522224.686 6  24076405.965    98588863.440 6
 14 11 14  7 45  0.0000000  0  9G07G09G11G13G16G19G23G27G30
  21343538.156   112161005.297 8  21343540.109    87398256.902 7
  21243543.836   111635579.595 8  21243549.496    86988792.042 8
  24647051.516   129521124.178 7  24647053.605   100925564.88843
  23064212.203   121203262.729 7  23064215.441    94444103.92045
  22568997.875   118600925.914 7  22569001.043    92416325.31045
  20485037.578   107649629.983 8  20485038.926    83882840.60247
  21818013.633   114654454.146 7  21818015.801    89341137.94246
  20849952.258   109567269.952 8  20849957.559    85377119.713 8
  23898393.484   125586790.689 7  23898399.758    97859954.121 7
 14 11 14  7 50  0.0000000  0 10G04G07G09G11G13G16G19G23G27G30
  25085083.859   131823004.642 6  25085089.102   102719246.09843
  21212850.555   111474239.291 8  21212853.109    86863114.636 7
  21314282.586   112007311.274 8  21314287.875    87278452.916 8
  24444058.602   128454390.531 6  24444062.664   100094343.94444
  22919854.969   120444660.499 7  22919859.156    93852985.32045
  22720018.906   119394543.698 7  22720021.301    93034728.55445
  20420599.039   107311002.754 8  20420600.039    83618975.39547
  21983429.086   115523714.844 8  21983431.695    90018483.69546
  20921984.008   109945798.621 8  20921988.395    85672077.134 8
  23720948.313   124654312.952 6  23720953.063    97133348.222 6
 14 11 14  7 55  0.0000000  0 10G04G07G09G11G13G16G19G23G27G30
  24897235.758   130835856.211 6  24897241.809   101950039.46943
  21086680.094   110811210.717 8  21086682.844    86346469.039 7
  21395514.336   112434184.845 8  21395519.852    87611081.508 8
  24240555.805   127384980.685 6  24240560.340    99261037.73943
  22784321.133   119732426.734 7  22784324.391    93297998.11545
  22872421.453   120195424.886 7  22872423.117    93658791.70144
  20368203.422   107035662.678 8  20368204.664    83404424.83347
  22155534.109   116428134.405 7  22155534.648    90723226.00945
  21004062.961   110377125.988 8  21004067.648    86008176.393 8
  23544325.492   123726148.744 7  23544330.457    96410103.527 7
 14 11 14  8  0  0.0000000  0 11G04G07G09G11G13G16G19G23G27G28G30
  24707665.133   129839655.626 6  24707671.246   101173779.28743
  20965417.289   110173968.824 8  20965420.039    85849916.997 8
  21486912.977   112914486.703 8  21486916.813    87985342.486 8
  24037063.094   126315615.189 7  24037065.902    98427766.07244
  22658083.008   119069040.736 7  22658086.621    92781073.99145
  23026018.148   121002577.586 7  23026020.402    94287741.74344
  20327971.992   106824245.806 8  20327973.672    83239684.52147
  22333767.148   117364753.079 8  22333769.797    91453058.60245
  21095826.031   110859344.279 8  21095831.352    86383930.901 8
  25114146.602   131975729.374 6  25114151.094   102838246.72943
  23368796.898   122803747.958 7  23368804.055    95691349.891 7
 14 11 14  8  5  0.0000000  0 11G04G07G09G11G13G16G19G23G27G28G30
  24516903.492   128837196.587 6  24516908.918   100392642.52243
  20849457.648   109564597.905 8  20849460.434    85375082.542 8
  21588111.813   113446289.830 8  21588116.934    88399734.299 8
  23834106.398   125249077.568 7  23834111.035    97596698.00244
  22541585.914   118456841.749 7  22541588.297    92304035.88545
  23180634.211   121815090.744 7  23180636.680    94920868.66245
  20299970.477   106677098.499 8  20299971.902    83125024.38247
  22517551.234   118330545.411 8  22517552.430    92205623.90545
  21196881.992   111390397.484 8  21196887.078    86797738.560 8
  24977670.141   131258535.671 6  24977673.363   102279394.45142
  23194658.930   121888643.984 7  23194665.121    94978282.121 7
 14 11 14  8 10  0.0000000  0 11G04G07G09G11G13G16G19G23G27G28G30
  24325500.250   127831363.906 7  24325504.391    99608876.93143
  20739205.055   108985215.182 8  20739207.629    84923615.558 8
  21698708.078   114027477.440 8  21698713.637    88852607.560 8
  23632232.492   124188216.379 7  23632236.031    96770053.19244
  22435245.398   117898019.032 7  22435247.008    91868589.68545
  23336112.992   122632137.038 7  23336115.676    95557527.87445
  20284212.563   106594289.796 8  20284213.570    83060498.22247
  22706303.414   119322443.661 7  22706304.063    92978531.43645
  21306816.867   111968109.061 8  21306821.602    87247903.440 8
  24842966.047   130550655.685 6  24842968.660   101727799.78143
  23022217.258   120982460.095 7  23022222.855    94272165.038 7
 14 11 14  8 15  0.0000000  0 11G04G07G09G11G13G16G19G23G27G28G30
  24134018.508   126825124.274 7  24134024.336    98824794.49244
  20635064.242   108437954.114 8  20635066.883    84497178.402 8
  21818265.172   114655755.788 7  21818270.926    89342174.945 8
  23431989.867   123135934.633 7  23431993.520    95950093.73545
  22339445.141   117394588.588 7  22339449.121    91476306.32145
  23492311.063   123452967.179 7  23492314.332    96197135.58644
  20280657.055   106575604.357 8  20280657.828    83045938.22747
  22899433.914   120337349.151 7  22899434.723    93769366.73745
  21425196.523   112590198.169 8  21425201.523    87732648.161 8
  24710011.680   129851978.803 6  24710014.840   101183376.40543
  22851798.797   120086906.105 7  22851803.594    93574330.940 7
 14 11 14  8 20  0.0000000  0 11G04G07G09G11G13G16G19G23G27G28G30
  23943038.172   125821518.251 6  23943043.152    98042764.23243
  20537443.609   107924952.212 8  20537445.973    84097436.706 8
  21946316.641   115328670.344 7  21946322.809    89866523.730 8
  23233940.328   122095182.859 7  23233941.484    95139118.66644
  22254533.258   116948372.784 7  22254536.035    91128605.69845
  23649102.383   124276909.067 7  23649105.789    96839168.02743
  20289209.734   106620551.398 8  20289210.914    83080961.96447
  23096350.383   121372147.398 6  23096352.758    94575702.79444
  21551570.438   113254297.510 8  21551575.230    88250128.129 8
  24578781.719   129162363.515 7  24578784.496   100646014.24843
  22683744.305   119203773.190 8  22683749.023    92886175.620 7
 14 11 14  8 25  0.0000000  0 12G01G04G07G09G11G13G16G19G23G27G28G30
  25145408.266   132140000.474 5  25145415.098   102966268.743 5
  23753151.023   124823657.095 6  23753156.848    97265210.50744
  20446747.141   107448340.106 8  20446750.164    83726050.683 8
  22082368.813   116043626.142 7  22082375.016    90423632.002 8
  23038654.344   121068951.934 6  23038659.199    94339458.39744
  22180815.117   116560980.240 8  22180818.102    90826741.44245
  23806371.813   125103361.491 7  23806374.961    97483156.69945
  20309727.539   106728371.248 8  20309728.340    83164977.51047
  23296456.945   122423723.196 6  23296460.098    95395112.36644
  21685476.117   113957975.002 8  21685480.918    88798448.244 8
  24449243.078   128481640.210 6  24449246.750   100115581.04643
  22518409.680   118334934.343 7  22518415.711    92209158.513 7
 14 11 14  8 30  0.0000000  0 12G01G04G07G09G11G13G16G19G23G27G28G30
  24950116.789   131113737.807 6  24950123.871   102166583.369 6
  23564961.133   123834713.544 6  23564966.828    96494605.44944
  20363375.727   107010224.150 7  20363379.027    83384661.689 8
  22225903.281   116797904.911 7  22225908.508    91011381.526 7
  22846707.766   120060265.395 7  22846711.625    93553469.36545
  22118553.016   116233793.093 8  22118556.207    90571790.39845
  23964018.148   125931796.189 7  23964021.066    98128689.92144
  20342016.250   106898047.847 7  20342016.957    83297193.10547
  23499168.086   123488972.466 6  23499169.695    96225176.52944
  21826440.563   114698751.054 7  21826445.930    89375676.269 8
  24321362.297   127809619.631 6  24321365.988    99591928.98943
  22356165.875   117482338.647 8  22356172.188    91544798.395 7
 14 11 14  8 35  0.0000000  0 12G01G04G07G09G11G13G16G19G23G27G28G30
  24752947.742   130077605.193 6  24752955.207   101359207.146 6
  23379080.875   122857907.264 7  23379084.109    95733458.01044
  20287723.188   106612666.756 8  20287726.207    83074876.736 8
  22376382.930   117588678.876 7  22376387.242    91627568.896 7
  22658677.336   119072160.352 7  22658680.605    92783517.80345
  22067964.188   115967943.958 8  22067967.949    90364635.22745
  24121951.172   126761744.728 6  24121955.445    98775402.75143
  20385834.570   107128316.703 8  20385835.438    83476623.42747
  23703893.211   124564809.460 7  23703894.969    97063490.95644
  21973986.914   115474111.266 7  21973991.789    89979852.988 7
  24195096.742   127146089.781 7  24195099.930    99074893.11444
  22197396.406   116648002.339 7  22197402.281    90894666.350 7
 14 11 14  8 40  0.0000000  0 12G01G04G07G09G11G13G16G19G23G27G28G30
  24554416.008   129034316.206 6  24554423.797   100546254.624 6
  23196130.828   121896504.331 6  23196136.805    94984313.13744
  20220172.195   106257679.841 8  20220174.305    82798263.556 8
  22533253.219   118413035.916 7  22533257.938    92269924.944 7
  22475144.078   118107687.982 7  22475146.637    92031981.16245
  22029213.781   115764311.359 8  22029216.184    90205960.46645
  24280097.773   127592805.067 6  24280100.727    99422981.99043
  20440899.984   107417689.317 8  20440901.082    83702108.63147
  23910053.445   125648187.471 7  23910055.742    97907681.41944
  22127634.289   116281531.309 8  22127639.160    90609011.432 7
  24070403.602   126490829.803 6  24070407.105    98564301.26243
  22042499.602   115834010.285 8  22042503.609    90260386.894 7
 14 11 14  8 45  0.0000000  0 12G01G04G07G09G11G13G16G19G23G27G28G30
  24355054.195   127986662.213 7  24355060.820    99729900.992 6
  23016740.203   120953795.731 7  23016745.309    94249735.41945
  20161088.602   105947197.188 8  20161091.566    82556329.027 8
  22695944.625   119267988.365 7  22695951.207    92936121.495 7
  22296687.266   117169890.689 7  22296690.621    91301230.35745
  22002419.336   115623500.027 8  22002420.848    90096237.23445
  24438388.367   128424627.786 7  24438391.273   100071155.36344
  20506888.578   107764462.403 8  20506890.133    83972321.48647
  24117075.125   126736094.283 7  24117076.945    98755400.87444
  22286900.422   117118482.603 7  22286905.887    91261181.236 8
  23947239.453   125843606.641 6  23947244.012    98059971.87443
  21891879.500   115042500.254 8  21891885.246    89643625.872 7
 14 11 14  8 50  0.0000000  0 12G01G04G07G09G11G13G16G19G23G27G28G30
  24155406.625   126937510.831 6  24155415.582    98912380.514 6
  22841534.938   120033091.165 7  22841540.344    93532303.68645
  20110827.094   105683065.495 8  20110828.984    82350512.101 8
  22863880.047   120150495.622 7  22863886.262    93623789.392 7
  22123881.813   116261794.761 7  22123885.332    90593623.43745
  21987640.594   115545837.546 8  21987642.973    90035720.91345
  24596768.992   129256918.730 6  24596771.332   100719693.52143
  20583440.297   108166741.998 8  20583440.945    84285786.10047
  24324396.422   127825573.737 6  24324396.652    99604345.98743
  22451309.016   117982453.363 7  22451314.352    91934405.043 8
  23825564.922   125204186.911 7  23825566.023    97561722.88444
  21745954.797   114275660.938 8  21745960.516    89046088.867 7
 14 11 14  8 55  0.0000000  0 12G01G04G07G09G11G13G16G19G23G27G28G30
  23956034.484   125889800.760 6  23956041.328    98095983.297 6
  22671149.203   119137706.232 7  22671153.254    92834601.47645
  20069714.703   105467025.330 8  20069717.820    82182169.130 8
  23036474.984   121057481.401 7  23036479.930    94330531.373 7
  21957299.117   115386396.777 7  21957302.719    89911495.42646
  21984887.414   115531370.564 7  21984889.730    90024447.78145
  24755191.336   130089433.804 6  24755194.133   101368406.31843
  20670162.023   108622468.119 8  20670163.254    84640897.37047
  24531465.461   128913729.222 7  24531466.555   100452259.34943
  22620386.844   118870961.990 7  22620391.398    92626749.382 7
  23705328.133   124572342.908 7  23705329.938    97069377.04544
  21605149.063   113535723.379 8  21605155.410    88469514.234 8
 14 11 14  9  0  0.0000000  0 12G01G04G07G09G11G13G16G19G23G27G28G30
  23757505.875   124846530.193 7  23757513.328    97283045.481 6
  22506208.461   118270941.317 7  22506212.105    92159200.57344
  20038063.148   105300692.869 8  20038066.227    82052559.391 8
  23213134.656   121985843.059 6  23213140.254    95053929.956 7
  21797498.938   114546641.837 8  21797502.336    89257141.13446
  21994113.961   115579857.096 8  21994116.711    90062229.41745
  24913617.117   130921970.495 6  24913621.074   102017136.06143
  20766633.273   109129428.043 8  20766633.922    85035931.07946
  24737743.727   129997729.589 6  24737744.129   101296935.08243
  22793668.320   119781563.800 7  22793673.535    93336309.261 7
  23586491.609   123947852.485 7  23586492.574    96582761.37843
  21469893.016   112824945.590 8  21469898.406    87915661.495 8
 14 11 14  9  5  0.0000000  0 12G01G04G07G09G11G13G16G19G23G26G27G28
  23560404.242   123810753.288 6  23560411.895    96475946.960 6
  22347338.648   117436070.923 8  22347342.395    91508652.47545
  20016151.305   105185544.517 8  20016153.996    81962833.375 8
  23393273.438   122932469.898 7  23393279.922    95791561.219 7
  21645029.375   113745412.818 8  21645032.629    88632807.06546
  22015220.516   115690769.792 7  22015222.613    90148654.72145
  25072017.703   131754367.768 6  25072020.570   102665757.29042
  20872409.125   109685285.047 8  20872410.152    85469066.41946
  24942707.094   131074818.963 6  24942709.457   102136225.73743
  24689609.352   129744767.930 6  24689612.156   101099836.75043
  22970699.172   120711865.391 7  22970704.297    94061219.456 7
  23469013.680   123330508.256 7  23469016.320    96101714.21144
 14 11 14  9 10  0.0000000  0 12G01G04G07G09G11G13G16G19G26G27G28G30
  23365317.219   122785567.613 6  23365325.773    95677101.392 7
  22195150.516   116636321.585 7  22195153.918    90885471.47645
  20004229.906   105122897.774 8  20004232.566    81914017.727 8
  23576294.664   123894253.372 7  23576301.473    96541002.556 7
  21500424.367   112985508.355 8  21500427.629    88040673.92746  
  22048050.625   115863296.059 7  22048053.926    90283090.57245
  25230366.273   132586498.228 6  25230369.422   103314170.66342
  20987024.773   110287594.277 8  20987025.891    85938398.29246
  24543277.898   128975799.030 6  24543282.195   100500640.46243
  23151033.547   121659530.147 7  23151038.762    94799659.430 7
  23352861.188   122720120.211 7  23352863.816    95626087.46044
  21217761.047   111499981.968 8  21217765.832    86883222.422 8
 14 11 14  9 15  0.0000000  0 12G01G04G07G09G11G13G16G19G26G27G28G30
  23172842.711   121774104.883 7  23172850.320    94888949.023 7
  22050247.398   115874852.313 7  22050250.859    90292119.11145
  20002517.344   105113899.086 8  20002520.227    81907005.722 8
  23761610.758   124868097.993 6  23761616.434    97299842.434 6
  21364196.445   112269625.099 8  21364199.441    87482843.02346
  22092399.195   116096346.053 8  22092402.680    90464687.77145
  25388646.227   133418262.028 6  25388649.066   103962298.25043
  21109998.563   110933826.947 8  21109999.758    86441956.20946
  24406150.508   128255186.900 7  24406154.340    99939124.66643
  23334240.672   122622286.567 7  23334245.461    95549859.198 7
  23237999.648   122116520.679 7  23238001.145    95155750.44144
  21101751.211   110890346.360 8  21101756.410    86408181.699 8
 14 11 14  9 20  0.0000000  0 11G01G04G07G09G11G13G19G26G27G28G30
  22983580.008   120779525.895 7  22983586.641    94113952.760 7
  21913215.039   115154741.810 8  21913218.113    89730994.33745
  20011198.000   105159512.009 8  20011200.535    81942548.189 8
  23948639.258   125850938.259 6  23948645.359    98065691.921 7
  21236836.633   111600342.864 8  21236839.113    86961324.57546
  22148006.195   116388564.039 7  22148008.320    90692389.87644
  21240838.484   111621393.439 8  21240839.348    86977722.28246
  24278692.234   127585384.908 7  24278695.738    99417200.96144
  23519900.539   123597939.956 6  23519905.531    96310108.521 7
  23124403.781   121519572.884 7  23124405.875    94690596.60444
  20993016.688   110318947.191 8  20993022.410    85962935.656 8
 14 11 14  9 25  0.0000000  0 12G01G04G07G09G11G13G17G19G26G27G28G30
  22798133.734   119805002.190 7  22798141.961    93354583.936 7
  21784617.836   114478960.267 8  21784621.500    89204411.62545
  20030414.594   105260499.984 8  20030418.055    82021240.058 8
  24136803.109   126839741.875 6  24136808.063    98836188.130 7
  21118808.820   110980102.821 8  21118811.180    86478020.80146
  22214565.961   116738334.357 7  22214569.707    90964938.10745
  25115616.773   131983456.411 6  25115620.566   102844262.959 6
  21379042.539   112347660.192 8  21379043.379    87543644.38646
  24161336.539   126968676.298 7  24161340.465    98936648.69344
  23707612.930   124584371.421 7  23707617.625    97078756.333 7
  23012053.156   120929172.535 7  23012055.219    94230544.76744
  20891979.773   109787991.105 8  20891984.102    85549203.686 8
 14 11 14  9 30  0.0000000  0 12G01G04G07G09G11G13G17G19G26G27G28G30
  22617108.445   118853709.098 7  22617115.395    92613316.882 7
  21664998.227   113850354.897 8  21665001.906    88714589.53446
  20060276.617   105417423.577 8  20060279.559    82143518.082 8
  24325532.891   127831524.867 6  24325539.477    99609005.932 7
  21010548.336   110411192.585 8  21010550.414    86034714.33246
  22291723.609   117143800.294 7  22291725.527    91280885.38245
  24929565.961   131005753.568 6  24929571.316   102082416.726 6
  21524105.430   113109972.069 8  21524106.531    88137653.63046
  24054482.773   126407157.123 7  24054485.852    98499101.08643
  23896988.305   125579549.089 6  23896994.465    97854219.305 7
  22900938.063   120345255.406 7  22900940.371    93775544.71845
  20799047.617   109299631.193 8  20799052.816    85168663.527 8
 14 11 14  9 35  0.0000000  0 12G01G04G07G09G11G13G17G19G26G27G28G30
  22441106.484   117928808.670 7  22441112.047    91892615.508 7
  21554869.281   113271625.781 8  21554873.422    88263632.01846
  20100847.797   105630625.680 8  20100850.492    82309649.526 8
  24514272.063   128823355.686 6  24514278.152   100381861.020 7
  20912457.938   109895724.927 8  20912460.738    85633051.36746
  22379082.758   117602877.236 7  22379087.410    91638607.47045
  24746004.508   130041132.535 6  24746008.379   101330764.082 6
  21675521.750   113905668.151 7  21675522.938    88757676.50946
  23958491.117   125902714.986 7  23958493.828    98106029.44244
  24087658.672   126581528.042 7  24087663.594    98634982.028 6
  22791051.625   119767800.731 7  22791054.742    93325580.31445
  20714617.398   108855946.576 8  20714622.555    84822935.229 8
 14 11 14  9 40  0.0000000  0 12G01G04G07G09G11G13G17G19G26G27G28G30
  22270721.742   117033434.602 7  22270728.949    91194921.742 7
  21454713.813   112745304.892 8  21454717.152    87853512.05846
  20152151.063   105900227.903 8  20152153.684    82519729.051 8
  24702474.047   129812363.719 6  24702479.281   101152516.571 6
  20824902.828   109435621.675 8  20824905.980    85274529.50146
  22476206.789   118113269.754 7  22476210.773    92036315.70645
  24565171.180   129090849.196 6  24565175.742   100590283.731 6
  21832785.492   114732097.162 8  21832786.871    89401647.12746
  23873676.016   125457009.031 7  23873679.668    97758726.00344
  24279270.336   127588453.014 7  24279274.902    99419598.953 6
  22682400.516   119196832.985 7  22682403.035    92880670.58945
  20639066.297   108458924.844 8  20639071.723    84513567.667 8
 14 11 14  9 45  0.0000000  0 12G01G04G07G09G11G13G17G19G26G27G28G30
  22106544.469   116170677.814 7  22106551.297    90522644.029 7
  21364976.938   112273735.504 8  21364980.430    87486055.62346
  20214167.602   106226125.887 8  20214170.840    82773675.409 8
  24889605.289   130795745.811 6  24889611.457   101918788.358 6
  20748209.719   109032596.746 8  20748212.488    84960484.24846
  22582623.617   118672491.059 7  22582627.074    92472072.20244
  24387296.016   128156103.245 7  24387299.527    99861910.375 6
  21995398.750   115586635.191 7  21995400.016    90067520.87146
  23800305.773   125071455.727 6  23800310.305    97458294.64743
  24471487.219   128598562.322 6  24471493.109   100206697.040 7
  22574998.117   118632429.031 7  22575000.984    92440875.43045
  20572753.555   108110445.691 8  20572758.938    84242025.502 8
 14 11 14  9 50  0.0000000  0 12G01G04G07G09G11G13G17G19G26G27G28G30
  21949150.844   115343572.888 7  21949158.004    89878146.966 7
  21286065.883   111859058.179 8  21286070.391    87162930.59746
  20286834.539   106607991.266 8  20286837.613    83071232.738 8
  25075146.977   131770777.101 6  25075154.273   102678552.888 6
  20682662.711   108688146.821 8  20682664.949    84692081.85446
  22697825.859   119277885.026 7  22697829.887    92943807.43544
  24212592.594   127238032.641 7  24212595.242    99146530.786 6
  22162869.531   116466700.705 7  22162870.285    90753286.19145
  23738607.219   124747217.773 7  23738610.258    97205641.60844
  24663995.469   129610192.515 6  24664000.043   100994980.025 6
  22468870.648   118074725.787 7  22468872.965    92006301.58545
  20516011.594   107812266.634 8  20516016.859    84009678.159 8
 14 11 14  9 55  0.0000000  0 11G01G04G07G11G13G17G19G26G27G28G30
  21799104.750   114555072.636 8  21799110.664    89263731.450 7
  21218345.102   111503181.315 8  21218348.535    86885624.13046
  20370045.656   107045266.091 8  20370047.746    83411966.213 8
  20628501.969   108403529.660 8  20628504.578    84470302.38046
  22821280.406   119926640.726 7  22821285.168    93449331.20144
  24041266.023   126337706.794 6  24041269.625    98444978.214 6
  22334716.211   117369759.971 7  22334717.531    91456968.70546
  23688743.047   124485181.518 7  23688745.707    97001457.43343
  24856492.156   130621770.748 6  24856495.582   101783222.834 5
  22364055.000   117523914.619 7  22364056.176    91577098.18545
  20469148.375   107565997.590 8  20469154.195    83817780.150 8
 14 11 14 10  0  0.0000000  0 11G01G04G07G11G13G17G19G26G27G28G30
  21656947.719   113808036.687 8  21656954.223    88681625.767 7
  21162130.820   111207775.160 8  21162134.516    86655437.67746
  20463651.336   107537168.899 8  20463654.113    83795266.968 8
  20585919.805   108179758.948 8  20585921.871    84295935.72046
  22952426.969   120615814.742 7  22952431.336    93986349.81445
  23873507.313   125456128.262 7  23873512.020    97758034.052 7
  22510468.742   118293343.763 7  22510469.219    92176644.23046
  23650833.039   124285956.512 6  23650835.949    96846217.00144
  25048699.438   131631823.423 6  25048703.164   102570276.976 6
  22260598.766   116980251.564 7  22260599.766    91153464.75245
  20432439.344   107373091.298 8  20432444.449    83667463.539 8
 14 11 14 10  5  0.0000000  0 11G01G04G07G11G13G17G19G26G27G28G30
  21523204.383   113105209.946 8  21523211.031    88133968.784 8
  21117692.242   110974250.390 8  21117696.070    86473470.44846
  20567462.617   108082699.590 8  20567465.434    84220355.668 8
  20555060.727   108017595.270 8  20555063.727    84169574.51546
  23090683.242   121342353.643 7  23090686.434    94552483.91845
  23709491.398   124594226.951 7  23709496.641    97086422.936 6
  22689670.430   119235054.764 7  22689671.473    92910444.90045
  23624933.320   124149862.551 6  23624937.980    96740169.74244
  25240353.523   132638973.968 5  25240357.547   103355070.525 6
  22158564.367   116444056.867 7  22158565.855    90735650.80745
  20406127.953   107234824.778 8  20406132.969    83559723.307 8
 14 11 14 10 10  0.0000000  0 10G01G04G07G11G13G17G19G26G28G30
  21398371.102   112449206.483 8  21398377.285    87622797.460 8
  21085247.148   110803748.558 8  21085250.105    86340611.99146
  20681248.289   108680648.360 8  20681251.031    84686289.554 8
  20536020.648   107917539.709 8  20536023.520    84091609.23146
  23235449.867   122103114.416 7  23235454.281    95145284.46344
  23549386.781   123752863.606 7  23549389.445    96430815.187 6
  22871880.641   120192576.766 7  22871881.859    93656565.90845
  23611055.742   124076930.042 7  23611059.145    96683338.96544
  22058024.578   115915722.138 8  22058028.133    90323961.45946
  20390422.047   107152287.467 8  20390427.031    83495408.458 8
 14 11 14 10 15  0.0000000  0 10G01G04G07G11G13G17G19G26G28G30
  21282915.867   111842486.983 7  21282922.027    87150029.181 8
  21064958.383   110697131.034 8  21064961.477    86257533.51946
  20804739.875   109329599.490 8  20804742.613    85191965.591 7
  20528844.930   107879829.267 7  20528847.586    84062224.53746
  23386118.063   122894879.742 7  23386122.938    95762244.26844
  23393336.938   122932823.146 7  23393340.406    95791822.801 6
  23056675.398   121163677.810 7  23056676.207    94413267.87045
  23609146.703   124066893.418 7  23609150.363    96675517.91644
  21959068.828   115395706.616 7  21959072.191    89918754.58646
  20385489.188   107126364.575 8  20385494.512    83475208.731 8
 14 11 14 10 20  0.0000000  0 10G01G04G07G11G13G17G19G26G28G30
  21177275.250   111287342.554 8  21177281.570    86717449.323 8
  21056935.227   110654971.595 8  21056938.934    86224682.11346
  20937630.820   110027946.417 8  20937633.613    85736131.841 7
  20533527.789   107904437.318 8  20533529.586    84081399.70746
  23542064.492   123714378.649 7  23542068.332    96400814.66044
  23241482.547   122134816.573 7  23241485.000    95169999.629 6
  23243646.984   122146218.912 7  23243648.277    95178884.21345
  23619100.102   124119195.889 6  23619102.816    96716272.76944
  21861798.133   114884542.078 7  21861800.449    89520444.58546
  20391457.250   107157728.885 8  20391462.609    83499648.389 8
 14 11 14 10 25  0.0000000  0 10G01G04G07G11G13G17G19G26G28G30
  21081849.141   110785874.234 8  21081855.113    86326694.956 8
  21061232.273   110677551.222 8  21061235.813    86242276.72146
  21079581.305   110773897.101 8  21079584.086    86317391.881 7
  20550014.148   107991076.236 8  20550017.059    84148910.61146
  23702656.828   124558303.927 6  23702661.586    97058418.62343
  23093938.359   121359476.288 7  23093943.363    94565838.560 7
  23432406.422   123138154.268 7  23432405.980    95951820.75444
  23640754.352   124232990.179 7  23640756.762    96804943.37344
  21766325.352   114382830.641 7  21766327.609    89129500.65946
  20408412.555   107246827.765 8  20408417.660    83569075.985 8
 14 11 14 10 30  0.0000000  0 10G01G04G07G11G13G17G19G26G28G30
  20996998.227   110339980.623 8  20997003.332    85979245.573 8
  21077846.508   110764862.279 8  21077850.652    86310311.36546
  21230216.711   111565494.312 7  21230221.250    86934220.643 8
  20578201.781   108139202.400 8  20578203.934    84264333.63746
  23867268.047   125423330.291 7  23867270.469    97732464.97544
  22950817.570   120607363.947 7  22950821.418    93979777.147 7
  23622582.859   124137541.406 7  23622584.188    96730563.89344
  23673896.164   124407151.551 7  23673898.883    96940653.22043
  21672781.547   113891252.694 8  21672783.934    88746452.95646
  20436396.586   107393881.736 8  20436401.844    83683663.392 8
 14 11 14 10 35  0.0000000  0 10G01G04G07G11G13G17G19G26G28G30
  20923042.555   109951342.875 8  20923048.609    85676411.145 8
  21106723.727   110916609.539 8  21106727.172    86428556.04946
  21389138.664   112400630.501 7  21389141.641    87584975.862 7
  20617940.250   108348028.918 8  20617942.418    84427055.63546
  24035259.680   126306132.708 6  24035261.836    98420362.86343
  22812207.516   119878968.569 7  22812212.000    93412196.613 7
  23813828.242   125142540.315 7  23813829.406    97513679.71445
  23718260.922   124640287.930 7  23718262.715    97122317.76643
  21581309.031   113410565.241 8  21581311.770    88371891.38446
  20475405.797   107598880.056 8  20475411.801    83843402.217 8
 14 11 14 10 40  0.0000000  0 10G01G04G07G11G13G17G19G26G28G30
  20860256.961   109621401.484 8  20860263.016    85419314.094 8
  21147750.250   111132207.808 8  21147754.199    86596554.72946
  21555915.727   113277049.907 8  21555918.398    88267899.798 7
  20669032.969   108616524.835 8  20669035.566    84636273.27446
  24206001.422   127203391.229 6  24206004.758    99119525.18643
  22678189.805   119174700.223 7  22678194.199    92863416.375 7
  24005809.523   126151409.195 7  24005810.813    98299811.05145
  23773530.289   124930742.349 5  23773537.246    97348645.54743
  21492067.008   112941592.814 8  21492069.340    88006458.34046
  20525394.539   107861568.850 8  20525399.258    84048094.669 8
 14 11 14 10 45  0.0000000  0 10G01G04G07G11G13G17G19G26G28G30
  20808868.484   109351354.181 8  20808874.629    85208887.773 8
  21200764.750   111410801.496 8  21200768.086    86813640.77446
  21730096.523   114192375.831 7  21730100.730    88981140.433 7
  20731242.547   108943438.097 8  20731244.539    84891010.89646
  24378869.953   128111816.389 6  24378871.801    99827388.79243
  22548827.758   118494897.872 8  22548831.250    92333700.557 7
  24198215.375   127162512.936 6  24198217.723    99087683.67443
  23839351.242   125276619.475 7  23839355.387    97618159.69744
  21405225.313   112485236.840 8  21405226.953    87650856.31946
  20586267.586   108181461.672 8  20586273.027    84297361.684 8
 14 11 14 10 50  0.0000000  0 10G01G04G07G11G13G17G19G26G28G30
  20769055.930   109142139.613 8  20769061.926    85045863.554 8
  21265553.398   111751267.818 8  21265557.418    87078939.21046
  21911206.102   115144117.719 7  21911209.832    89722757.216 7
  20804289.984   109327305.058 8  20804291.945    85190128.01346
  24553241.828   129028149.417 6  24553244.938   100541414.46943
  22424171.953   117839830.928 8  22424176.285    91823259.071 7
  24390757.414   128174318.651 7  24390758.441    99876103.55844
  23915311.586   125675792.253 6  23915312.906    97929203.37943
  21320969.945   112042468.169 8  21320972.086    87305841.77246
  20657889.781   108557834.587 8  20657894.668    84590639.152 8
 14 11 14 10 55  0.0000000  0 12G01G04G07G11G13G17G19G20G26G28G30G32
  20740948.813   108994436.598 7  20740955.105    84930770.390 8
  21341855.430   112152237.435 7  21341859.352    87391383.04746
  22098756.469   116129692.823 7  22098760.895    90490737.554 7
  20887860.711   109766471.487 7  20887862.848    85532335.61746
  24728508.828   129949182.134 6  24728512.848   101259102.12143
  22304261.906   117209701.790 8  22304266.105    91332249.628 7
  24583159.211   129185398.483 6  24583161.348   100663957.40744
  25154685.656   132188754.036 6  25154691.586   103004250.95943
  24000970.219   126125930.489 7  24000974.102    98279960.18344
  21239497.594   111614330.549 7  21239499.395    86972228.04246
  20740078.070   108989738.264 8  20740082.934    84927187.319 8
  24994193.828   131345364.391 6  24994199.504   102347067.41643
 14 11 14 11  0  0.0000000  0 12G01G04G07G11G13G17G19G20G26G28G30G32
  20724625.109   108908654.557 8  20724631.344    84863927.314 8
  21429365.977   112612107.386 8  21429369.363    87749723.22746
  22292236.953   117146437.183 8  22292239.363    91283005.455 6
  20981605.984   110259107.593 8  20981608.574    85916207.87146
  24904069.828   130871763.838 6  24904074.176   101977996.87343
  22189124.180   116604648.282 8  22189128.570    90860779.589 7
  24775173.055   130194426.367 6  24775173.531   101450211.99144
  24992897.328   131338541.452 6  24992900.508   102341747.26443
  24095844.719   126624511.700 5  24095850.879    98668464.80943
  21161020.602   111201933.972 7  21161022.680    86650880.11646
  20832610.625   109475999.427 8  20832616.055    85306091.920 8
  24874678.844   130717310.646 6  24874683.973   101857675.25843
 14 11 14 11  5  0.0000000  0 12G01G04G07G11G13G17G19G20G26G28G30G32
  20720109.836   108884926.607 8  20720116.512    84845438.032 8
  21527737.656   113129052.778 7  21527741.324    88152537.74246
  22491127.680   118191612.955 8  22491130.844    92097427.858 7
  21085147.563   110803219.357 7  21085149.555    86340191.00546
  25079338.102   131792804.527 5  25079341.375   102695690.85642
  22078771.891   116024740.981 8  22078775.602    90408903.958 7
  24966559.266   131200170.591 7  24966561.734   102233907.73244
  24830048.953   130482773.858 6  24830053.633   101674915.16543
  24199428.789   127168838.595 7  24199433.887    99092615.54144
  21085762.078   110806444.296 8  21085764.707    86342706.31246
  20935222.063   110015224.994 8  20935227.688    85726267.506 8
  24759842.148   130113837.973 6  24759846.480   101387436.90344
 14 11 14 11 10  0.0000000  0 11G01G04G07G11G17G19G20G26G28G30G32
  20727379.063   108923127.349 8  20727384.707    84875204.871 8
  21636587.594   113701063.533 7  21636591.605    88598260.29445
  22694899.016   119262440.231 7  22694902.828    92931838.201 7
  21198080.750   111396687.409 8  21198082.957    86802633.56246
  21973208.016   115470000.902 7  21973210.645    89976639.122 7
  25157109.453   132201509.294 7  25157111.070   103014170.45343
  24666675.281   129624238.658 6  24666679.844   101005926.63043
  24311176.430   127756074.863 7  24311178.988    99550201.85843
  21013956.016   110429098.871 8  21013956.961    86048670.90546
  21047610.070   110605829.266 8  21047616.832    86186478.408 8
  24650247.023   129537917.396 5  24650252.285   100938667.83343
 14 11 14 11 15  0.0000000  0 11G01G04G07G11G17G19G20G26G28G30G32
  20746357.492   109022859.228 8  20746363.559    84952918.022 8
  21755499.336   114325947.361 7  21755502.277    89085182.62945
  22903014.703   120356093.179 8  22903019.211    93784034.816 7
  21319979.164   112037267.593 7  21319981.230    87301786.80346
  21872426.453   114940389.270 7  21872428.309    89563954.915 7
  25346621.813   133197408.377 5  25346626.527   103790194.23243
  24503317.414   128765787.708 6  24503322.211   100337003.70043
  24430522.914   128383249.193 6  24430528.219   100038908.75943
  20945845.508   110071181.016 8  20945847.352    85769773.88046
  21169436.336   111246028.475 8  21169442.348    86685334.713 8
  24546446.984   128992450.758 6  24546453.965   100513628.95943
 14 11 14 11 20  0.0000000  0 10G01G04G07G11G17G20G26G28G30G32
  20776919.938   109183467.266 8  20776926.672    85078067.120 8
  21884025.977   115001360.128 7  21884030.148    89611478.13245
  23114931.594   121469720.063 7  23114934.852    94651795.292 6
  21450397.219   112722619.836 8  21450399.727    87835827.33946
  21776409.953   114435820.488 8  21776411.863    89170784.641 7
  24340531.906   127910336.833 6  24340536.766    99670418.44543
  24556885.125   129047283.557 6  24556890.086   100556337.85343
  20881687.047   109734023.466 8  20881688.582    85507053.66246
  21300327.297   111933862.479 8  21300332.688    87221309.000 8
  24448981.820   128480263.198 6  24448987.438   100114521.78643
 14 11 14 11 25  0.0000000  0 10G01G04G07G11G17G20G26G28G30G32
  20818895.070   109404046.607 8  20818901.227    85249947.071 8
  22021697.617   115724825.294 7  22021700.488    90175216.90245
  23330103.930   122600454.229 7  23330108.148    95532886.071 6
  21588875.469   113450325.665 8  21588878.430    88402870.59146
  21685133.477   113956162.003 8  21685136.586    88797024.942 7
  24178880.734   127060857.390 6  24178885.438    99008486.50443
  24689659.063   129745011.700 6  24689663.668   101100021.64343
  20821740.766   109419003.165 8  20821743.117    85261583.24446
  21439878.313   112667207.221 8  21439884.305    87792746.161 8
  24358367.078   128004082.909 6  24358373.906    99743472.23943
 14 11 14 11 30  0.0000000  0 11G01G04G06G07G11G17G20G26G28G30G32
  20872064.828   109683455.616 8  20872070.688    85467668.268 8
  22168019.828   116493756.542 7  22168023.371    90774383.69445
  24989226.109   131319260.542 6  24989231.695   102326737.158 6
  23547984.523   123745424.527 7  23547989.473    96425069.793 6
  21734941.586   114217907.071 8  21734944.047    89000985.66745
  21598564.625   113501241.258 8  21598568.047    88442541.368 8
  24018940.539   126220366.374 6  24018945.609    98353558.38143
  24828229.633   130473200.307 6  24828233.477   101667441.11943
  20766275.352   109127528.518 7  20766276.941    85034460.04946
  21587657.391   113443791.082 8  21587662.367    88397876.119 7
  24275103.578   127566525.709 6  24275109.539    99402518.61743
 14 11 14 11 35  0.0000000  0 11G01G04G06G07G11G17G20G26G28G30G32
  20936169.781   110020327.973 8  20936175.703    85730166.059 8
  22322486.484   117305478.517 8  22322489.355    91406893.87645
  24772331.234   130179470.999 6  24772339.086   101438589.518 7
  23768030.703   124901766.394 7  23768034.695    97326114.192 6
  21888116.406   115022844.536 8  21888118.691    89628209.34545
  21516663.961   113070852.679 8  21516667.273    88107173.775 7
  23861292.273   125391918.260 6  23861297.086    97708014.41543
  24971970.055   131228565.665 6  24971975.188   102256037.40043
  20715563.313   108861036.816 8  20715565.707    84826804.06647
  21743206.867   114261209.040 8  21743212.566    89034824.792 7
  24199662.172   127170075.576 6  24199667.086    99093596.50144
 14 11 14 11 40  0.0000000  0 11G01G04G06G07G11G17G20G26G28G30G32
  21010909.336   110413087.409 8  21010916.309    86036212.152 8
  22484572.547   118157245.356 7  22484575.934    92070607.87245
  24556465.289   129045084.777 6  24556473.141   100554652.143 6
  23989698.078   126066630.363 6  23989703.195    98233798.913 6
  22047915.461   115862592.498 8  22047918.613    90282557.96745
  21439386.867   112664757.538 8  21439390.121    87790736.078 8
  23706521.500   124578590.324 7  23706526.445    97074252.34544
  25120251.695   132007790.280 6  25120257.375   102863225.44043
  20669882.023   108620980.509 8  20669884.254    84639747.04546
  21906047.445   115116937.030 8  21906053.980    89701625.352 8
  24132486.750   126817067.799 7  24132492.090    98818525.63744
 14 11 14 11 45  0.0000000  0 11G01G04G06G07G11G17G20G26G28G30G32
  21095948.883   110859971.779 8  21095955.262    86384433.466 8
  22653747.883   119046267.371 7  22653751.875    92763351.67445
  24342045.672   127918304.988 6  24342053.977    99676641.810 7
  24212450.242   127237195.653 7  24212454.965    99145925.967 6
  22213854.156   116734603.338 7  22213856.980    90962046.33645
  21366683.164   112282697.034 8  21366686.445    87493026.540 8
  23555216.531   123783479.761 7  23555221.199    96454685.65444
  25272440.031   132807546.392 6  25272445.031   103486412.12943
  20629511.078   108408826.512 8  20629513.355    84474432.05746
  22075678.648   116008354.433 7  22075684.859    90396235.767 7
  24073992.266   126509678.229 7  24073998.266    98579001.20044
 14 11 14 11 50  0.0000000  0 10G01G04G06G07G11G17G20G28G30G32
  21190919.789   111359045.381 8  21190926.039    86773321.680 8
  22829476.758   119969724.318 7  22829480.973    93482927.75045
  24129492.477   126801329.416 6  24129500.543    98806271.159 6
  24435757.664   128410673.654 6  24435763.168   100060322.341 6
  22385447.797   117636333.484 8  22385451.316    91664692.50345
  21298501.039   111924396.085 8  21298503.809    87213830.938 8
  23407968.117   123009685.107 7  23407972.578    95851728.86644
  20594727.836   108226037.493 8  20594729.691    84331998.81346
  22251586.484   116932753.487 7  22251591.188    91116546.120 7
  24024558.891   126249902.058 7  24024564.145    98376578.00344
 14 11 14 11 55  0.0000000  0 10G01G04G06G07G11G17G20G28G30G32
  21295424.641   111908218.998 8  21295430.816    87201248.805 8
  23011219.430   120924783.409 7  23011223.406    94227128.78244
  23919221.359   125696344.598 6  23919229.066    97945243.727 7
  24659096.375   129584318.056 7  24659100.973   100974848.244 4
  22562217.508   118565259.823 8  22562220.457    92388530.52945
  21234784.953   111589562.292 8  21234787.461    86952921.364 8
  23265363.172   122260290.384 7  23265368.434    95267785.03945
  20565808.586   108074065.581 8  20565810.320    84213578.83746
  22433240.750   117887355.326 7  22433248.590    91860390.966 7
  23984527.844   126039539.027 7  23984534.125    98212658.23643
 14 11 14 12  0  0.0000000  0  9G01G04G06G11G17G20G28G30G32
  21409039.773   112505269.934 7  21409045.914    87666482.874 8
  23198437.008   121908616.295 7  23198441.215    94993750.81144
  23711645.164   124605519.384 7  23711653.059    97095249.870 7
  22743687.633   119518891.931 7  22743691.941    93131619.58145
  21175476.336   111277896.915 8  21175479.160    86710065.051 8
  23127983.797   121538354.275 7  23127988.715    94705237.46145
  20543025.531   107954338.730 8  20543027.211    84120284.86746
  22620104.906   118869324.533 7  22620112.332    92625560.795 7
  23954204.133   125880182.569 7  23954209.234    98088484.00043
 14 11 14 12  5  0.0000000  0  9G01G04G06G11G17G20G28G30G32
  21531322.602   113147868.676 8  21531329.391    88167208.644 8
  23390597.234   122918418.411 7  23390601.813    95780608.56545
  23507171.344   123531003.825 7  23507178.309    96257964.921 7
  22929396.195   120494789.091 8  22929399.594    93892057.95745
  21120520.633   110989104.707 8  21120524.977    86485031.937 8
  22996403.719   120846898.187 7  22996408.684    94166440.57044
  20526644.898   107868257.618 8  20526647.945    84053208.34746
  22811629.930   119875789.976 7  22811637.270    93409818.611 7
  23933847.836   125773211.792 7  23933853.645    98005130.14443
 14 11 14 12 10  0.0000000  0  9G01G04G06G11G17G20G28G30G32
  21661810.289   113833583.021 8  21661817.270    88701530.975 8
  23587169.461   123951410.347 7  23587174.605    96585536.19644
  23306202.297   122474906.062 7  23306210.875    95435031.328 7
  23118884.648   121490553.928 7  23118887.855    94667977.65844
  21069861.719   110722883.987 8  21069864.770    86277587.001 8
  22871185.945   120188876.265 7  22871191.371    93653696.33745
  20516922.891   107817167.031 8  20516926.391    84013397.13146
  23007262.938   120903842.096 7  23007271.148    94210896.968 7
  23923677.313   125719764.499 6  23923683.230    97963482.68243
 14 11 14 12 15  0.0000000  0 10G01G04G06G11G17G20G24G28G30G32
  21800026.703   114559914.084 8  21800033.371    89267502.627 8
  23787636.313   125004863.045 6  23787641.398    97406406.99343
  23109133.008   121439302.133 7  23109141.117    94628067.038 7
  23311710.016   122503857.565 7  23311714.566    95457563.90344
  21023442.016   110478946.822 8  21023445.125    86087505.838 8
  22752879.805   119567173.976 7  22752883.492    93169253.12844
  25113222.180   131970870.434 6  25113228.910   102834472.112 6
  20514105.836   107802361.183 8  20514108.238    84001859.73346
  23206447.039   121950562.129 7  23206455.133    95026521.696 7
  23923866.344   125720749.669 6  23923870.652    97964249.99943
 14 11 14 12 20  0.0000000  0 10G01G04G06G11G17G20G24G28G30G32
  21945486.578   115324306.638 8  21945493.516    89863132.561 7
  23991486.883   126076101.758 7  23991492.605    98241137.15844
  22916350.438   120426219.050 7  22916356.977    93838651.545 7
  23507444.758   123532441.275 7  23507449.016    96259056.50645
  20981210.531   110257019.306 8  20981213.801    85914575.055 8
  22642015.320   118984580.260 7  22642018.684    92715284.23044
  24961353.297   131172790.745 6  24961359.504   102212591.459 7
  20518427.086   107825065.697 8  20518429.438    84019551.18046
  23408628.617   123013025.113 7  23408637.184    95854413.653 7
  23934537.031   125776828.648 6  23934544.063    98007947.27743
 14 11 14 12 25  0.0000000  0 10G01G04G06G11G17G20G24G28G30G32
  22097696.313   116124173.068 8  22097703.617    90486404.487 7
  24198226.680   127162521.415 7  24198233.184    99087696.41544
  22728228.836   119437633.205 7  22728237.043    93068325.060 7
  23705669.977   124574122.060 7  23705675.355    97070754.54344
  20943119.508   110056846.679 8  20943122.023    85758596.087 8
  22539104.586   118443780.158 7  22539109.109    92293881.82645
  24816428.773   130411202.954 6  24816434.445   101619146.014 7
  20530103.164   107886425.002 7  20530106.277    84067363.23746
  23613251.445   124088316.747 7  23613259.063    96692301.807 7
  23955773.609   125888422.172 6  23955778.543    98094903.38743
 14 11 14 12 30  0.0000000  0 10G01G04G06G11G17G20G24G28G30G32
  22256160.180   116956905.841 7  22256168.238    91135286.405 7
  24407373.555   128261590.183 6  24407380.867    99944111.47543
  22545132.313   118475457.417 7  22545139.898    92318577.668 7
  23905989.703   125626799.950 6  23905993.809    97891021.48042
  20909123.750   109878196.952 8  20909126.984    85619388.244 8
  22444632.266   117947325.336 7  22444636.969    91907034.12445
  24678886.570   129688411.507 7  24678892.988   101055931.100 6
  20549337.109   107987494.625 8  20549339.391    84146118.37046
  23819762.539   125173538.777 7  23819770.957    97537927.766 6
  23987604.070   126055696.054 7  23987609.855    98225246.55543
 14 11 14 12 35  0.0000000  0 10G01G04G06G11G17G20G24G28G30G32
  22420382.031   117819893.209 7  22420390.066    91807743.215 7
  24618461.922   129370855.671 7  24618468.723   100808471.96943
  22367412.547   117541533.998 7  22367421.148    91590845.012 7
  24108017.695   126688456.993 7  24108022.969    98718285.21143
  20879184.250   109720863.356 8  20879188.051    85496790.391 8
  22359056.578   117497622.021 7  22359060.801    91556615.76845
  24549147.500   129006622.803 6  24549151.039   100524666.235 5
  20576307.172   108129225.183 8  20576309.758    84256557.32446
  24027618.445   126265817.546 7  24027626.328    98389052.404 7
  24030014.492   126278566.645 6  24030020.941    98398911.27242
 14 11 14 12 40  0.0000000  0 10G01G04G06G11G17G20G24G28G30G32
  22589865.898   118710533.993 7  22589873.539    92501748.266 7
  24831040.273   130487953.618 6  24831048.262   101678935.84243
  22195405.414   116637625.888 7  22195413.824    90886500.994 8
  24311387.383   127757164.006 6  24311393.500    99551041.86443
  20853266.781   109584665.126 8  20853270.332    85390661.668 8
  22282804.313   117096912.483 7  22282809.723    91244374.52845
  24427609.211   128367930.721 7  24427614.059   100026983.404 6
  20611174.781   108312452.528 8  20611177.660    84399331.44646
  24236275.438   127362313.108 7  24236283.586    99243462.744 6
  24082944.773   126556706.058 7  24082950.180    98615642.45843
 14 11 14 12 45  0.0000000  0 10G01G04G06G11G17G20G24G28G30G32
  22764122.930   119626255.976 7  22764130.762    93215297.123 7
  25044677.352   131610618.799 5  25044685.492   102553738.90443
  22029428.828   115765414.981 7  22029437.180    90206856.221 8
  24515748.695   128831086.356 6  24515755.117   100387862.25443
  20831344.461   109469462.060 8  20831348.324    85300892.758 8
  22216267.367   116747259.583 7  22216271.371    90971917.82245
  24314646.188   127774303.228 7  24314652.559    99564415.707 7
  20654075.102   108537894.870 8  20654078.012    84575000.40446
  24445201.430   128460231.977 6  24445214.027   100098982.119 7
  24146282.438   126889548.538 7  24146288.555    98874999.71444
 14 11 14 12 50  0.0000000  0 10G01G02G06G11G17G20G24G28G30G32
  22942670.250   120564524.850 7  22942678.109    93946414.928 7
  25114921.180   131979807.372 6  25114925.887   102841418.52743
  21869786.289   114926489.997 8  21869793.680    89553148.470 8
  24720773.055   129908481.194 7  24720778.684   101227388.87243
  20813397.336   109375147.032 8  20813401.438    85227400.220 8
  22159801.313   116450527.111 7  22159805.855    90740697.38045
  24210606.688   127227565.215 7  24210612.465    99138385.212 7
  20705120.266   108806136.738 8  20705123.590    84784019.55446
  24653881.063   129556829.728 6  24653891.586   100953471.756 6
  24219878.570   127276292.435 7  24219884.965    99176357.45844
 14 11 14 12 55  0.0000000  0 10G01G02G06G11G17G20G24G28G30G32
  23125034.055   121522849.502 7  23125042.754    94693160.404 7
  24930724.781   131011848.792 6  24930729.824   102087165.28543
  21716761.008   114122335.313 8  21716768.375    88926534.491 8
  24926141.648   130987696.450 6  24926148.305   102068334.47943
  20799411.547   109301648.993 8  20799415.227    85170128.799 8
  22113720.297   116208368.350 7  22113724.500    90552002.16545
  24115804.383   126729377.251 7  24115809.746    98750186.065 6
  20764393.914   109117621.468 8  20764397.785    85026734.50546
  24861795.055   130649413.813 7  24861804.832   101804833.741 6
  24303535.789   127715910.197 7  24303543.461    99518915.43444
 14 11 14 13  0  0.0000000  0 10G01G02G06G11G17G20G24G28G30G32
  23310753.039   122498802.321 7  23310760.684    95453642.009 6
  24748420.836   130053835.238 6  24748425.816   101340660.75543
  21570614.547   113354333.198 8  21570622.809    88328091.458 8
  25131558.828   132067176.621 5  25131569.531   102909485.21042
  20789380.500   109248937.845 8  20789384.512    85129054.887 8
  22078295.680   116022211.474 8  22078299.930    90406944.63745
  24030525.031   126281232.616 6  24030532.938    98400981.715 7
  20831954.219   109472650.093 8  20831957.996    85303379.78146
  25068444.086   131735358.515 6  25068456.996   102651021.815 6
  24397019.219   128207165.386 7  24397026.719    99901710.77744
 14 11 14 13  5  0.0000000  0  8G01G02G06G17G20G24G28G32
  23499375.633   123490021.229 7  23499385.453    96226019.082 7
  24568258.109   129107066.116 6  24568261.484   100602918.47443
  21431589.734   112623751.712 8  21431597.520    87758807.434 8
  20783308.375   109217026.242 8  20783311.684    85104188.420 8
  22053755.750   115893250.330 8  22053760.441    90306455.24745
  23955018.070   125884435.122 7  23955025.270    98091787.956 7
  20907827.992   109871369.068 8  20907831.961    85614069.42446
  24500054.375   128748617.312 6  24500063.168   100323620.12043
 14 11 14 13 10  0.0000000  0  9G01G02G06G10G17G20G24G28G32
  23690469.430   124494215.987 7  23690478.621    97008507.033 7
  24390470.766   128172789.871 6  24390474.641    99874910.92343
  21299904.203   111931738.387 8  21299911.941    87219576.441 8
  25129559.680   132056729.033 6  25129569.953   102901386.81743
  20781204.203   109205967.246 8  20781208.336    85095570.844 8
  22040279.031   115822429.811 7  22040283.363    90251270.34945
  23889491.773   125540088.415 6  23889498.535    97823465.371 6
  20992014.688   110313771.101 8  20992018.445    85958797.80946
  24612333.242   129338640.286 6  24612341.188   100783377.35843
 14 11 14 13 15  0.0000000  0  9G01G02G06G10G17G20G24G28G32
  23883609.695   125509172.992 6  23883620.215    97799380.910 7
  24215288.297   127252198.647 6  24215292.422    99157567.61045
  21175751.367   111279312.366 8  21175758.691    86711192.559 8
  24912404.633   130915575.003 6  24912414.422   102012177.62343
  20783084.883   109215848.314 8  20783088.898    85103270.068 8
  22037996.742   115810438.063 7  22038001.477    90241925.92045
  23834114.789   125249083.783 6  23834122.875    97596707.637 6
  21084481.258   110799681.165 8  21084484.367    86337428.40446
  24733510.953   129975428.111 6  24733519.398   101279574.48643
 14 11 14 13 20  0.0000000  0  9G01G02G06G10G17G20G24G28G32
  24078395.609   126532771.108 7  24078406.668    98596987.858 6
  24042925.781   126346436.068 6  24042930.895    98451779.31044
  21059302.609   110667372.865 8  21059310.992    86234356.595 8
  24693543.359   129765466.156 5  24693553.316   101115990.65242
  20788976.656   109246808.822 8  20788980.898    85127394.787 8
  22046993.664   115857714.094 7  22046997.840    90278764.20145
  23789019.313   125012101.040 7  23789028.824    97412045.028 7
  21185165.094   111328773.628 8  21185167.973    86749707.41546
  24863216.078   130657028.450 7  24863224.234   101810690.39143
 14 11 14 13 25  0.0000000  0 10G01G02G06G10G12G17G20G24G28G32
  24274439.000   127562975.348 7  24274449.117    99399742.732 6
  23873593.266   125456583.742 6  23873597.070    97758387.95944
  20950704.664   110096683.565 8  20950712.250    85789663.548 8
  24473496.844   128609108.893 7  24473505.234   100214933.88944
  24905919.930   130881481.959 6  24905924.863   101985588.562 6
  20798913.047   109299023.919 8  20798917.379    85168081.471 8
  22067301.758   115964434.344 8  22067306.914    90361922.76345
  23754290.578   124829587.628 7  23754297.891    97269825.860 7
  21293971.609   111900557.080 8  21293975.438    87195252.16046
  25001050.078   131381346.618 6  25001058.379   102375093.17743
 14 11 14 13 30  0.0000000  0 10G01G02G06G10G12G17G20G24G28G32
  24471369.281   128597842.933 6  24471380.309   100206130.763 7
  23707482.469   124583663.814 7  23707486.520    97078190.55845
  20850075.648   109567874.449 8  20850083.047    85377604.429 8
  24252790.523   127449295.947 7  24252798.852    99311184.85143
  24703463.141   129817554.672 7  24703467.848   101156552.420 6
  20812935.172   109372709.678 8  20812939.695    85225498.557 8
  22098905.766   116130513.709 7  22098911.145    90491334.81345
  23729965.570   124701761.756 6  23729973.547    97170220.413 7
  21410779.094   112514380.763 8  21410783.527    87673555.60246
  25146590.477   132146161.946 6  25146600.297   102971051.36142
 14 11 14 13 35  0.0000000  0 10G01G02G06G10G12G17G20G24G28G32
  24668835.313   129635523.306 6  24668847.000   101014709.974 6
  23544773.445   123728633.586 6  23544779.145    96411933.60744
  20757509.320   109081435.555 8  20757517.145    84998561.081 8
  24031972.445   126288892.029 6  24031980.391    98406974.52443
  24502288.141   128760364.462 7  24502292.535   100332766.374 6
  20831090.023   109468114.398 7  20831095.066    85299839.583 8
  22141741.148   116355609.691 8  22141745.973    90666733.49445
  23716043.125   124628602.706 6  23716052.027    97113212.506 6
  21535431.289   113169430.959 8  21535435.828    88183983.61346
  25299394.563   132949147.340 6  25299404.773   103596752.44642
 14 11 14 13 40  0.0000000  0  9G01G02G06G10G12G17G20G24G28
  24866503.664   130674265.809 6  24866517.043   101824116.791 6
  23385642.766   122892384.594 7  23385646.543    95760311.13245
  20673073.633   108637723.497 8  20673082.191    84652811.510 8
  23811601.234   125130841.243 6  23811610.703    97504598.45643
  24302817.953   127712140.619 6  24302824.250    99515967.603 7
  20853432.945   109585522.604 8  20853437.105    85391326.142 8
  22195694.734   116639131.615 8  22195699.594    90887658.73745
  23712475.891   124609852.527 6  23712483.719    97098601.299 6
  21667745.438   113864740.934 8  21667749.969    88725782.84946
 14 11 14 13 45  0.0000000  0  9G01G02G06G10G12G17G20G24G28
  25064060.750   131712419.920 6  25064074.117   102633065.062 6
  23230240.367   122075747.908 7  23230244.770    95123971.21144
  20596810.688   108236959.607 8  20596818.633    84340528.033 8
  23592251.883   123978151.437 7  23592260.215    96606399.41444
  24105494.922   126675198.524 6  24105501.027    98707959.961 6
  20880023.070   109725253.297 8  20880027.184    85500206.846 8
  22260606.672   116980246.513 8  22260611.793    91153461.88945
  23719168.852   124645020.700 6  23719177.465    97126004.436 6
  21807507.781   114599194.691 8  21807513.340    89298083.63645
 14 11 14 13 50  0.0000000  0  9G01G02G06G10G12G17G20G24G28
  25261207.500   132748432.363 5  25261222.480   103440345.291 6
  23078716.359   121279479.472 8  23078719.129    94503502.66445
  20528736.813   107879226.163 8  20528744.078    84061774.557 8
  23374505.094   122833890.426 7  23374512.668    95714768.14844
  23910773.047   125651925.472 7  23910778.652    97910603.988 6
  20910925.758   109887648.211 8  20910930.512    85626747.876 8
  22336275.305   117377886.576 7  22336280.191    91463310.76445
  23735983.656   124733376.707 7  23735993.672    97194852.571 7
  21954477.992   115371527.472 7  21954484.027    89899900.50945
 14 11 14 13 55  0.0000000  0  8G02G06G10G12G17G20G24G28
  22931197.125   120504272.430 7  22931201.813    93899445.36844
  20468842.398   107564477.941 8  20468849.914    83816516.133 8
  23158957.313   121701180.702 7  23158965.801    94832138.37445
  23719120.719   124644785.953 7  23719127.398    97125819.879 7
  20946212.109   110073076.164 8  20946216.672    85771236.619 8
  22422455.320   117830761.500 7  22422461.055    91816199.48745
  23762737.828   124873963.868 7  23762746.977    97304400.486 7
  22108390.305   116180338.112 7  22108395.742    90530141.55145
 14 11 14 14  0  0.0000000  0  8G02G06G10G12G17G20G24G28
  22787808.313   119750750.327 8  22787812.195    93312285.65345
  20417093.969   107292538.538 8  20417100.906    83604615.186 8
  22946208.227   120583184.397 7  22946215.320    93960973.22844
  23531017.641   123656300.597 7  23531022.250    96355571.503 6
  20985955.211   110281924.510 8  20985960.434    85933975.094 8
  22518861.477   118337376.220 7  22518866.344    92210963.52044
  23799205.539   125065601.531 7  23799215.898    97453727.926 7
  22268952.430   117024090.715 7  22268958.305    91187610.01145
 14 11 14 14  5  0.0000000  0  8G02G06G10G12G17G20G24G28
  22648648.484   119019470.151 7  22648653.266    92742457.45945
  20373435.109   107063110.867 8  20373442.898    83425840.324 8
  22736868.797   119483101.943 7  22736876.367    93103767.43545
  23346957.125   122689049.957 7  23346963.281    95601869.740 7
  21030231.430   110514596.924 8  21030236.074    86115278.011 8
  22625172.539   118896045.426 7  22625177.859    92646289.71344
  23845121.109   125306896.497 6  23845130.375    97641749.257 6
  22435847.641   117901129.153 7  22435853.344    91871015.40044
 14 11 14 14 10  0.0000000  0  8G02G06G10G12G17G20G24G28
  22513815.008   118310910.900 8  22513819.359    92190333.34546
  20337785.328   106875771.254 8  20337793.691    83279861.418 8
  22531549.984   118404145.189 7  22531556.023    92263022.43545
  23167433.430   121745650.278 7  23167439.770    94866753.213 7
  21079117.914   110771497.354 8  21079122.938    86315459.926 8
  22741034.766   119504899.911 7  22741040.797    93120721.07845
  23900184.461   125596243.766 7  23900194.508    97867214.049 7
  22608738.695   118809672.028 7  22608746.434    92578969.51745
 14 11 14 14 15  0.0000000  0  8G02G06G10G12G17G20G24G28
  22383386.438   117625499.084 8  22383389.945    91656246.20646
  20310045.195   106729994.546 8  20310053.090    83166268.940 8
  22330866.977   117349547.661 7  22330873.855    91441258.21845
  22992954.508   120828760.271 7  22992961.063    94152293.608 7
  21132694.680   111053044.953 8  21132699.688    86534847.401 8
  22866062.031   120161920.482 7  22866068.660    93632684.09545
  23964049.555   125931854.548 6  23964059.461    98128727.992 7
  22787268.133   119747842.112 7  22787274.645    93310009.48944
 14 11 14 14 20  0.0000000  0  8G02G06G10G12G17G20G24G28
  22257426.953   116963585.278 7  22257431.555    91140469.43746
  20290093.500   106625144.651 8  20290100.648    83084567.772 8
  22135431.039   116322531.805 7  22135438.754    90640986.65145
  22824029.945   119941050.980 7  22824035.758    93460572.124 7
  21191040.000   111359648.019 8  21191044.773    86773758.482 8
  22999844.281   120864942.443 7  22999850.918    94180492.14544
  24036342.648   126311754.939 7  24036352.980    98424753.506 7
  22971057.383   120713655.858 7  22971066.156    94062589.77244
 14 11 14 14 25  0.0000000  0  8G02G06G10G12G17G20G24G28
  22135996.922   116325465.319 7  22136000.703    90643233.39846
  20277790.961   106560496.360 8  20277798.207    83034192.459 8
  21945855.742   115326307.120 8  21945862.168    89864707.96045
  22661167.586   119085209.271 7  22661173.777    92793682.472 7
  21254231.125   111691717.684 8  21254236.715    87032513.469 8
  23141945.633   121611687.224 7  23141952.445    94762369.35943
  24116658.656   126733812.712 7  24116668.281    98753628.460 6
  23159716.336   121705051.392 7  23159722.727    94835103.70644
 14 11 14 14 30  0.0000000  0  8G02G06G10G12G17G20G24G28
  22019137.836   115711364.663 8  22019141.539    90164713.58046
  20272982.672   106535227.786 8  20272990.629    83014502.099 8
  21762743.367   114364041.708 8  21762750.441    89114890.77046
  22504880.453   118263908.165 7  22504886.602    92153707.501 7
  21322342.156   112049640.453 8  21322347.621    87311413.611 8
  23291913.727   122399764.710 7  23291920.695    95376454.13144
  24204560.273   127195735.220 6  24204570.484    99113566.914 7
  23352832.797   122719877.222 7  23352840.844    95625874.76144
 14 11 14 14 35  0.0000000  0  9G02G06G10G12G17G20G23G24G28
  21906880.750   115121451.405 7  21906884.324    89705040.88946
  20275498.563   106548443.759 8  20275506.352    83024799.835 8
  21586685.258   113438853.955 7  21586692.965    88393965.49346
  22355667.219   117479795.279 7  22355674.707    91542710.482 7
  21395443.453   112433788.229 8  21395449.527    87610748.766 7
  23449275.016   123226699.261 7  23449283.023    96020817.22945
  25474669.891   133870281.869 6  25474678.352   104314550.30243
  24299586.094   127695098.512 6  24299597.188    99502679.918 6
  23549986.328   123755919.207 7  23549996.164    96433178.01844
 14 11 14 14 40  0.0000000  0 10G02G06G09G10G12G17G20G23G24G28
  21799250.273   114555847.382 7  21799253.262    89264310.35546
  20285154.273   106599185.665 8  20285162.094    83064338.773 8
  25177336.328   132307798.457 6  25177348.656   103097012.835 6
  21418265.047   112553800.157 7  21418271.629    87704313.51546
  22214031.797   116735489.043 8  22214037.973    90962731.582 7
  21473602.078   112844511.888 8  21473607.770    87930792.530 7
  23613548.656   124089956.826 7  23613556.992    96693484.08244
  25380723.633   133376591.159 6  25380733.039   103929855.94843
  24401254.586   128229362.190 6  24401266.117    99918988.058 7
  23750746.125   124810909.561 6  23750755.145    97255246.45943
 14 11 14 14 45  0.0000000  0 11G02G05G06G09G10G12G17G20G23G24G28
  21696256.977   114014613.847 8  21696259.973    88842569.92346
  25113460.992   131972129.584 7  25113472.387   102835532.046 6
  20301756.242   106686429.616 8  20301765.105    83132320.635 8
  25039953.867   131585842.220 6  25039965.785   102534448.167 6
  21258045.359   111711840.824 8  21258051.203    87048241.77946
  22080454.883   116033541.475 8  22080460.988    90415759.486 7
  21556877.656   113282125.331 8  21556883.660    88271789.368 7
  23784240.313   124986946.212 6  23784249.785    97392435.35743
  25292404.453   132912470.668 7  25292413.930   103568203.40143
  24509060.563   128795880.277 6  24509072.512   100360429.441 7
  23954668.406   125882523.349 6  23954677.734    98090268.27643
 14 11 14 14 50  0.0000000  0 11G02G05G06G09G10G12G17G20G23G24G28
  21597902.883   113497761.630 8  21597906.563    88439828.01846
  24892004.930   130808371.164 7  24892015.973   101928708.429 5
  20325100.180   106809099.954 8  20325108.527    83227907.508 8
  24905182.000   130877604.413 6  24905196.961   101982571.283 6
  21106568.063   110915827.072 8  21106574.457    86427972.17346
  21955409.719   115376426.384 8  21955416.297    89903721.810 7
  21645322.195   113746901.707 8  21645328.074    88633952.029 7
  23960851.875   125915034.997 7  23960860.113    98115620.07843
  25210160.656   132480278.050 7  25210170.340   103231430.03643
  24622483.523   129391912.471 6  24622494.766   100824868.658 6
  24161304.688   126968395.610 6  24161313.621    98936400.75043
 14 11 14 14 55  0.0000000  0 12G02G05G06G09G10G12G17G20G23G24G25G28
  21504182.766   113005257.694 8  21504186.113    88056058.69246
  24670663.953   129645222.899 6  24670675.012   101022360.645 6
  20354973.531   106966084.256 8  20354982.137    83350232.642 8
  24773593.461   130186105.400 6  24773607.957   101443741.779 6
  20964352.453   110168477.918 8  20964358.551    85845622.14546
  21839349.680   114766523.661 8  21839355.910    89428472.898 7
  21738979.953   114239073.766 8  21738986.422    89017461.766 7
  24142877.227   126871579.386 7  24142886.176    98860977.73544
  25134422.703   132082272.534 7  25134431.879   102921295.14942
  24740986.719   130014650.643 6  24740998.367   101310117.868 6
  24992824.680   131338181.189 5  24992835.352   102341480.547 6
  24370198.867   128066131.086 6  24370209.512    99791776.51743
 14 11 14 15  0  0.0000000  0 12G02G05G06G09G10G12G17G20G23G24G25G28
  21415081.977   112537033.255 8  21415085.918    87691208.62646
  24449901.555   128485117.957 7  24449911.125   100118385.012 6
  20391159.461   107156241.796 8  20391167.645    83498407.078 8
  24645759.469   129514339.184 6  24645773.832   100920288.458 6
  20831888.945   109472376.155 8  20831895.164    85303204.95546
  21732705.203   114206101.415 8  21732711.641    88991780.257 7
  21837886.547   114758826.023 8  21837893.875    89422462.405 8
  24329812.719   127853929.719 6  24329822.797    99626443.87543
  25065599.836   131720605.665 6  25065609.563   102639477.06943
  24864027.719   130661230.047 6  24864039.914   101813944.849 6
  24800951.352   130329874.762 6  24800962.137   101555786.278 6
  24580891.438   129173319.337 6  24580902.578   100654517.91243
 14 11 14 15  5  0.0000000  0 11G02G05G06G09G10G12G17G20G23G24G25
  21330580.859   112092976.625 8  21330584.199    87345190.63246
  24230186.883   127330512.714 7  24230196.078    99218693.750 6
  20433436.047   107378407.448 8  20433444.680    83671522.954 8
  24522249.195   128865279.033 6  24522262.996   100414525.576 6
  20709634.281   108829925.826 8  20709640.145    84802594.67946
  21635881.031   113697287.394 8  21635887.371    88595301.832 7
  21942065.969   115306286.213 8  21942072.895    89849053.649 7
  24521157.180   128859442.436 7  24521167.328   100409958.39043
  25004075.414   131397297.924 7  25004084.891   102387550.20043
  24991050.453   131328740.565 6  24991063.648   102334081.937 6
  24613373.547   129344145.895 6  24613383.809   100787685.460 5
 14 11 14 15 10  0.0000000  0 11G02G05G06G09G10G12G17G20G23G24G25
  21250652.805   111672951.067 7  21250656.277    87017898.12246
  24011990.570   126183888.237 6  24012001.379    98325220.611 6
  20481581.695   107631409.042 8  20481589.773    83868666.818 8
  24403621.070   128241883.288 6  24403633.945    99928763.831 6
  20598012.313   108243347.600 8  20598018.543    84345520.89046
  21549253.109   113242059.436 7  21549258.164    88240578.971 7
  22051530.828   115881526.074 8  22051537.961    90297291.567 7
  24716411.242   129885498.889 6  24716421.352   101209481.09643
  24950208.344   131114235.517 6  24950217.473   102166984.45043
  25121498.883   132014246.459 6  25121512.422   102868241.394 6
  24430609.594   128383713.171 6  24430621.141   100039296.025 6
 14 11 14 15 15  0.0000000  0 11G02G05G06G09G10G12G17G20G23G24G25
  21175265.391   111276790.206 8  21175269.250    86709201.40246
  23795787.711   125047741.098 7  23795797.684    97439912.700 6
  20535369.539   107914069.397 8  20535378.359    84088921.445 8
  24290424.273   127647043.471 6  24290438.203    99465254.251 6
  20497405.313   107714654.098 8  20497411.070    83933552.23147
  21473166.492   112842221.057 8  21473173.457    87929016.674 7
  22166283.492   116484551.990 8  22166290.344    90767181.011 7
  24915081.773   130929514.098 6  24915092.645   102022997.82542
  24904330.148   130873142.570 6  24904339.262   101979119.14243
  25254810.531   132714796.219 6  25254823.840   103414123.403 6
  24253177.281   127451300.834 6  24253188.727    99312741.118 6
 14 11 14 15 20  0.0000000  0  9G02G05G06G09G10G12G17G23G25
  21104384.898   110904309.597 8  21104388.402    86418956.99246
  23582053.813   123924567.788 7  23582063.469    96564714.211 7
  20594579.328   108225218.219 8  20594587.859    84331374.898 8
  24183201.297   127083588.125 6  24183215.371    99026199.196 7
  20408153.195   107245633.963 8  20408159.227    83568082.36946
  21407927.086   112499385.062 8  21407932.879    87661871.765 7
  22286311.961   117115302.118 7  22286319.500    91258673.622 7
  24866738.422   130675601.587 6  24866748.941   101825192.22343
  24081594.844   126549629.322 6  24081605.914    98610140.204 6
 14 11 14 15 25  0.0000000  0  9G02G05G06G09G10G12G17G23G25
  21037970.055   110555298.544 8  21037973.512    86147000.59946
  23371262.656   122816856.132 7  23371271.191    95701562.917 6
  20658989.141   108563690.349 8  20658998.043    84595119.116 8
  24082473.805   126554265.290 6  24082485.367    98613742.012 7
  20330550.406   106837829.442 8  20330556.266    83250312.91346
  21353801.102   112214948.762 8  21353806.582    87440233.229 7
  22411590.125   117773636.345 7  22411597.074    91771660.260 7
  24837700.102   130523003.315 6  24837707.785   101706286.33743
  23916373.859   125681389.591 7  23916385.379    97933590.000 7
 14 11 14 15 30  0.0000000  0  9G02G05G06G09G10G12G17G23G25
  20975980.469   110229541.606 8  20975983.363    85893164.09746
  23163887.406   121727091.352 7  23163897.012    94852396.035 7
  20728380.891   108928346.286 8  20728389.523    84879266.283 8
  23988744.109   126061725.967 6  23988756.863    98229948.061 7
  20264842.242   106492531.440 8  20264848.348    82981249.70646
  21311011.305   111990091.476 8  21311016.914    87265019.826 7
  22542076.250   118459344.543 7  22542084.047    92305977.211 7
  24817445.039   130416560.831 6  24817452.820   101623343.88043
  23758021.477   124849243.554 6  23758032.359    97285164.889 6
 14 11 14 15 35  0.0000000  0  9G02G05G06G09G10G12G17G23G25
  20918374.125   109926817.192 8  20918377.219    85657275.11446
  22960395.469   120657740.147 7  22960401.406    94019136.478 6
  20802543.609   109318072.941 8  20802552.512    85182949.036 8
  23902497.750   125608502.099 7  23902509.410    97876786.730 7
  20211224.422   106210768.402 8  20211230.414    82761694.27946
  21279739.359   111825754.236 8  21279745.973    87136964.740 8
  22677717.328   119172139.795 7  22677726.309    92861400.936 7
  24806168.180   130357304.951 6  24806177.473   101577169.99444
  23607033.102   124055798.201 6  23607044.676    96666896.130 6
 14 11 14 15 40  0.0000000  0 10G02G05G06G09G10G12G13G17G23G25
  20865107.039   109646898.300 8  20865110.438    85439156.47046
  22761250.281   119611231.638 7  22761258.645    93203675.968 7
  20881270.625   109731786.110 8  20881279.227    85505322.647 8
  23824193.203   125197003.926 7  23824205.461    97556138.511 7
  20169839.539   105993290.720 8  20169845.129    82592231.34446
  21260115.078   111722627.622 8  21260121.316    87056606.351 8
  25280376.914   132849266.964 6  25280389.023   103518965.74142
  22818443.836   119911650.664 7  22818453.285    93437641.885 7
  24804030.648   130346068.223 6  24804038.270   101568414.52143
  23463892.500   123303588.669 7  23463903.488    96080759.276 7
 14 11 14 15 45  0.0000000  0 10G02G05G06G09G10G12G13G17G23G25
  20816137.281   109389560.459 8  20816139.777    85238633.48046
  22566908.617   118589961.834 7  22566917.930    92407882.399 7
  20964362.563   110168436.026 8  20964371.840    85845568.998 8
  23754257.281   124829493.067 7  23754269.156    97269767.488 7
  20140776.086   105840562.661 8  20140782.090    82473222.58346
  21252220.539   111681141.222 8  21252226.051    87024279.072 7
  25109766.602   131952701.902 6  25109779.336   102820343.00842
  22964164.953   120677423.815 7  22964175.469    94034346.758 7
  24811149.555   130383471.309 6  24811157.582   101597558.60743
  23329063.164   122595059.664 6  23329073.695    95528659.260 6
 14 11 14 15 50  0.0000000  0 10G02G05G06G09G10G12G13G17G23G25
  20771423.281   109154587.381 8  20771426.809    85055537.67647
  22377815.609   117596272.846 7  22377822.555    91633580.130 7
  21051627.516   110627014.297 8  21051636.863    86202902.201 8
  23693090.586   124508064.608 7  23693102.141    97019305.224 7
  20124069.578   105752768.086 8  20124075.633    82404811.24247
  21256087.258   111701460.388 8  21256093.336    87040112.005 7
  24938472.766   131052544.642 6  24938486.613   102118920.71743
  23114784.789   121468921.963 7  23114794.137    94651097.057 7
  24827602.852   130469941.282 6  24827612.770   101664937.75743
  23202991.250   121932549.414 7  23203002.004    95012417.893 7
 14 11 14 15 55  0.0000000  0 10G02G05G06G09G10G12G13G17G23G25
  20730927.297   108941777.394 8  20730930.180    84889711.81447
  22194406.742   116632454.681 8  22194414.730    90882553.981 7
  21142883.023   111106561.375 8  21142891.957    86576574.802 8
  23641059.688   124234639.361 7  23641070.422    96806246.799 7
  20119701.305   105729810.569 8  20119706.699    82386922.20946
  21271696.016   111783484.656 8  21271702.250    87104026.888 7
  24767054.188   130151739.526 6  24767067.520   101416996.14443
  23270179.914   122285528.381 7  23270190.172    95287412.074 6
  24853434.875   130605692.887 7  24853444.578   101770718.08943
  23086098.727   121318276.093 7  23086109.508    94533763.809 7
 14 11 14 16  0  0.0000000  0 10G02G05G06G09G10G12G13G17G23G25
  20694612.180   108750943.553 8  20694614.805    84741010.09046
  22017103.180   115700721.932 8  22017110.598    90156529.222 7
  21237953.977   111606161.471 8  21237963.797    86965873.161 8
  23598492.125   124010951.765 7  23598503.055    96631945.488 7
  20127598.516   105771311.685 8  20127604.332    82419260.67846
  21298976.500   111926842.035 8  21298982.734    87215733.675 7
  24596081.352   129253288.821 7  24596093.848   100716909.05343
  23430221.180   123126540.993 7  23430229.902    95942744.959 6
  24888649.570   130790732.058 7  24888657.949   101914903.56843
  22978779.102   120754310.880 7  22978790.238    94094310.780 7
 14 11 14 16  5  0.0000000  0 10G02G05G06G09G10G12G13G17G23G25
  20662447.742   108581917.700 8  20662450.691    84609301.40247
  21846311.359   114803212.800 8  21846318.262    89457172.522 7
  21336676.313   112124948.471 8  21336685.391    87370122.332 8
  23565680.625   123838528.314 7  23565691.906    96497590.076 7
  20147637.734   105876619.450 8  20147643.285    82501318.50046
  21337805.641   112130891.123 8  21337812.215    87374732.630 7
  24426138.906   128360242.982 6  24426150.109   100021031.71043
  23594756.750   123991173.004 7  23594766.262    96616482.451 6
  24933202.055   131024860.155 6  24933211.598   102097340.11743
  22881396.617   120242564.091 6  22881407.781    93695547.326 7
 14 11 14 16 10  0.0000000  0 10G02G05G06G09G10G12G13G17G23G25
  20634406.164   108434555.130 8  20634408.883    84494473.34647
  21682421.883   113941967.637 8  21682428.684    88786073.257 7
  21438893.391   112662104.732 8  21438902.914    87788685.133 8
  23542874.125   123718679.246 7  23542885.621    96404200.955 7
  20179644.656   106044816.246 8  20179650.996    82632380.75946
  21388012.422   112394724.082 8  21388018.273    87580316.280 7
  24257815.281   127475710.383 6  24257827.188    99331787.41743
  23763620.563   124878555.661 7  23763631.875    97307948.038 7
  24987019.906   131307672.222 7  24987028.914   102317712.29343
  22794280.367   119784764.414 7  22794289.750    93338820.563 7
 14 11 14 16 15  0.0000000  0 10G02G05G06G09G10G12G13G17G23G25
  20610462.805   108308733.637 8  20610466.602    84396430.63047
  21525801.195   113118922.781 8  21525808.141    88144740.099 8
  21544461.883   113216862.827 8  21544471.188    88220963.609 8
  23530279.305   123652491.097 7  23530290.469    96352625.512 7
  20223396.047   106274730.194 8  20223402.105    82811534.26446
  21449372.211   112717174.421 7  21449378.410    87831575.725 7
  24091712.930   126602829.953 7  24091723.434    98651620.66343
  23936633.047   125787736.224 7  23936644.375    98016398.761 6
  25049986.180   131638561.251 7  25049996.762   102575547.05343
  22717721.469   119382443.507 7  22717733.270    93025323.813 7
 14 11 14 16 20  0.0000000  0 11G02G05G06G09G10G12G13G17G23G25G29
  20590602.117   108204364.948 8  20590605.813    84315104.23547
  21376797.703   112335907.032 8  21376804.645    87534598.671 8
  21653243.414   113788510.832 8  21653252.824    88666403.061 8
  23528058.484   123640820.518 6  23528070.086    96343531.220 7
  20278625.039   106564959.221 8  20278631.180    83037686.41746
  21521619.672   113096831.585 8  21521625.953    88127411.941 7
  23928431.242   125744782.425 6  23928441.492    97983012.64543
  24113598.180   126717687.592 6  24113609.711    98741034.241 6
  25121949.914   132016730.582 7  25121960.801   102870223.84143
  22651971.344   119036925.560 7  22651980.707    92756088.995 6
  24971831.125   131227850.098 6  24971843.703   102255486.958 6
 14 11 14 16 25  0.0000000  0 11G02G05G06G09G10G12G13G17G23G25G29
  20574812.953   108121390.384 8  20574815.613    84250448.69847
  21235734.820   111594620.775 8  21235741.109    86956973.566 7
  21765112.430   114376386.423 8  21765122.492    89124487.405 8
  23536330.758   123684283.710 7  23536341.672    96377397.891 7
  20345021.852   106913876.534 8  20345028.316    83309569.85046
  21604438.148   113532046.539 8  21604444.797    88466539.855 7
  23768577.641   124904759.605 6  23768588.258    97328452.06443
  24294306.383   127667303.382 6  24294317.840    99480992.202 6
  25202723.594   132441195.729 6  25202734.641   103200975.55443
  22597239.945   118749308.202 7  22597250.961    92531971.500 7
  24779639.523   130217876.658 6  24779652.184   101468494.894 6
 14 11 14 16 30  0.0000000  0 11G02G05G06G09G10G12G13G17G23G25G29
  20563090.148   108059784.841 8  20563093.273    84202444.25447
  21102911.625   110896630.505 8  21102917.250    86413085.532 8
  21879953.461   114979877.729 8  21879963.602    89594739.587 8
  23555164.602   123783258.114 7  23555175.563    96454520.720 7
  20422239.992   107319657.639 8  20422246.316    83625762.74247
  21697474.188   114020947.296 8  21697480.277    88847500.879 7
  23612762.875   124085951.536 7  23612771.051    96690422.04443
  24478532.461   128635406.969 7  24478544.148   100235356.414 6
  25292084.883   132910793.202 5  25292095.785   103566895.22942
  22553689.805   118520451.457 7  22553700.082    92353641.681 7
  24587231.836   129206765.488 6  24587243.590   100680616.630 6
 14 11 14 16 35  0.0000000  0 11G02G05G06G09G10G12G13G17G23G25G29
  20555435.359   108019559.266 8  20555438.387    84171099.50547
  20978598.313   110243362.213 8  20978604.371    85904045.655 8
  21997659.617   115598424.066 7  21997669.008    90076722.837 7
  23584587.125   123937875.258 7  23584598.840    96575001.483 7
  20509896.859   107780295.799 8  20509902.871    83984701.03946
  21800329.969   114561456.005 8  21800336.840    89268675.711 7
  23461589.820   123291540.161 6  23461599.059    96071400.84743
  24666037.969   129620754.814 6  24666051.027   101003158.736 6
  25389783.461   133424193.052 6  25389793.672   103966946.24343
  22521438.906   118350968.640 7  22521449.734    92221577.012 7
  24394899.055   128196053.298 7  24394908.883    99893049.672 6
 14 11 14 16 40  0.0000000  0 10G02G05G06G09G10G12G13G17G25G29
  20551857.391   108000759.148 7  20551860.977    84156449.94747
  20863037.984   109636087.444 7  20863043.949    85430844.888 8
  22118132.563   116231512.302 7  22118142.734    90570037.667 7
  23624578.266   124148024.761 7  23624589.094    96738753.907 7
  20607581.344   108293629.992 8  20607587.457    84384701.30546
  21912574.664   115151302.808 8  21912581.109    89728295.834 7
  23315663.148   122524689.882 7  23315671.957    95473855.66244
  24856575.008   130622029.212 6  24856589.129   101783370.460 5
  22500553.766   118241217.762 7  22500565.313    92136056.672 7
  24202950.109   127187371.232 6  24202963.684    99107064.522 6
 14 11 14 16 45  0.0000000  0 10G02G05G06G09G10G12G13G17G25G29
  20552371.922   108003459.730 8  20552375.199    84158554.04446
  20756438.805   109075910.690 8  20756445.590    84994343.881 8
  22241282.352   116878666.088 7  22241293.520    91074312.415 7
  23675068.438   124413349.580 7  23675079.676    96945500.004 7
  20714854.336   108857353.279 8  20714860.836    84823965.78046
  22033741.945   115788037.206 8  22033748.234    90224451.627 7
  23175573.195   121788515.914 7  23175581.215    94900215.30144
  25049883.633   131637848.415 7  25049896.844   102574913.871 5
  22491052.250   118191288.273 7  22491063.391    92097150.403 7
  24011719.188   126182439.792 7  24011729.770    98324002.509 7
 14 11 14 16 50  0.0000000  0  9G02G05G06G09G10G12G13G25G29
  20557001.445   108027783.998 8  20557004.316    84177507.92847
  20658984.977   108563784.487 8  20658991.738    84595284.726 8
  22367029.398   117539465.790 7  22367040.359    91589220.263 7
  23735947.016   124733270.705 7  23735958.836    97194788.736 7
  20831257.719   109469054.646 8  20831263.902    85300615.71746
  22163337.844   116469066.155 8  22163344.207    90755122.460 7
  23041905.234   121086082.758 8  23041911.773    94352865.14444
  22492904.148   118201018.463 7  22492916.281    92104732.016 7
  23821546.234   125183081.602 7  23821556.504    97545283.074 6
 14 11 14 16 55  0.0000000  0  9G02G05G06G09G10G12G13G25G29
  20565772.039   108073878.642 8  20565775.637    84213425.67547
  20570819.852   108100474.155 8  20570826.066    84234263.873 8
  22495298.039   118213518.429 7  22495308.773    92114455.188 7
  23807059.711   125106966.687 7  23807071.918    97485979.514 7
  20956312.172   110126218.576 8  20956319.203    85812690.95246
  22300841.234   117191646.858 7  22300848.887    91318171.294 7
  22915224.266   120420376.724 7  22915231.445    93834133.44244
  22506025.141   118269969.513 7  22506037.344    92158459.725 7
  23632796.070   124191196.805 7  23632807.074    96772386.795 7
 14 11 14 17  0  0.0000000  0 10G02G05G06G09G10G12G13G25G26G29
  20578722.695   108141935.083 8  20578726.305    84266456.40746
  20492058.266   107686582.552 8  20492064.570    83911751.092 8
  22626023.047   118900479.077 7  22626034.988    92649748.331 7
  23888210.531   125533411.444 6  23888222.820    97818273.342 7
  21089527.703   110826269.209 8  21089534.465    86358184.37746
  22445710.250   117952930.735 8  22445717.695    91911378.290 7
  22796085.195   119794302.709 7  22796093.285    93346285.16344
  22530285.039   118397451.627 7  22530296.578    92257795.995 7
  25221739.805   132541131.247 6  25221755.367   103278861.60643
  23445848.234   123208787.425 7  23445859.332    96006874.476 6
 14 11 14 17  5  0.0000000  0 10G02G05G06G09G10G12G13G25G26G29
  20595894.938   108232174.009 8  20595898.602    84336772.20447
  20422781.258   107322530.338 8  20422787.598    83628074.236 8
  22759143.883   119600031.320 7  22759155.469    93194853.153 7
  23979161.484   126011362.723 6  23979174.074    98190701.680 7
  21230403.805   111566574.488 8  21230410.730    86935045.01146
  22597380.555   118749962.998 8  22597389.012    92532441.194 7
  22685017.641   119210642.773 7  22685026.020    92891486.25645
  22565501.500   118582512.160 7  22565510.938    92401998.546 7
  25002464.500   131388843.837 5  25002481.305   102380976.62842
  23261099.633   122237930.939 7  23261109.543    95250364.022 6
 14 11 14 17 10  0.0000000  0 10G02G05G06G09G10G12G13G25G26G29
  20617336.422   108344846.555 8  20617339.648    84424568.78847
  20363034.367   107008557.783 8  20363040.906    83383420.404 8
  22894606.625   120311888.138 7  22894618.270    93749545.902 7
  24079642.344   126539385.366 6  24079654.230    98602146.998 6
  21378433.391   112344472.740 8  21378440.430    87541198.83746
  22755277.695   119579710.669 8  22755286.910    93178996.605 7
  22582527.688   118672055.350 7  22582535.859    92471807.91545
  22611445.148   118823948.910 7  22611456.621    92590130.505 7
  24781185.195   130226000.951 6  24781200.523   101474863.74843
  23078960.047   121280786.410 7  23078969.887    94504538.366 7
 14 11 14 17 15  0.0000000  0 10G02G05G06G09G10G12G13G25G26G29
  20643098.023   108480225.640 8  20643101.578    84530058.96347
  20312828.266   106744722.064 8  20312833.844    83177834.310 8
  23032359.852   121035782.277 7  23032372.297    94313618.094 7
  24189341.344   127115852.824 7  24189353.285    99051341.469 6
  21533106.086   113157282.524 8  21533113.988    88174556.57146
  22918807.891   120439066.697 7  22918818.453    93848623.382 7
  22489092.078   118181049.939 7  22489099.594    92089207.39445
  22667842.516   119120312.410 7  22667854.320    92821062.399 7
  24558437.883   129055470.197 6  24558452.371   100562765.07643
  22899853.063   120339578.586 7  22899863.309    93771130.830 7
 14 11 14 17 20  0.0000000  0 10G02G05G06G09G10G12G13G25G26G29
  20673240.086   108638621.545 8  20673243.797    84653484.29247
  20272141.820   106530915.859 8  20272148.262    83011232.223 8
  23172359.766   121771480.550 7  23172371.766    94886888.266 7
  24307919.711   127738983.566 7  24307932.711    99536896.915 6
  21693915.289   114002335.788 8  21693923.207    88833038.79746
  23087377.242   121324892.843 7  23087386.406    94538876.031 6
  22405157.258   117739974.106 7  22405165.813    91745512.69545
  22734373.820   119469935.555 7  22734386.027    93093495.304 7
  24334790.281   127880201.497 6  24334804.027    99646973.45344
  22724218.914   119416613.022 7  22724227.063    93051937.958 7
 14 11 14 17 25  0.0000000  0 10G02G05G06G09G10G12G13G25G26G29
  20707822.906   108820356.946 8  20707827.082    84795095.95546
  20240921.508   106366850.787 8  20240927.430    82883389.448 8
  23314562.359   122518758.223 7  23314575.398    95469181.450 7
  24435007.625   128406833.936 6  24435021.309   100057298.924 7
  21860354.781   114876978.057 8  21860362.758    89514577.36345
  23260375.672   122234007.399 7  23260384.223    95247275.778 6
  22331134.125   117350985.841 8  22331142.270    91442405.47645
  22810680.039   119870925.289 7  22810692.012    93405953.880 7
  24110820.703   126703244.188 7  24110833.969    98729866.94243
  22552502.422   118514246.760 7  22552511.820    92348796.470 7
 14 11 14 17 30  0.0000000  0 10G02G05G06G09G10G12G13G25G26G29
  20746914.664   109025782.684 8  20746918.824    84955167.67546
  20219081.164   106252080.733 8  20219087.258    82793958.397 8
  23458930.836   123277411.902 7  23458942.426    96060338.862 6
  24570211.570   129117331.156 5  24570225.223   100610931.930 7
  22031928.000   115778597.740 7  22031936.063    90217137.47646
  23437201.813   123163222.525 7  23437210.965    95971337.911 6
  22267398.438   117016048.695 7  22267405.918    91181415.36945
  22896365.359   120321196.709 7  22896376.855    93756813.782 7
  23887127.266   125527739.868 6  23887139.578    97813893.16044
  22385167.523   117634894.455 7  22385174.902    91663587.899 7
 14 11 14 17 35  0.0000000  0 10G02G05G06G09G10G12G13G25G26G29
  20790581.641   109255253.412 8  20790585.133    85133975.75246
  20206505.086   106185992.026 8  20206510.895    82742460.713 8
  23605425.570   124047239.404 7  23605438.879    96660203.049 7
  24713111.703   129868272.939 6  24713125.672   101196080.093 6
  22208144.773   116704621.550 7  22208153.711    90938713.51345
  23617242.438   124109337.527 6  23617253.910    96708568.444 7
  22214279.211   116736908.297 8  22214286.289    90963903.67245
  22990994.063   120818470.786 7  22991004.148    94144299.213 6
  23664322.484   124356900.538 7  23664335.164    96901551.81644
  22222676.719   116781006.059 7  22222685.789    90998221.062 7
 14 11 14 17 40  0.0000000  0 10G02G05G06G09G10G12G13G25G26G29
  20838894.250   109509136.060 8  20838898.355    85331806.16846
  20203047.031   106167821.164 8  20203053.008    82728301.709 8
  23754008.453   124828045.905 7  23754022.488    97268622.262 7
  24863270.516   130657355.919 7  24863284.449   101810948.671 5
  22388527.930   117652534.063 7  22388535.168    91677345.69545
  23799893.773   125069167.152 7  23799905.063    97456485.610 6
  22172065.773   116515075.573 8  22172072.742    90791047.66945
  23094101.820   121360301.970 7  23094114.020    94566504.445 7
  23443033.711   123194029.807 7  23443046.457    95995420.60044
  22065504.898   115955062.730 8  22065513.184    90354629.520 7
 14 11 14 17 45  0.0000000  0 10G02G05G06G09G10G12G13G25G26G29
  20891923.313   109787804.790 8  20891926.891    85548950.33346
  20208536.195   106196667.240 8  20208542.102    82750779.167 8
  23904645.477   125619641.423 7  23904659.043    97885448.519 7
  25020233.469   131482192.788 6  25020247.070   102453677.620 6
  22572611.273   118619892.822 7  22572619.230    92431130.67345
  23984553.648   126039549.433 7  23984564.063    98212625.420 6
  22140998.656   116351821.891 8  22141006.051    90663837.25245
  23205194.922   121944097.896 7  23205207.824    95021409.511 7
  23223904.148   122042495.667 7  23223914.090    95098123.03744
  21914126.570   115159570.811 8  21914135.164    89734766.414 7
 14 11 14 17 50  0.0000000  0 11G02G05G06G09G10G12G13G15G25G26G29
  20949740.070   110091632.396 8  20949743.879    85785698.81046
  20222775.617   106271496.092 8  20222781.684    82809087.348 8
  24057297.789   126421829.947 6  24057311.051    98510528.845 6
  25183530.328   132340321.450 6  25183544.723   103122348.241 6
  22759943.383   119604330.575 7  22759952.801    93198223.94345
  24170623.391   127017354.007 6  24170636.625    98974548.705 6
  22121273.773   116248166.294 8  22121281.016    90583066.72845
  25114160.773   131975810.178 5  25114177.879   102838313.500 5
  23323755.305   122567131.574 7  23323768.297    95506889.323 7
  23007582.375   120905725.693 7  23007592.629    94212330.06445
  21769021.156   114397037.100 8  21769028.680    89140584.871 7
 14 11 14 17 55  0.0000000  0 10G02G05G06G10G12G13G15G25G26G29
  21012414.125   110420984.688 8  21012418.258    86042336.68946
  20245545.977   106391154.111 8  20245551.922    82902327.315 8
  24211927.664   127234408.948 6  24211942.563    99143705.709 6
  22950092.063   120603561.393 7  22950101.309    93976844.24145
  24357522.117   127999494.213 7  24357535.148    99739850.225 6
  22113034.828   116204866.903 8  22113041.637    90549327.01745
  24895368.930   130826064.670 6  24895384.965   101942411.089 6
  23449242.031   123226561.655 7  23449254.055    96020729.805 7
  22794731.695   119787196.479 7  22794740.828    93340750.13745
  21630662.539   113669960.657 8  21630670.492    88574032.358 7
 14 11 14 18  0  0.0000000  0 10G02G05G06G10G12G13G15G25G26G29
  21080012.102   110776214.472 8  21080016.480    86319138.69746
  20276606.742   106554378.719 8  20276612.344    83029515.213 8
  24368494.000   128057163.743 6  24368509.305    99784811.640 6
  23142636.781   121615388.186 7  23142645.918    94765279.44444
  24544665.188   128982932.505 6  24544678.254   100506163.418 6
  22116373.109   116222413.153 8  22116380.207    90562999.56445
  24675772.680   129672092.240 6  24675786.520   101043215.357 5
  23581094.688   123919450.048 7  23581107.648    96560641.493 6
  22586022.250   118690425.506 7  22586030.328    92486124.94545
  21499522.195   112980815.606 8  21499529.168    88037036.828 7
 14 11 14 18  5  0.0000000  0 10G02G05G06G10G12G13G15G25G26G29
  21152599.648   111157661.241 8  21152604.031    86616369.44846
  20315700.336   106759816.344 8  20315706.160    83189596.369 8
  24526953.547   128889867.847 6  24526969.285   100433670.384 6
  23337179.836   122637710.521 6  23337189.121    95561893.03044
  24731489.883   129964693.481 5  24731504.105   101271169.496 6
  22131333.117   116301025.748 8  22131340.578    90624255.98545
  24455858.750   128516447.765 7  24455873.609   100142715.675 6
  23718739.055   124642782.402 6  23718753.191    97124275.601 6
  22382126.250   117618954.474 7  22382136.895    91651214.07345
  21376063.586   112332035.868 8  21376070.074    87531494.475 7
 14 11 14 18 10  0.0000000  0 10G02G05G06G10G12G13G15G25G26G29
  21230235.867   111565640.669 8  21230239.965    86934274.90246
  20362553.164   107006030.911 8  20362559.402    83381451.638 8
  24687259.930   129732276.807 6  24687275.492   101090091.586 6
  23533337.867   123668525.868 7  23533349.027    96365124.19545
  24917442.023   130941867.815 7  24917457.004   102032601.172 5
  22157904.172   116440660.653 8  22157911.871    90733062.34945
  24236124.688   127361744.251 6  24236137.699    99242949.471 6
  23861596.258   125393483.289 6  23861609.020    97709235.539 6
  22183722.641   116576335.807 8  22183730.949    90838784.96945
  21260738.758   111725999.547 8  21260746.031    87059258.708 7
 14 11 14 18 15  0.0000000  0 10G02G05G06G10G12G13G15G25G26G29
  21312974.375   112000433.046 8  21312978.617    87273073.60946
  20416878.422   107291509.994 8  20416883.863    83603902.672 8
  24849359.852   130584115.593 6  24849376.840   101753860.550 6
  23730750.609   124705924.261 7  23730760.652    97173484.88145
  25101980.391   131911612.069 6  25101995.086   102788243.556 6
  22196026.445   116640993.806 8  22196034.840    90889165.81245
  24017072.930   126210626.085 7  24017084.992    98345975.353 6
  24009064.594   126168424.258 7  24009077.922    98313083.632 6
  21991481.578   115566110.702 7  21991490.898    90051597.96545
  21153983.445   111164999.757 8  21153991.250    86622116.320 8
 14 11 14 18 20  0.0000000  0  9G02G05G06G10G13G15G25G26G29
  21400863.383   112462290.841 8  21400867.934    87632962.30946
  20478378.695   107614693.195 8  20478384.387    83855733.489 8
  25013199.188   131445093.470 5  25013216.438   102424751.070 6
  23929070.703   125748100.542 6  23929081.965    97985568.54743
  22245590.844   116901449.930 8  22245598.379    91092118.26145
  23799217.750   125065794.964 7  23799229.340    97453900.883 6
  24160545.133   126964455.254 6  24160559.852    98933365.486 6
  21806075.859   114591800.568 8  21806084.625    89292396.48246
  21056218.320   110651240.218 8  21056224.879    86221784.450 8
 14 11 14 18 25  0.0000000  0 10G02G05G06G10G13G15G21G25G26G29
  21493943.664   112951428.238 8  21493948.598    88014107.68846
  20546748.273   107973979.110 8  20546754.535    84135696.292 8
  25178718.641   132314896.948 6  25178735.262   103102519.839 6
  24127978.727   126793359.628 7  24127988.965    98800054.51443
  22306437.219   117221200.402 8  22306445.668    91341273.97245
  23583077.328   123929985.103 7  23583089.184    96568857.782 6
  25724392.516   135182591.080 6  25724407.219   105337139.70142
  24315437.414   127778414.142 6  24315452.402    99567616.932 6
  21628166.945   113656885.923 8  21628175.680    88563892.38546
  20967841.016   110186815.324 8  20967847.820    85859895.092 8
 14 11 14 18 30  0.0000000  0  9G02G05G10G13G15G21G25G26G29
  21592246.805   113468011.668 8  21592251.676    88416639.50746
  20621677.406   108367733.242 8  20621684.160    84442517.368 8
  24327168.453   127840102.753 6  24327180.266    99615696.67644
  22378362.859   117599170.069 7  22378370.977    91635795.18945
  23369177.227   122805941.345 7  23369189.152    95692981.709 7
  25573508.773   134389693.763 6  25573522.063   104719299.00342
  24473139.961   128607134.094 6  24473153.984   100213370.572 5
  21458404.016   112764780.046 8  21458412.797    87868745.62746
  20889223.742   109773681.221 8  20889230.777    85537972.584 8
 14 11 14 18 35  0.0000000  0  9G02G05G10G13G15G21G25G26G29
  21695794.297   114012156.087 8  21695800.008    88840647.34446
  20702851.195   108794302.141 8  20702857.695    84774908.331 8
  24526354.742   128886832.187 6  24526367.953   100431328.12043
  22461118.383   118034049.961 8  22461126.438    91974661.97145
  23158044.125   121696436.501 7  23158054.027    94828434.548 6
  25421438.039   133590563.817 6  25421451.711   104096602.02542
  24633050.656   129447459.985 6  24633066.770   100868167.672 6
  21297420.211   111918808.482 8  21297429.035    87209547.72146
  20820710.492   109413643.041 8  20820717.508    85257423.517 8
 14 11 14 18 40  0.0000000  0  9G02G05G10G13G15G21G25G26G29
  21804599.234   114583925.317 7  21804604.504    89286180.99446
  20789953.953   109252028.466 8  20789960.543    85131577.782 8
  24725275.156   129932153.859 6  24725286.734   101245862.68743
  22554414.266   118524318.121 7  22554421.977    92356688.22245
  22950206.641   120604253.212 7  22950217.785    93977385.393 7
  25268248.055   132785554.554 6  25268261.500   103469323.60742
  24794573.789   130296264.584 6  24794591.641   101529571.638 6
  21145828.891   111122188.741 8  21145837.484    86588805.33846
  20762613.344   109108340.318 8  20762620.262    85019525.374 8
 14 11 14 18 45  0.0000000  0  9G02G05G10G13G15G21G25G26G29
  21918660.453   115183318.635 8  21918667.055    89753239.88046
  20882670.344   109739256.066 8  20882677.156    85511235.222 8
  24923679.430   130974771.515 7  24923692.250   102058290.64443
  22657921.109   119068249.213 7  22657929.473    92780529.92345
  22746192.719   119532159.614 7  22746203.133    93141989.124 7
  25114019.828   131975079.216 6  25114031.539   102837785.84543
  24957121.914   131150452.067 6  24957139.434   102195170.400 6
  21004214.531   110378003.383 8  21004222.621    86008921.37046
  20715207.180   108859220.991 8  20715214.277    84825406.548 8
 14 11 14 18 50  0.0000000  0  9G02G05G10G13G15G21G25G26G29
  22037967.555   115810274.238 8  22037972.633    90241775.87446
  20980689.117   110254346.613 8  20980695.629    85912604.138 8
  25121343.313   132013492.166 6  25121354.840   102867682.49742
  22771276.445   119663930.579 7  22771284.684    93244696.43345
  22546529.477   118482924.285 7  22546537.590    92324403.948 7
  24958842.641   131159625.171 6  24958853.863   102202368.81643
  25120114.555   132006974.562 6  25120132.117   102862588.905 6
  20873134.344   109689176.314 8  20873141.711    85472173.70446
  20678731.141   108667535.353 8  20678738.133    84676041.113 8
 14 11 14 18 55  0.0000000  0 10G02G05G13G15G18G21G25G26G29G30
  22162493.523   116464664.392 8  22162500.680    90751689.31046
  21083702.617   110795683.910 8  21083709.063    86334424.987 8
  22894084.188   120309288.958 7  22894093.559    93747572.08245
  22351738.031   117459290.582 7  22351747.875    91526768.855 7
  25210456.320   132481835.356 6  25210470.680   103232660.49242
  24802822.781   130339746.293 6  24802833.539   101563504.15142
  25282980.953   132862838.486 6  25282999.379   103529494.114 6
  20753110.969   109058448.977 8  20753117.816    84980698.16446
  20653380.477   108534317.025 8  20653387.500    84572234.580 8
  25215135.922   132506423.919 6  25215150.652   103251801.693 6
 14 11 14 19  0  0.0000000  0  9G02G05G13G15G18G21G26G29G30
  22292204.055   117146287.971 7  22292210.777    91282823.46446
  21191409.156   111361682.346 7  21191416.137    86775462.098 8
  23025922.492   121002098.789 7  23025932.313    94287422.65245
  22162331.328   116463961.035 8  22162340.047    90751188.567 7
  25057169.188   131676305.689 6  25057183.293   102604975.67143
  24646080.867   129516069.879 6  24646090.629   100921680.17843
  20644625.070   108488354.731 8  20644632.207    84536469.28146
  20639308.773   108460369.471 8  20639315.695    84514613.005 8
  25146801.383   132147322.230 6  25146815.172   102971982.340 5
 14 11 14 19  5  0.0000000  0  9G02G05G13G15G18G21G26G29G30
  22427040.789   117854861.568 7  22427048.566    91834957.66545
  21303512.609   111950789.647 8  21303520.129    87234506.332 8
  23166342.063   121740001.836 7  23166351.391    94862410.89144
  21978816.164   115499585.279 8  21978824.594    89999727.978 7
  24905747.344   130880585.812 6  24905760.711   101984936.91543
  24488747.852   128689289.277 6  24488758.855   100277437.31943
  20548114.344   107981187.816 8  20548122.434    84141274.61046
  20636621.641   108446247.445 8  20636627.879    84503608.707 8
  25086280.055   131829289.851 6  25086296.352   102724165.670 5
 14 11 14 19 10  0.0000000  0  9G02G05G13G15G18G21G26G29G30
  22566942.313   118590038.511 7  22566948.902    92407821.53145
  21419729.008   112561508.495 8  21419736.164    87710390.664 7
  23314874.031   122520540.931 7  23314884.012    95470622.08843
  21801685.477   114568760.669 8  21801693.367    89274411.130 7
  24756246.359   130094968.536 6  24756259.660   101372769.27342
  24330975.453   127860188.094 7  24330986.055    99631386.06344
  20463968.250   107539000.154 8  20463975.629    83796713.11846
  20645379.555   108492271.246 8  20645386.484    84539471.361 8
  25033944.078   131554265.280 6  25033959.617   102509861.615 5
 14 11 14 19 15  0.0000000  0  9G02G05G13G15G18G21G26G29G30
  22711822.305   119351387.763 7  22711828.227    93001079.72844
  21539782.063   113192388.026 8  21539789.207    88201984.533 7
  23471034.586   123341161.213 6  23471043.570    96110065.24544
  21631417.883   113674005.254 8  21631425.387    88577200.092 7
  24608717.406   129319703.118 7  24608730.332   100768668.47743
  24172922.125   127029625.781 6  24172933.840    98984196.53744
  20392525.680   107163565.813 8  20392532.934    83504167.16947
  20665594.703   108598502.127 8  20665601.738    84622248.559 8
  24990130.406   131324015.801 7  24990142.492   102330446.586 6
 14 11 14 19 20  0.0000000  0  9G02G05G13G15G18G21G26G29G30
  22861587.672   120138400.153 7  22861593.973    93614334.81145
  21663406.383   113842035.204 8  21663412.883    88708202.615 7
  23634321.805   124199236.988 7  23634331.734    96778694.27745
  21468476.836   112817749.158 8  21468484.680    87909988.448 7
  24463196.805   128554998.486 7  24463210.832   100172796.52643
  24014771.320   126198539.885 7  24014781.117    98336598.51444
  20334067.359   106856367.763 8  20334074.309    83264792.27446
  20697229.820   108764745.928 8  20697238.141    84751789.018 8
  24955137.367   131140132.012 7  24955151.828   102187160.936 6
 14 11 14 19 25  0.0000000  0  9G02G05G13G15G18G21G26G29G30
  23016122.500   120950486.114 7  23016130.984    94247127.73345
  21790347.516   114509116.190 7  21790355.590    89228005.346 8
  23804227.516   125092090.862 7  23804237.230    97474423.29244
  21313305.906   112002318.942 8  21313313.719    87274589.256 7
  24319719.688   127801027.659 7  24319732.379    99585289.41444
  23856715.422   125367952.592 6  23856724.195    97689388.90544
  20288818.328   106618582.942 8  20288826.176    83079505.53247
  20740199.406   108990550.473 8  20740206.441    84927740.344 8
  24929234.102   131004011.485 7  24929248.086   102081092.967 5
 14 11 14 19 30  0.0000000  0  9G02G05G13G15G18G21G26G29G30
  23175301.977   121786975.293 7  23175311.699    94898935.93445
  21920365.617   115192360.840 8  21920373.250    89760403.105 7
  23980234.086   126017006.480 6  23980244.016    98195135.25843
  21166322.297   111229920.530 8  21166329.758    86672721.110 8
  24178310.070   127057922.785 6  24178321.891    99006248.64144
  23698963.359   124538969.696 7  23698972.988    97043429.39044
  20256941.328   106451069.957 8  20256949.023    82948976.07947
  20794368.719   109275210.950 8  20794376.270    85149553.370 8
  24912648.555   130916852.835 7  24912662.621   102013177.184 5
 14 11 14 19 35  0.0000000  0  9G02G05G13G15G18G21G26G29G30
  23338982.664   122647114.964 7  23338991.527    95569173.04245
  22053229.156   115890561.937 8  22053236.730    90304455.277 7
  24161820.109   126971243.646 7  24161831.250    98938695.33643
  21027923.055   110502629.027 8  21027930.430    86106001.074 8
  24038987.961   126325786.300 7  24038999.707    98435754.21944
  23541744.609   123712778.700 7  23541752.063    96399645.27744
  20238537.766   106354358.350 8  20238545.477    82873616.43647
  20859555.578   109617768.997 8  20859563.328    85416481.288 8
  24905567.422   130879644.685 7  24905581.637   101984184.299 5
 14 11 14 19 40  0.0000000  0  9G02G05G13G15G18G21G26G29G30
  23507005.820   123530075.671 7  23507015.805    96257192.63944
  22188722.789   116602582.195 8  22188730.395    90859275.742 7
  24348465.688   127952062.949 6  24348476.109    99702968.74243
  20898474.289   109822373.182 8  20898481.473    85575932.303 8
  23901767.711   125604691.031 7  23901778.313    97873862.69344
  23385296.945   122890653.445 7  23385305.613    95759029.33344
  20233645.781   106328649.977 8  20233653.141    82853583.92047
  20935531.719   110017025.905 8  20935539.980    85727590.124 8
  24908139.000   130893159.036 6  24908154.570   101994715.120 6
 14 11 14 19 45  0.0000000  0  9G02G05G13G15G18G21G26G29G30
  23679198.453   124434949.653 6  23679208.867    96962287.52344
  22326641.953   117327350.551 8  22326650.156    91424029.630 7
  24539647.727   128956729.408 6  24539659.613   100485824.18943
  20778313.031   109190922.422 8  20778319.375    85083893.221 8
  23766657.352   124894688.949 7  23766668.863    97320615.64544
  23229884.336   122073950.970 7  23229890.703    95122638.70844
  20242240.680   106373814.076 8  20242248.039    82888776.63247
  21022025.453   110471551.347 8  21022033.848    86081765.393 8
  24920469.055   130957948.832 6  24920482.410   102045200.736 6
 14 11 14 19 50  0.0000000  0  9G02G05G13G15G18G21G26G29G30
  23855375.406   125360751.058 7  23855384.473    97683689.63344
  22466796.844   118063865.823 7  22466804.922    91997936.808 7
  24734851.742   129982530.493 6  24734863.887   101285148.79742
  20667742.484   108609874.493 8  20667749.125    84631129.025 8
  23633662.289   124195805.343 7  23633674.250    96776032.49344
  23075775.859   121264111.162 7  23075784.145    94491595.54645
  20264234.219   106489392.644 8  20264241.777    82978837.69447
  21118721.484   110979689.653 8  21118729.805    86477716.698 8
  24942617.219   131074341.846 7  24942630.480   102135896.464 5
 14 11 14 19 55  0.0000000  0  9G02G05G13G15G18G21G26G29G30
  24035330.789   126306422.950 6  24035340.910    98420575.38043
  22609009.648   118811195.316 8  22609018.625    92580270.557 7
  24933568.031   131026790.491 6  24933580.180   102098857.61943
  20567033.266   108080644.939 8  20567040.203    84218742.737 8
  23502787.203   123508050.357 7  23502798.156    96240120.67945
  22923263.820   120462657.596 7  22923271.113    93867087.24345
  20299479.977   106674609.378 8  20299487.590    83123162.21547
  21225266.180   111539580.269 8  21225273.582    86913994.332 7
  24974606.086   131242442.674 7  24974620.309   102266883.849 5
 14 11 14 20  0  0.0000000  0  9G02G05G13G15G18G21G26G29G30
  24218853.398   127270830.778 6  24218862.676    99172060.56343
  22753114.914   119568470.589 8  22753123.699    93170354.393 7
  25135295.023   132086875.342 5  25135307.699   102924898.05042
  20476415.781   107604451.269 8  20476422.574    83847683.131 8
  23374027.555   122831418.246 7  23374037.887    95712875.81845
  22772652.016   119671187.711 7  22772659.688    93250358.23345
  20347770.430   106928375.682 8  20347777.426    83320902.05746
  21341267.148   112149164.558 8  21341273.480    87388994.285 7
  25016410.391   131462127.299 6  25016425.594   102438066.553 5
 14 11 14 20  5  0.0000000  0  8G02G05G15G18G21G26G29G30
  24405712.750   128252778.645 6  24405722.777    99937213.17943
  22898960.984   120334892.397 7  22898968.641    93767565.469 6
  20396085.625   107182313.227 8  20396092.223    83518744.729 8
  23247381.430   122165898.565 7  23247392.371    95194290.55744
  22624258.891   118891383.831 7  22624266.953    92642719.64345
  20408842.852   107249313.799 8  20408849.629    83570983.43546
  21466298.891   112806210.758 8  21466306.828    87900977.612 7
  25067966.273   131733053.720 6  25067980.633   102649178.228 6
 14 11 14 20 10  0.0000000  0  9G02G05G15G18G21G24G26G29G30
  24595669.594   129251001.942 6  24595679.594   100715048.17543
  23046406.367   121109723.280 7  23046416.340    94371328.791 7
  20326195.445   106815037.269 8  20326201.750    83232555.974 8
  23122847.547   121511471.538 7  23122857.859    94684348.46945
  22478419.727   118124995.008 7  22478427.688    92045534.27946
  25005192.070   131403180.831 6  25005211.586   102392144.970 7
  20482382.969   107635767.532 8  20482390.422    83872115.84346
  21599905.711   113508320.891 7  21599914.793    88448075.602 7
  25129165.531   132054656.593 6  25129179.789   102899777.712 6
 14 11 14 20 15  0.0000000  0  8G05G15G18G21G24G26G29G30
  23195324.492   121892287.397 7  23195334.363    94981118.084 7
  20266857.383   106503215.039 8  20266864.199    82989577.883 8
  23000421.742   120868117.401 8  23000431.066    94183034.52745
  22335479.281   117373841.218 7  22335486.680    91460220.33346
  24815577.656   130406758.819 6  24815593.668   101615715.846 6
  20568026.766   108085825.813 8  20568033.875    84222810.21746
  21741606.352   114252954.754 8  21741614.875    89028309.006 7
  25199859.234   132426160.598 6  25199875.711   103189261.378 6
 14 11 14 20 20  0.0000000  0  8G05G15G18G21G24G26G29G30
  23345597.391   122681971.266 7  23345606.832    95596455.317 7
  20218143.430   106247224.116 8  20218150.617    82790104.706 8
  22880099.422   120235825.216 7  22880107.660    93690340.54045
  22195796.734   116639808.395 7  22195804.063    90888247.28746
  24624490.648   129402597.265 6  24624506.855   100833253.931 6
  20665366.273   108597348.544 8  20665373.730    84621398.96346
  21890890.266   115037446.201 7  21890899.930    89639600.272 7
  25279864.703   132846588.140 6  25279878.609   103516867.676 6
 14 11 14 20 25  0.0000000  0  7G05G15G18G21G24G26G29
  23497117.766   123478214.402 7  23497127.078    96216903.669 6
  20180083.500   106047217.537 8  20180089.719    82634255.673 8
  22761879.773   119614586.686 7  22761889.375    93206259.67145
  22059741.391   115924837.491 8  22059749.254    90331127.78146
  24432455.836   128393456.234 6  24432472.480   100046912.160 7
  20773955.016   109167985.322 8  20773962.664    85066050.67646
  22047231.547   115859018.508 8  22047241.445    90279785.526 7
 14 11 14 20 30  0.0000000  0  7G05G15G18G21G24G26G29
  23649790.250   124280510.934 7  23649799.883    96842069.007 6
  20152665.047   105903132.636 8  20152671.168    82521981.995 8
  22645766.281   119004409.335 8  22645775.527    92730797.83745
  21927693.672   115230923.071 7  21927701.191    89790415.94646
  24240011.805   127382167.026 6  24240028.109    99258896.740 6
  20893311.391   109795204.695 8  20893319.055    85554792.65746
  22210082.359   116714803.739 7  22210091.660    90946630.197 7
 14 11 14 20 35  0.0000000  0  7G05G15G18G21G24G26G29
  23803528.273   125088405.840 7  23803538.102    97471596.687 7
  20135835.891   105814694.959 8  20135841.984    82453069.716 8
  22531763.328   118405319.756 8  22531771.086    92263975.52145
  21800040.625   114560102.700 7  21800046.902    89267699.28046
  24047711.688   126371633.242 6  24047727.945    98471470.049 6
  21022923.945   110476322.142 8  21022931.859    86085533.14446
  22378884.859   117601861.411 8  22378892.563    91637842.903 6
 14 11 14 20 40  0.0000000  0  7G05G15G18G21G24G26G29
  23958252.758   125901486.568 7  23958263.051    98105165.341 7
  20129501.969   105781412.292 8  20129507.855    82427135.377 8
  22419877.398   117817360.290 7  22419884.766    91805826.14745
  21677175.445   113914444.223 7  21677182.191    88764589.29846
  23856118.344   125364813.116 6  23856132.871    97686937.655 6
  21162256.938   111208517.907 8  21162264.863    86656074.84446
  22553067.148   118517185.741 7  22553076.227    92351081.464 7
 14 11 14 20 45  0.0000000  0  7G05G15G18G21G24G26G29
  24113894.281   126719387.908 7  24113904.184    98742490.397 6
  20133533.352   105802599.202 8  20133539.344    82443644.773 8
  22310124.727   117240607.346 8  22310131.684    91356409.25145
  21559497.398   113296045.773 8  21559503.887    88282721.05446
  23665806.070   124364723.653 7  23665820.254    96907649.934 7
  21310754.328   111988876.322 8  21310762.418    87264145.82346
  22732047.078   119457735.845 7  22732058.621    93083976.369 7
 14 11 14 20 50  0.0000000  0  9G05G15G18G21G22G24G26G27G29
  24270390.633   127541778.230 7  24270401.215    99383313.340 6
  20147762.289   105877370.584 8  20147767.855    82501908.293 8
  22202522.430   116675159.076 8  22202529.742    90915800.92045
  21447407.789   112707013.274 7  21447414.793    87823735.10646
  25137547.500   132098694.760 6  25137561.250   102934113.54443
  23477356.578   123374423.524 7  23477370.023    96135989.298 7
  21467846.352   112814398.166 8  21467854.039    87907408.99345
  25095304.711   131876718.186 6  25095323.211   102761105.875 6
  22915244.930   120420436.371 7  22915254.719    93834131.117 6
 14 11 14 20 55  0.0000000  0  9G05G15G18G21G22G24G26G27G29
  24427685.766   128368365.061 7  24427696.348   100027406.383 6
  20171985.227   106004665.974 8  20171991.371    82601099.548 8
  22097098.641   116121154.485 8  22097105.699    90484109.77246
  21341309.453   112149459.967 8  21341315.352    87389278.38546
  24984410.313   131293959.522 7  24984422.715   102307048.89543
  23291361.172   122397012.996 7  23291373.051    95374372.116 6
  21632952.523   113682035.098 8  21632960.844    88583489.17445
  24963506.969   131184125.120 6  24963525.508   102221424.757 6
  23102070.852   121402203.746 7  23102082.012    94599143.037 7
 14 11 14 21  0  0.0000000  0  9G05G15G18G21G22G24G26G27G29
  24585727.945   129198885.530 6  24585739.328   100674564.848 6
  20205969.297   106183252.457 8  20205974.969    82740257.897 8
  21993885.203   115578767.749 8  21993892.234    90061471.34046
  21241599.984   111625487.745 8  21241606.223    86980988.80046
  24831597.898   130490931.709 7  24831609.262   101681315.24743
  23108411.930   121435617.371 7  23108424.637    94625234.206 7
  21805486.695   114588706.697 7  21805495.656    89289985.88145
  24839760.289   130533838.697 6  24839777.828   101714710.095 6
  23291936.266   122399951.623 7  23291947.496    95376607.041 6
 14 11 14 21  5  0.0000000  0  9G05G15G18G21G22G24G26G27G29
  24744474.445   130033103.767 6  24744485.914   101324604.973 6
  20249449.617   106411745.092 8  20249455.918    82918304.164 8
  21892923.695   115048216.487 8  21892931.355    89648055.50546
  21148676.508   111137173.000 8  21148681.938    86600484.16146
  24679134.367   129689742.492 6  24679146.121   101057014.17843
  22929108.180   120493377.746 7  22929120.145    93891023.526 7
  21984861.531   115531325.558 7  21984870.277    90024493.43545
  24724447.703   129927875.566 6  24724465.309   101242533.297 6
  23484258.055   123410605.223 7  23484270.211    96164127.694 6
 14 11 14 21 10  0.0000000  0  9G05G15G18G21G22G24G26G27G29
  24903884.711   130870804.322 7  24903894.797   101977358.845 6
  20302136.664   106688616.696 8  20302143.086    83134048.295 8
  21794263.969   114529759.241 8  21794270.355    89244063.66346
  21062926.219   110686553.667 8  21062932.602    86249352.57646
  24527049.422   128890543.307 6  24527062.137   100434263.35744
  22754047.609   119573434.377 7  22754059.051    93174186.142 7
  22170491.391   116506812.106 8  22170499.324    90784612.11045
  24617926.102   129368106.571 6  24617943.402   100806351.523 7
  23678456.117   124431110.019 7  23678468.531    96959324.459 6
 14 11 14 21 15  0.0000000  0  9G05G15G18G21G22G24G26G27G29
  25063916.445   131711787.647 6  25063928.426   102632670.937 6
  20363715.172   107012212.018 8  20363721.285    83386200.450 8
  21697963.961   114023700.855 8  21697970.031    88849733.09346
  20984725.969   110275610.594 8  20984731.875    85929137.61246
  24375378.852   128093509.056 7  24375389.414    99813200.05144
  22583824.648   118678914.259 7  22583836.809    92477159.144 7
  22361794.391   117512113.249 7  22361802.977    91567963.06745
  24520521.219   128856244.360 7  24520536.191   100407499.434 6
  23873951.813   125458441.403 7  23873965.066    97759840.699 6
 14 11 14 21 20  0.0000000  0  9G05G15G18G21G22G24G26G27G29
  25224540.688   132555871.147 7  25224551.316   103290398.963 5
  20433849.594   107380771.066 8  20433855.852    83673389.285 8
  21604091.125   113530396.979 8  21604097.895    88465341.04546
  20914440.313   109906258.670 8  20914446.051    85641331.28046
  24224156.656   127298844.396 6  24224167.336    99193982.85344
  22419030.117   117812921.058 7  22419041.918    91802360.751 7
  22558198.141   118544222.506 7  22558207.816    92372203.26045
  24432525.680   128393832.169 7  24432541.258   100047180.112 7
  24070180.195   126489618.130 6  24070193.516    98563353.353 6
 14 11 14 21 25  0.0000000  0  9G05G15G18G21G22G24G26G27G29
  25385720.570   133402881.559 6  25385731.273   103950407.998 6
  20512186.992   107792440.940 8  20512193.598    83994170.952 8
  21512722.555   113050255.739 8  21512728.969    88091205.70846
  20852417.164   109580326.255 8  20852423.230    85387358.21746
  24073432.258   126506788.493 7  24073442.625    98576798.83844
  22260248.734   116978519.057 7  22260260.168    91152178.464 8
  22759142.750   119600192.387 7  22759151.914    93195036.39644
  24354196.477   127982227.616 6  24354214.121    99726450.727 7
  24266580.180   127521708.055 6  24266593.410    99367577.556 6
 14 11 14 21 30  0.0000000  0  9G14G15G18G21G22G24G26G27G29
  25058613.406   131683908.249 6  25058629.195   102610899.79242
  20598362.773   108245295.297 8  20598368.902    84347044.341 8
  21423947.617   112583740.075 8  21423953.234    87727687.71846
  20798985.813   109299544.382 7  20798991.664    85168567.34846
  23923257.070   125717618.066 7  23923266.410    97961862.78445
  22108048.516   116178714.577 7  22108060.754    90528955.314 8
  22964081.609   120677148.530 7  22964090.621    94034222.53544
  24285761.328   127622591.386 7  24285775.844    99446215.980 7
  24462609.969   128551837.687 6  24462623.488   100170273.822 6
 14 11 14 21 35  0.0000000  0  9G14G15G18G21G22G24G26G27G29
  24869703.531   130691191.229 6  24869719.352   101837356.87143
  20691997.180   108737344.658 8  20692003.191    84730459.339 8
  21337862.406   112131364.200 8  21337868.781    87375187.49046
  20754453.125   109065523.952 7  20754458.254    84986213.94646
  23773689.117   124931646.687 6  23773698.012    97349419.44344
  21962992.523   115416436.544 8  21963002.477    89934973.379 7
  23172481.539   121772294.306 7  23172490.945    94887582.45744
  24227392.461   127315871.643 6  24227407.273    99207214.614 6
  24657730.156   129577193.205 6  24657744.473   100969250.006 5
 14 11 14 21 40  0.0000000  0  9G14G15G18G21G22G24G26G27G29
  24683242.273   129711342.332 6  24683255.730   101073840.96543
  20792703.102   109266558.045 8  20792709.059    85142833.313 8
  21254577.227   111693701.492 8  21254583.543    87034152.26846
  20719100.352   108879742.815 7  20719105.941    84841449.62646
  23624799.969   124149235.472 7  23624807.660    96739750.44244
  21825616.344   114694523.312 7  21825625.492    89372444.364 7
  23383827.359   122882926.825 7  23383837.852    95753010.10944
  24179235.398   127062800.362 7  24179249.621    99010017.124 7
  24851421.070   130595035.313 6  24851434.496   101762372.215 6
 14 11 14 21 45  0.0000000  0  9G14G15G18G21G22G24G26G27G29
  24499477.609   128745663.645 6  24499492.813   100321366.33343
  20900088.898   109830874.847 8  20900094.688    85582560.653 8
  21174211.523   111271380.111 8  21174217.617    86705071.23146
  20693180.758   108743534.712 7  20693186.301    84735313.56046
  23476666.508   123370793.295 7  23476673.195    96133174.09744
  21696440.625   114015705.461 7  21696450.277    88843496.295 8
  23597626.820   124006443.286 6  23597636.367    96628477.08043
  24141380.586   126863883.548 6  24141395.891    98855017.865 7
  25043173.961   131602698.432 7  25043189.070   102547563.039 6
 14 11 14 21 50  0.0000000  0  8G14G15G18G21G22G24G26G27
  24318648.383   127795403.563 6  24318661.707    99580906.43543
  21013760.938   110428224.532 8  21013766.984    86048027.926 8
  21096896.828   110865086.847 8  21096902.586    86388479.45346
  20676917.688   108658073.282 7  20676923.590    84668720.39046
  23329373.922   122596781.103 7  23329380.535    95530049.65144
  21575960.578   113382583.479 7  21575970.957    88350155.436 8
  23813400.852   125140346.628 7  23813410.316    97512038.35643
  24113885.898   126719395.348 7  24113900.398    98742430.257 6
 14 11 14 21 55  0.0000000  0  8G14G15G18G21G22G24G26G27
  24140976.016   126861743.300 6  24140989.027    98853381.34743
  21133322.789   111056527.934 8  21133328.910    86537615.094 8
  21022771.297   110475558.133 8  21022776.715    86084951.29546
  20670500.711   108624351.292 7  20670505.793    84642443.68146
  23183024.070   121827708.570 8  23183030.953    94930773.88045
  21464643.000   112797607.180 8  21464653.160    87894330.595 8
  24030696.352   126282244.474 6  24030705.336    98401829.44343
  24096754.117   126629368.079 7  24096766.504    98672279.481 6
 14 11 14 22  0  0.0000000  0  9G14G15G18G19G21G22G24G26G27
  23966677.648   125945801.941 7  23966689.617    98139662.69543
  21258382.750   111713721.344 8  21258389.250    87049713.806 8
  20951987.156   110103588.609 8  20951992.816    85795105.56746
  25236814.445   132620358.326 6  25236826.422   103340584.22943
  20674083.523   108643180.414 7  20674088.570    84657115.88446
  23037722.422   121064147.895 8  23037728.930    94335792.95845
  21362921.953   112263063.884 7  21362932.313    87477804.065 8
  24249080.461   127429862.352 6  24249089.531    99296077.95943
  24089948.281   126593600.107 7  24089959.938    98644408.694 6
 14 11 14 22  5  0.0000000  0  9G14G15G18G19G21G22G24G26G27
  23795949.344   125048633.888 6  23795959.988    97440572.68843
  21388552.141   112397765.978 8  21388558.148    87582735.611 7
  20884705.578   109750023.183 8  20884710.996    85519600.45346
  25152122.992   132175310.451 6  25152134.910   102993795.18343
  20687783.375   108715173.710 8  20687788.391    84713214.64246
  22893589.023   120306731.172 7  22893595.750    93745599.79945
  21271198.469   111781057.382 8  21271207.813    87102215.301 8
  24468140.445   128581040.394 7  24468149.910   100193101.36843
  24093382.531   126611649.951 7  24093395.781    98658474.008 6
 14 11 14 22 10  0.0000000  0  9G14G15G18G19G21G22G24G26G27
  23628983.133   124171224.722 7  23628994.457    96756879.91144
  21523449.250   113106656.595 8  21523455.273    88135117.985 7
  20821097.680   109415761.415 8  20821102.824    85259137.14046
  25077026.594   131780680.495 6  25077037.422   102686292.71743
  20711678.305   108840741.945 7  20711683.840    84811060.02146
  22750758.445   119556153.827 8  22750763.785    93160735.90845
  21189835.797   111353495.300 8  21189844.789    86769050.769 8
  24687491.398   129733739.480 6  24687499.961   101091309.91343
  24106929.016   126682841.703 7  24106941.109    98713948.297 6
 14 11 14 22 15  0.0000000  0  9G14G15G18G19G21G22G24G26G27
  23465949.203   123314485.026 7  23465959.934    96089292.62244
  21662701.305   113838430.951 8  21662707.469    88705331.800 7
  20761342.414   109101747.346 8  20761346.965    85014451.22346
  25011738.180   131437593.840 6  25011749.785   102418953.97044
  20745805.813   109020082.881 8  20745811.277    84950806.15946
  22609372.836   118813174.752 7  22609379.066    92581792.40346
  21119155.500   110982069.076 8  21119164.441    86479628.438 8
  24906765.992   130886040.595 6  24906774.273   101989208.34242
  24130415.852   126806267.942 7  24130428.707    98810124.846 6
 14 11 14 22 20  0.0000000  0  8G14G15G18G19G21G22G24G27
  23307009.711   122479257.960 7  23307018.934    95438468.22544
  21805944.742   114591180.135 8  21805951.867    89291889.562 8
  20705628.453   108808972.218 8  20705633.758    84786315.30646
  24956432.453   131146968.245 6  24956442.852   102192493.59543
  20790163.391   109253181.652 8  20790167.723    85132441.50746
  22469590.344   118078623.341 7  22469596.766    92009416.09846
  21059436.438   110668244.469 8  21059444.832    86235090.433 8
  24163628.305   126980798.110 7  24163642.559    98946122.270 7
 14 11 14 22 25  0.0000000  0  8G14G15G18G19G21G22G24G27
  23152306.719   121666298.328 7  23152315.191    94804994.87144
  21952825.328   115363043.476 8  21952831.367    89893341.677 7
  20654150.094   108538452.147 8  20654155.129    84575520.95346
  24911241.172   130909489.020 6  24911253.148   102007445.67344
  20844702.969   109539790.256 8  20844707.938    85355772.75946
  22331582.070   117353383.764 8  22331587.145    91444295.81946
  21010908.906   110413234.368 8  21010917.430    86036381.784 8
  24206306.219   127205071.580 7  24206320.391    99120880.812 7
 14 11 14 22 30  0.0000000  0  8G14G15G18G19G21G22G24G27
  23001973.453   120876295.773 7  23001980.613    94189409.74144
  22103002.813   116152231.821 8  22103008.719    90508293.812 7
  20607108.352   108291247.853 8  20607112.664    84382894.75746
  24876252.461   130725624.508 7  24876262.598   101864175.87644
  20909338.039   109879450.232 8  20909343.559    85620442.80146
  22195526.375   116638416.331 8  22195532.090    90887179.51446
  20973759.266   110218012.200 8  20973767.594    85884261.165 8
  24258151.992   127477529.594 6  24258165.016    99333185.562 6
 14 11 14 22 35  0.0000000  0  8G14G15G18G19G21G22G24G27
  22856124.555   120109866.016 7  22856133.672    93592193.35244
  22256150.320   116957027.347 8  22256156.230    91135407.452 7
  20564710.727   108068449.953 8  20564715.738    84209286.44947
  24851510.430   130595611.089 6  24851520.613   101762867.51543
  20983940.266   110271487.657 8  20983946.273    85925926.51546
  22061622.930   115934754.034 8  22061628.676    90338872.40546
  20948122.078   110083292.529 8  20948129.879    85779285.392 8
  24318836.352   127796419.311 7  24318850.203    99581670.873 7
 14 11 14 22 40  0.0000000  0  8G14G15G18G19G21G22G24G27
  22714866.547   119367548.993 7  22714874.566    93013766.24745
  22411954.445   117775787.311 7  22411961.148    91773402.358 7
  20527169.719   107871170.974 8  20527174.133    84055562.99846
  24837018.078   130519451.484 6  24837027.051   101703465.25243
  21068339.875   110715011.262 8  21068345.773    86271529.22346
  21930081.406   115243498.650 8  21930086.090    89800233.29146
  20934084.805   110009529.490 7  20934092.977    85721808.338 8
  24387985.672   128159803.877 6  24387999.098    99864827.138 6
 14 11 14 22 45  0.0000000  0  8G14G15G18G19G21G22G24G27
  22578282.102   118649804.784 7  22578291.285    92454486.70545
  22570118.266   118606941.447 7  22570124.613    92421055.126 7
  20494698.516   107700535.325 8  20494702.992    83922600.69247
  24832727.867   130496907.478 7  24832735.523   101685899.22444
  21162327.664   111208917.236 7  21162333.215    86656390.86546
  21801120.914   114565812.151 8  21801125.309    89272167.05746
  20931682.930   109996905.762 8  20931690.441    85711972.098 8
  24465201.547   128565572.427 6  24465215.648   100181010.114 6
 14 11 14 22 50  0.0000000  0  8G14G15G18G19G21G22G24G27
  22446451.148   117957031.006 7  22446459.230    91914664.48145
  22730357.477   119449008.089 7  22730363.672    93077211.104 7
  20467514.320   107557684.319 8  20467518.367    83811288.73147
  24838551.578   130527516.537 7  24838561.031   101709751.26244
  21265655.633   111751911.301 8  21265661.172    87079502.99246
  21674978.461   113902936.282 7  21674983.008    88755641.23946
  20940901.273   110045352.783 8  20940909.160    85749723.596 8
  24550053.109   129011470.661 7  24550067.449   100528462.880 6
 14 11 14 22 55  0.0000000  0  8G14G15G18G19G21G22G24G27
  22319429.961   117289532.924 7  22319437.977    91394537.11245
  22892404.539   120300568.609 7  22892409.926    93740764.956 6
  20445831.602   107443742.475 8  20445835.988    83722503.35046
  24854354.102   130610563.342 7  24854362.984   101774464.02644
  21378038.570   112342484.377 8  21378044.348    87539689.65646
  21551899.766   113256158.566 8  21551903.945    88251659.76646
  20961674.211   110154517.987 8  20961682.109    85834787.889 8
  24642082.359   129495083.547 7  24642095.977   100905303.866 6
 14 11 14 23  0  0.0000000  0  9G12G14G15G18G19G21G22G24G27
  24938243.172   131051356.665 7  24938251.316   102117957.267 6
  22197265.617   116647562.920 7  22197273.102    90894302.07245
  23056006.055   121160301.104 7  23056011.984    94410686.512 7
  20429865.133   107359839.972 8  20429869.523    83657125.21746
  24879958.797   130745120.464 6  24879967.391   101879314.52844
  21499155.258   112978958.086 8  21499161.156    88035643.06146
  21432144.422   112626841.357 8  21432148.020    87761283.68446
  20993889.469   110323810.798 8  20993897.008    85966704.786 8
  24740807.305   130013886.371 6  24740821.855   101309565.325 6
 14 11 14 23  5  0.0000000  0  9G12G14G15G18G19G21G22G24G27
  24779079.359   130214944.974 6  24779087.996   101466207.967 6
  22079993.563   116031302.958 7  22080000.520    90414101.18245
  23220926.578   122026964.292 7  23220932.242    95086008.493 7
  20419826.602   107307088.866 8  20419830.617    83616020.85746
  24915146.266   130930038.758 6  24915155.340   102023407.27843
  21628655.148   113659484.066 8  21628660.516    88565922.98346
  21315981.930   112016404.574 8  21315984.266    87285619.65446
  21037385.922   110552390.584 8  21037394.043    86144819.365 8
  24845727.766   130565246.256 6  24845741.727   101739196.310 6
 14 11 14 23 10  0.0000000  0  9G12G14G15G18G19G21G22G24G27
  24621717.703   129388009.268 6  24621726.148   100821843.165 6
  21967636.258   115440866.164 7  21967642.652    89954021.96546
  23386944.336   122899396.473 7  23386950.332    95765826.039 7
  20415922.711   107286573.488 7  20415926.449    83600035.22947
  24959659.047   131163954.851 6  24959668.941   102205680.32143
  21766154.734   114382050.380 8  21766159.500    89128961.60745
  21203691.656   111426319.065 8  21203694.434    86825813.78447
  21091960.008   110839178.182 8  21091966.969    86368290.664 8
  24956323.469   131146433.695 6  24956338.164   102192069.530 6
 14 11 14 23 15  0.0000000  0  9G12G14G15G18G19G21G22G24G27
  24466781.781   128573819.788 6  24466789.848   100187411.019 6
  21860204.242   114876309.348 7  21860209.754    89514108.70746
  23553855.398   123776518.623 7  23553859.734    96449298.042 6
  20418352.633   107299344.568 8  20418355.910    83609987.10747
  25013197.898   131445305.812 6  25013206.254   102424915.45643
  21911244.844   115144501.815 8  21911250.926    89723079.50746
  21095563.703   110858108.197 8  21095565.633    86383053.04647
  21157362.930   111182876.647 8  21157371.027    86636108.035 8
  25072062.563   131754645.497 6  25072077.633   102666000.772 6
 14 11 14 23 20  0.0000000  0  9G12G14G15G18G19G21G22G24G27
  24314897.313   127775668.829 6  24314905.988    99565476.557 6
  21757697.297   114337632.569 8  21757701.664    89094361.76046
  23721468.461   124657332.166 7  23721474.098    97135646.510 6
  20427308.258   107346409.762 8  20427311.746    83646661.64447
  25075429.156   131772338.956 6  25075439.105   102679747.15343
  22063489.953   115944554.135 7  22063496.145    90346496.77145
  20991896.664   110313337.542 8  20991898.547    85958557.15946
  21233309.461   111581979.383 8  21233316.672    86947097.564 8
  25192399.523   132387016.141 5  25192413.988   103158756.464 6
 14 11 14 23 25  0.0000000  0  8G12G14G15G18G19G21G22G24
  24166694.203   126996857.075 6  24166701.570    98958611.437 6
  21660102.867   113824778.988 8  21660107.848    88694736.86246
  23889608.719   125540915.014 7  23889613.984    97824152.981 7
  20442971.156   107428720.602 8  20442974.836    83710800.32547
  25145986.117   132143120.673 6  25145994.797   102968668.42143
  22222431.664   116779799.684 7  22222436.852    90997337.37345
  20892995.352   109793608.089 8  20892997.289    85553573.62847
  21319475.258   112034785.226 8  21319482.746    87299933.604 8
 14 11 14 23 30  0.0000000  0  9G12G14G15G18G19G21G22G24G25
  24022798.656   126240686.327 6  24022805.828    98369388.693 6
  21567403.633   113337648.921 8  21567409.688    88315156.16346
  24058114.500   126426423.025 7  24058120.391    98514159.423 7
  20465511.273   107547169.849 8  20465514.441    83803098.78346
  25224471.625   132555559.708 6  25224478.902   103290049.81944
  22387595.219   117647735.092 7  22387600.363    91673650.44745
  20799169.891   109300554.642 8  20799171.355    85169376.72947
  21415504.883   112539424.780 8  21415511.668    87693159.573 8
  24990426.219   131325574.097 6  24990438.480   102331670.321 6
 14 11 14 23 35  0.0000000  0 10G04G12G14G15G18G19G21G22G24G25
  24846238.484   130567868.416 6  24846248.773   101741236.19243
  23883835.883   125510434.589 6  23883843.090    97800362.674 6
  21479572.195   112876093.776 7  21479576.887    87955503.76846
  24226840.547   127313083.459 7  24226845.273    99205063.836 5
  20495082.898   107702572.531 7  20495086.207    83924192.08846
  25310454.641   133007409.657 6  25310463.266   103642140.88444
  22558482.586   118545761.469 7  22558489.223    92373411.02844
  20710734.750   108835827.148 8  20710735.832    84807251.97247
  21521011.594   113093869.697 8  21521019.074    88125194.917 8
  24810725.789   130381243.082 6  24810736.176   101595830.225 6
 14 11 14 23 40  0.0000000  0 11G04G12G14G15G18G19G21G22G24G25G31
  24674145.391   129663518.901 6  24674155.730   101036549.46843
  23750421.469   124809345.840 7  23750427.270    97254061.180 6
  21396572.375   112439929.935 8  21396577.027    87615636.44046
  24395651.563   128200194.013 7  24395656.609    99896319.240 6
  20531827.125   107895667.639 8  20531830.984    84074656.05546
  25403486.586   133496294.650 5  25403495.207   104023090.39442
  22734590.508   119471213.650 7  22734597.910    93094542.37445
  20628006.805   108401092.206 8  20628009.387    84468497.99947
  21635585.219   113695957.788 8  21635592.273    88594354.836 8
  24630352.234   129433388.534 6  24630363.711   100857243.747 6
  24725563.586   129933717.906 6  24725572.484   101247080.082 6
 14 11 14 23 45  0.0000000  0 11G04G12G14G15G18G19G21G22G24G25G31
  24508384.078   128792445.100 7  24508393.637   100357792.98544
  23623164.047   124140608.051 7  23623169.195    96732968.258 6
  21318362.820   112028937.852 8  21318368.543    87295383.26946
  24564427.484   129087120.126 7  24564433.348   100587430.840 7
  20575867.930   108127100.492 8  20575870.449    84254993.58446
  25503091.633   134019716.216 5
  22915399.391   120421362.348 7  22915405.902    93834917.58044
  20551303.102   107998013.896 8  20551303.914    84154411.58547
  21758790.773   114343409.269 8  21758798.086    89098862.771 8
  24449885.133   128485029.239 6  24449896.141   100118263.447 6
  24503870.352   128768729.384 6  24503878.160   100339300.717 5
 14 11 14 23 50  0.0000000  0 10G04G12G14G15G18G21G22G24G25G31
  24349450.992   127957251.502 7  24349459.461    99706955.29544
  23502656.258   123507340.379 7  23502660.945    96239514.369 6
  21244897.203   111642876.639 8  21244901.590    86994557.22946
  24733061.227   129973293.645 6  24733066.289   101277955.703 6
  20627308.008   108397424.303 8  20627311.879    84465635.80546
  23100377.945   121393433.772 7  23100384.449    94592375.58944
  20480939.609   107628251.690 8  20480941.109    83866285.66247
  21890177.234   115033850.731 8  21890183.934    89636869.462 8
  24269910.891   127539260.223 6  24269920.949    99381301.809 6
  24283756.953   127612035.611 7  24283765.184    99437983.807 7
 14 11 14 23 55  0.0000000  0 10G04G12G14G15G18G21G22G24G25G31
  24197826.938   127160476.447 6  24197836.816    99086093.25543
  23389473.695   122912571.177 7  23389479.418    95776059.092 6
  21176125.180   111281477.058 8  21176128.551    86712947.86746
  24901454.367   130858204.402 6  24901459.641   101967496.557 6
  20686234.727   108707083.803 8  20686237.293    84706929.09046
  23288995.258   122384620.231 7  23289001.621    95364728.33544
  20417227.953   107293445.805 8  20417228.414    83605398.35947
  22029277.289   115764828.045 8  22029283.328    90206462.480 7
  24091028.711   126599235.264 6  24091038.652    98648816.801 7
  24065670.555   126465995.113 7  24065677.664    98544967.416 6
